ZoneName	Time	SystemTime	Frame	Velocity	LaneName	LanePos	LaneIndex	LaneCount	LaneHeading	SpeedLimit	Steer	Accel	Brake	Gear	Horn	SubjectEngineRPM	SubjectHeading	SubjectPitch	SubjectRoll	SubjectX	SubjectY	SubjectZ	Signal	LatAccel	LongAccel	Collision	CollisionAngle	CollisionVelocity	VehAhead	HeadwayTime	HeadwayDist	TTC	TerrainType	CultureType	Slip	DigitalInputs	DigitalInputs2	ActiveTrigger	EntityName	DistToEntity	TimeToEntity	EntityVelocity	EntityAccel	EntityHeading	EntityX	EntityY	EntityZ	GrabData	
Unknown	0.98335	01/14/0117 10:14.41	00000059	0.002	Inter625t13-0	-0.088	1	2	0.000	11.111	1.6	0.000	0.000	D	F	0.0	0.001	0.153	-0.001	1503.500	523.206	0.019	-	-0.000	0.000	-	-	-	-	-	-	-	PAVEMENT_GENERAL	Urban	F	1011101000011101	0000000000000000	-	-	-	-	-	-	-	-	-	-	Terminate	
Unknown	1.98337	01/14/0117 10:14.42	00000119	0.000	Inter625t13-0	-0.088	1	2	0.000	11.111	2.1	0.000	0.000	D	F	0.0	0.000	0.197	-0.000	1503.500	523.208	0.026	-	0.000	-0.001	-	-	-	-	-	-	-	PAVEMENT_GENERAL	Urban	F	1011101000011101	0000000000000000	-	-	-	-	-	-	-	-	-	-	Terminate	
Unknown	2.98339	01/14/0117 10:14.43	00000179	-0.000	Inter625t13-0	-0.088	1	2	0.000	11.111	1.9	0.000	0.000	D	F	0.0	0.000	0.207	-0.000	1503.500	523.208	0.028	-	0.000	-0.000	-	-	-	-	-	-	-	PAVEMENT_GENERAL	Urban	F	1011101000011101	0000000000000000	-	-	-	-	-	-	-	-	-	-	Terminate	
Unknown	3.98341	01/14/0117 10:14.44	00000239	-0.000	Inter625t13-0	-0.088	1	2	0.000	11.111	1.8	0.000	0.000	D	F	0.0	0.000	0.210	-0.000	1503.500	523.208	0.028	-	0.000	-0.000	-	-	-	-	-	-	-	PAVEMENT_GENERAL	Urban	F	1011101000011101	0000000000000000	-	-	-	-	-	-	-	-	-	-	Terminate	
Unknown	4.98343	01/14/0117 10:14.45	00000299	0.000	Inter625t13-0	-0.088	1	2	0.000	11.111	1.7	0.000	0.000	D	F	155.6	0.000	0.209	-0.000	1503.500	523.208	0.028	-	0.000	0.000	-	-	-	-	-	-	-	PAVEMENT_GENERAL	Urban	F	1011101000011111	0000000000000000	-	-	-	-	-	-	-	-	-	-	Terminate	
Unknown	5.98345	01/14/0117 10:14.46	00000359	0.005	Inter625t13-0	-0.088	1	2	0.000	11.111	1.7	0.000	0.000	D	F	488.9	0.000	0.208	0.000	1503.500	523.209	0.027	-	0.000	0.018	-	-	-	-	-	-	-	PAVEMENT_GENERAL	Urban	F	1011101000011101	0000000000000000	-	-	-	-	-	-	-	-	-	-	Terminate	
Unknown	6.98347	01/14/0117 10:14.47	00000419	0.048	Inter625t13-0	-0.088	1	2	0.000	11.111	2.2	0.016	0.000	D	F	477.5	0.001	0.202	0.000	1503.500	523.226	0.025	-	0.000	0.115	-	-	-	-	-	-	-	PAVEMENT_GENERAL	Urban	F	1011101000011101	0000000000000000	-	-	-	-	-	-	-	-	-	-	Terminate	
Unknown	7.98349	01/14/0117 10:14.48	00000479	1.177	Inter625t13-0	-0.087	1	2	0.000	11.111	3.7	0.055	0.000	D	F	942.3	0.039	0.190	-0.000	1503.501	523.679	0.019	-	0.004	1.206	-	-	-	-	-	-	-	PAVEMENT_GENERAL	Urban	F	1011101000011101	0000000000000000	-	-	-	-	-	-	-	-	-	-	Terminate	
Unknown	8.98351	01/14/0117 10:14.49	00000539	2.709	Inter625t13-0	-0.079	1	2	0.000	11.111	2.4	0.086	0.000	D	F	1245.8	0.184	0.215	0.001	1503.509	525.614	0.019	-	0.003	1.461	-	-	-	-	-	-	-	PAVEMENT_GENERAL	Urban	F	1111101000011101	0000000000000000	-	-	-	-	-	-	-	-	-	-	Terminate	
Unknown	9.98353	01/14/0117 10:14.50	00000599	4.407	Inter625t13-0	-0.056	1	2	0.000	11.111	3.2	0.157	0.000	D	F	1645.6	0.405	0.225	-0.002	1503.532	529.144	0.018	-	0.022	1.851	-	-	-	-	-	-	-	PAVEMENT_GENERAL	Urban	F	1011101000011101	0000000000000000	-	-	-	-	-	-	-	-	-	-	Terminate	
Unknown	10.98355	01/14/0117 10:14.51	00000659	6.329	Inter625t49-0	0.000	1	1	0.005	11.111	-1.0	0.182	0.000	D	F	1865.8	0.596	0.223	0.004	1503.588	534.535	0.018	-	-0.017	1.858	-	-	-	-	-	-	-	PAVEMENT_GENERAL	Urban	F	1011101000011101	0000000000000000	-	-	-	-	-	-	-	-	-	-	Terminate	
Unknown	11.98357	01/14/0117 10:14.52	00000719	7.717	Inter625t49-0	0.077	1	1	0.007	11.111	1.0	0.182	0.000	D	F	1709.4	0.683	0.212	-0.002	1503.666	541.601	0.020	-	0.020	1.202	-	-	-	-	-	-	-	PAVEMENT_GENERAL	Urban	F	1011101000011101	0000000000000000	-	-	-	-	-	-	-	-	-	-	Terminate	
Unknown	12.98359	01/14/0117 10:14.53	00000779	8.809	Inter625t49-0	0.189	1	1	0.008	11.111	1.0	0.162	0.000	D	F	1739.7	0.839	0.208	-0.003	1503.779	549.880	0.022	-	0.024	0.933	-	-	-	-	-	-	-	PAVEMENT_GENERAL	Urban	F	1011101000011101	0000000000000000	-	-	-	-	-	-	-	-	-	-	Terminate	
Unknown	13.98361	01/14/0117 10:14.54	00000839	9.357	Inter625t49-0	0.335	1	1	0.006	11.111	-0.4	0.116	0.000	D	F	1661.0	0.978	0.203	0.002	1503.926	558.977	0.024	-	-0.006	0.434	-	-	-	-	-	-	-	PAVEMENT_GENERAL	Urban	F	1011101000011101	0000000000000000	-	-	-	-	-	-	-	-	-	-	Terminate	
Unknown	14.98363	01/14/0117 10:14.55	00000899	9.739	Inter625t49-0	0.489	1	1	0.005	11.111	-1.3	0.115	0.000	D	F	1694.8	0.875	0.204	0.005	1504.081	568.528	0.025	-	-0.035	0.372	-	-	-	-	-	-	-	PAVEMENT_GENERAL	Urban	F	1011101000011101	0000000000000000	-	-	-	-	-	-	-	-	-	-	Terminate	
Unknown	15.98365	01/14/0117 10:14.56	00000959	10.118	Inter625t49-0	0.624	1	1	0.005	11.111	-0.7	0.118	0.000	D	F	1465.9	0.726	0.203	0.003	1504.217	578.461	0.025	-	-0.021	0.348	-	-	-	-	-	-	-	PAVEMENT_GENERAL	Urban	F	1011101000011101	0000000000000000	-	-	-	-	-	-	-	-	-	-	Terminate	
Unknown	16.98367	01/14/0117 10:14.57	00001019	10.487	Inter625t15-0	0.743	1	2	0.000	11.111	-0.6	0.139	0.000	D	F	1520.4	0.615	0.204	0.003	1504.336	588.756	0.024	-	-0.020	0.413	-	-	-	-	-	-	-	PAVEMENT_GENERAL	Urban	F	1011101000011101	0000000000000000	-	-	-	-	-	-	-	-	-	-	Terminate	
Unknown	17.98369	01/14/0117 10:14.58	00001079	10.892	Inter625t15-0	0.847	1	2	0.000	11.111	-0.6	0.141	0.000	D	F	1543.7	0.502	0.203	0.003	1504.440	599.446	0.025	-	-0.022	0.401	-	-	-	-	-	-	-	PAVEMENT_GENERAL	Urban	F	1011101000011101	0000000000000000	-	-	-	-	-	-	-	-	-	-	Terminate	
Unknown	18.98371	01/14/0117 10:14.59	00001139	11.374	Inter614t1-0	0.932	1	2	0.000	11.111	-0.6	0.171	0.000	D	F	1652.3	0.383	0.205	0.003	1504.525	610.565	0.024	-	-0.024	0.567	-	-	-	-	-	-	-	PAVEMENT_GENERAL	Urban	F	1011101000011101	0000000000000000	-	-	-	-	-	-	-	-	-	-	Terminate	
Unknown	19.98373	01/14/0117 10:15.00	00001199	11.930	Inter614t1-0	0.998	1	2	0.000	11.111	-0.5	0.164	0.000	D	F	1666.6	0.274	0.203	0.003	1504.592	622.221	0.024	-	-0.020	0.522	-	-	-	-	-	-	-	PAVEMENT_GENERAL	Urban	F	1011101000011101	0000000000000000	-	-	-	-	-	-	-	-	-	-	Terminate	
Unknown	20.98375	01/14/0117 10:15.01	00001259	12.411	Inter614t1-0	1.046	1	2	0.000	11.111	-0.4	0.162	0.000	D	F	1677.8	0.177	0.202	0.003	1504.640	634.396	0.024	-	-0.020	0.453	-	-	-	12	10.546	130.881	-	PAVEMENT_GENERAL	Urban	F	1011101000011101	0000000000000000	-	-	-	-	-	-	-	-	-	-	Terminate	
Unknown	21.98377	01/14/0117 10:15.03	00001319	12.843	Inter614t1-0	1.089	1	2	0.000	11.111	0.9	0.160	0.000	D	F	1684.9	0.260	0.201	-0.005	1504.682	647.027	0.025	-	0.041	0.396	-	-	-	12	10.600	136.128	-	PAVEMENT_GENERAL	Urban	F	1011101000011101	0000000000000000	-	-	-	-	-	-	-	-	-	-	Terminate	
Unknown	22.98379	01/14/0117 10:15.04	00001379	13.231	Inter614t1-0	1.170	1	2	0.000	11.111	-0.3	0.162	0.000	D	F	1705.8	0.456	0.201	-0.002	1504.763	660.066	0.025	-	0.013	0.379	-	-	-	12	10.654	140.971	-	PAVEMENT_GENERAL	Urban	F	1011101000011101	0000000000000000	-	-	-	-	-	-	-	-	-	-	Terminate	
Unknown	23.98381	01/14/0117 10:15.05	00001439	13.623	Inter614t1-0	1.260	1	2	0.000	11.111	-1.3	0.171	0.000	D	F	1751.3	0.296	0.201	0.007	1504.853	673.488	0.025	-	-0.053	0.415	-	-	-	12	10.675	145.425	-	PAVEMENT_GENERAL	Urban	F	1011101000011101	0000000000000000	-	-	-	-	-	-	-	-	-	-	Terminate	
Unknown	24.98383	01/14/0117 10:15.06	00001499	14.020	Inter614t1-0	1.300	1	2	0.000	11.111	-2.6	0.169	0.000	D	F	1765.4	0.009	0.200	0.016	1504.893	687.312	0.025	-	-0.106	0.382	-	-	-	12	10.659	149.448	-	PAVEMENT_GENERAL	Urban	F	1011101000011101	0000000000000000	-	-	-	-	-	-	-	-	-	-	Terminate	
Unknown	25.98385	01/14/0117 10:15.07	00001559	14.371	Inter614t1-0	1.263	1	2	0.000	11.111	-0.4	0.157	0.000	D	F	1745.8	359.755	0.197	0.003	1504.856	701.516	0.025	-	-0.023	0.286	-	-	-	12	10.874	156.269	-	PAVEMENT_GENERAL	Urban	F	1011101000011101	0000000000000000	-	-	-	-	-	-	-	-	-	-	Terminate	
Unknown	26.98387	01/14/0117 10:15.08	00001619	14.646	Inter614t1-0	1.190	1	2	0.000	11.111	0.5	0.155	0.000	D	F	1753.8	359.674	0.198	-0.003	1504.784	716.027	0.025	-	0.008	0.256	-	-	-	12	11.081	162.299	-	PAVEMENT_GENERAL	Urban	F	1011101000011101	0000000000000000	-	-	-	-	-	-	-	-	-	-	Terminate	
Unknown	27.98389	01/14/0117 10:15.09	00001679	14.893	Inter614t1-0	1.117	1	2	0.000	11.111	0.4	0.132	0.000	D	F	1722.6	359.756	0.197	-0.003	1504.710	730.798	0.025	-	0.020	0.214	-	-	-	12	11.347	168.986	-	PAVEMENT_GENERAL	Urban	F	1011101000011101	0000000000000000	-	-	-	-	-	-	-	-	-	-	Terminate	
Unknown	28.98391	01/14/0117 10:15.10	00001739	14.900	Inter614t1-0	1.071	1	2	0.000	11.111	2.0	0.108	0.000	D	F	1666.8	0.000	0.195	-0.012	1504.664	745.699	0.026	-	0.096	0.005	-	-	-	12	11.816	176.062	-	PAVEMENT_GENERAL	Urban	F	1011101000011101	0000000000000000	-	-	-	-	-	-	-	-	-	-	Terminate	
Unknown	29.98393	01/14/0117 10:15.11	00001799	14.915	Inter614t1-0	1.109	1	2	0.000	11.111	1.9	0.109	0.000	D	F	1672.6	0.346	0.195	-0.013	1504.703	760.606	0.026	-	0.098	0.018	-	-	-	12	12.302	183.493	-	PAVEMENT_GENERAL	Urban	F	1011101000011101	0000000000000000	-	-	-	-	-	-	-	-	-	-	Terminate	
Unknown	30.98395	01/14/0117 10:15.12	00001859	14.942	Inter614t1-0	1.245	1	2	0.000	11.111	1.8	0.111	0.000	D	F	1679.6	0.717	0.195	-0.012	1504.838	775.534	0.026	-	0.095	0.030	-	-	-	12	12.777	190.919	-	PAVEMENT_GENERAL	Urban	F	1011101000011101	0000000000000000	-	-	-	-	-	-	-	-	-	-	Terminate	
Unknown	31.98397	01/14/0117 10:15.13	00001919	14.998	Inter614t1-0	1.480	1	2	0.000	11.111	2.5	0.122	0.000	D	F	1705.9	1.125	0.196	-0.017	1505.073	790.497	0.026	-	0.125	0.076	-	-	-	12	13.222	198.309	-	PAVEMENT_GENERAL	Urban	F	1011101000011101	0000000000000000	-	-	-	-	-	-	-	-	-	-	Terminate	
Unknown	32.98399	01/14/0117 10:15.14	00001979	15.038	Inter612t1-0	1.695	1	2	0.000	11.111	-11.2	0.111	0.000	D	F	1685.1	359.841	0.194	0.090	1505.289	805.521	0.026	-	-0.665	0.023	-	-	-	12	13.674	205.639	-	PAVEMENT_GENERAL	Urban	F	1011101000011101	0000000000000000	-	-	-	-	-	-	-	-	-	-	Terminate	
Unknown	33.98401	01/14/0117 10:15.15	00002039	15.053	Inter612t1-0	1.409	1	2	0.000	11.111	2.0	0.113	0.000	D	F	1685.6	358.243	0.195	0.003	1505.002	820.562	0.026	-	-0.040	0.029	-	-	-	12	14.147	212.951	-	PAVEMENT_GENERAL	Urban	F	1011101000011101	0000000000000000	-	-	-	-	-	-	-	-	-	-	Terminate	
Unknown	34.98403	01/14/0117 10:15.16	00002099	14.974	Inter612t1-0	1.123	1	2	0.000	11.111	8.9	0.069	0.000	D	F	1596.8	0.029	0.190	-0.075	1504.716	835.594	0.027	-	0.589	-0.194	-	-	-	12	14.710	220.272	-	PAVEMENT_GENERAL	Urban	F	1011101000011101	0000000000000000	-	-	-	-	-	-	-	-	-	-	Terminate	
Unknown	35.98405	01/14/0117 10:15.17	00002159	14.799	Inter612t1-0	1.336	1	2	0.000	11.111	-2.0	0.079	0.000	D	F	1604.2	1.287	0.194	0.005	1504.930	850.471	0.027	-	-0.021	-0.132	-	-	-	11	15.224	225.305	-	PAVEMENT_GENERAL	Urban	F	1011101000011101	0000000000000000	-	-	-	-	-	-	-	-	-	-	Terminate	
Unknown	36.98407	01/14/0117 10:15.18	00002219	14.666	Inter612t1-0	1.567	1	2	0.000	11.111	-4.7	0.079	0.000	D	F	1594.4	0.386	0.194	0.033	1505.160	865.201	0.027	-	-0.257	-0.125	-	-	-	11	15.576	228.440	-	PAVEMENT_GENERAL	Urban	F	1011101000011101	0000000000000000	-	-	-	-	-	-	-	-	-	-	Terminate	
Unknown	37.98409	01/14/0117 10:15.19	00002279	14.543	Inter612t1-0	1.560	1	2	0.000	11.111	-1.5	0.079	0.000	D	F	1584.7	359.583	0.194	0.015	1505.153	879.806	0.027	-	-0.121	-0.123	-	-	-	11	15.932	231.703	-	PAVEMENT_GENERAL	Urban	F	1011101000011101	0000000000000000	-	-	-	-	-	-	-	-	-	-	Terminate	
Unknown	38.98411	01/14/0117 10:15.20	00002339	14.418	Inter612t1-0	1.423	1	2	0.000	11.111	0.4	0.076	0.000	D	F	1569.9	359.381	0.194	-0.001	1505.016	894.287	0.027	-	0.005	-0.128	-	-	-	11	16.306	235.098	-	PAVEMENT_GENERAL	Urban	F	1011101000011101	0000000000000000	-	-	-	-	-	-	-	-	-	-	Terminate	
Unknown	39.98413	01/14/0117 10:15.21	00002399	14.249	Inter612t1-0	1.299	1	2	0.000	11.111	2.9	0.044	0.000	D	F	1480.5	359.700	0.190	-0.017	1504.892	908.634	0.028	-	0.130	-0.294	-	-	-	11	16.747	238.634	-	PAVEMENT_GENERAL	Urban	F	1011101000011101	0000000000000000	-	-	-	-	-	-	-	-	-	-	Terminate	
Unknown	40.98415	01/14/0117 10:15.22	00002459	13.958	Inter612t1-0	1.282	1	2	0.000	11.111	2.1	0.041	0.000	D	F	1451.6	0.122	0.193	-0.012	1504.876	922.737	0.028	-	0.089	-0.300	-	-	-	11	17.368	242.414	-	PAVEMENT_GENERAL	Urban	F	1111101000011101	0000000000000000	-	-	-	-	-	-	-	-	-	-	Terminate	
Unknown	41.98417	01/14/0117 10:15.23	00002519	13.645	Inter612t1-0	1.360	1	2	0.000	11.111	1.9	0.039	0.000	D	F	1420.2	0.520	0.193	-0.012	1504.953	936.538	0.028	-	0.090	-0.309	-	-	-	-	-	-	-	PAVEMENT_GENERAL	Urban	F	1011101000011101	0000000000000000	-	-	-	-	-	-	-	-	-	-	Terminate	
Unknown	42.98419	01/14/0117 10:15.24	00002579	13.348	Inter612t1-0	1.523	1	2	0.000	11.111	-3.8	0.046	0.000	D	F	1413.1	0.828	0.194	0.012	1505.117	950.030	0.028	-	-0.080	-0.272	-	-	-	-	-	-	-	PAVEMENT_GENERAL	Urban	F	1011101000011101	0000000000000000	-	-	-	-	-	-	-	-	-	-	Terminate	
Unknown	43.98421	01/14/0117 10:15.25	00002639	13.079	Inter612t1-0	1.594	1	2	0.000	11.111	-1.7	0.044	0.000	D	F	1389.1	359.859	0.195	0.012	1505.188	963.243	0.028	-	-0.104	-0.268	-	-	-	-	-	-	-	PAVEMENT_GENERAL	Urban	F	1111101000011101	0000000000000000	-	-	-	-	-	-	-	-	-	-	Terminate	
Unknown	44.98423	01/14/0117 10:15.26	00002699	12.813	Inter612t1-0	1.531	1	2	0.000	11.111	-0.4	0.046	0.000	D	F	1366.8	359.594	0.195	0.003	1505.124	976.188	0.028	-	-0.030	-0.263	-	-	-	-	-	-	-	PAVEMENT_GENERAL	Urban	F	1011101000011101	0000000000000000	-	-	-	-	-	-	-	-	-	-	Terminate	
Unknown	45.98425	01/14/0117 10:15.27	00002759	12.557	Inter612t1-0	1.431	1	2	0.000	11.111	-0.5	0.046	0.000	D	F	1349.2	359.502	0.195	0.003	1505.024	988.871	0.028	-	-0.021	-0.247	-	-	-	-	-	-	-	PAVEMENT_GENERAL	Urban	F	1011101000011101	0000000000000000	-	-	-	-	-	-	-	-	-	-	Terminate	
Unknown	46.98427	01/14/0117 10:15.28	00002819	12.315	Inter613t1-0	1.319	1	2	0.000	11.111	0.1	0.046	0.000	D	F	1335.1	359.479	0.196	-0.000	1504.912	1001.306	0.028	-	0.002	-0.227	-	-	-	-	-	-	-	PAVEMENT_GENERAL	Urban	F	1011101000011101	0000000000000000	-	-	-	-	-	-	-	-	-	-	Terminate	
Unknown	47.98429	01/14/0117 10:15.29	00002879	12.081	Inter613t1-0	1.206	1	2	0.000	11.111	-0.2	0.041	0.000	D	F	1306.4	359.454	0.196	0.001	1504.799	1013.505	0.028	-	-0.008	-0.237	-	-	-	-	-	-	-	PAVEMENT_GENERAL	Urban	F	1011101000011101	0000000000000000	-	-	-	-	-	-	-	-	-	-	Terminate	
Unknown	48.98431	01/14/0117 10:15.30	00002939	11.851	Inter613t1-0	1.089	1	2	0.000	11.111	1.1	0.046	0.000	D	F	1289.3	359.433	0.196	-0.008	1504.682	1025.470	0.027	-	0.029	-0.227	-	-	-	-	-	-	-	PAVEMENT_GENERAL	Urban	F	1011101000011101	0000000000000000	-	-	-	-	-	-	-	-	-	-	Terminate	
Unknown	49.98433	01/14/0117 10:15.31	00002999	11.699	Inter613t1-0	0.986	1	2	0.000	11.111	1.2	0.078	0.000	D	F	1397.9	359.571	0.197	-0.006	1504.579	1037.219	0.026	-	0.042	0.002	-	-	-	-	-	-	-	PAVEMENT_GENERAL	Urban	F	1011101000011101	0000000000000000	-	-	-	-	-	-	-	-	-	-	Terminate	
Unknown	50.98435	01/14/0117 10:15.32	00003059	11.717	Inter613t1-0	0.923	1	2	0.000	11.111	1.2	0.081	0.000	D	F	1400.5	359.788	0.198	-0.006	1504.516	1048.928	0.026	-	0.043	-0.000	-	-	-	-	-	-	-	PAVEMENT_GENERAL	Urban	F	1011101000011101	0000000000000000	-	-	-	-	-	-	-	-	-	-	Terminate	
Unknown	51.98437	01/14/0117 10:15.33	00003119	11.874	Inter613t1-0	0.902	1	2	0.000	11.111	1.2	0.115	0.000	D	F	1527.9	0.004	0.200	-0.006	1504.495	1060.704	0.025	-	0.045	0.220	-	-	-	-	-	-	-	PAVEMENT_GENERAL	Urban	F	1011101000011101	0000000000000000	-	-	-	-	-	-	-	-	-	-	Terminate	
Unknown	52.98439	01/14/0117 10:15.34	00003179	12.082	Inter613t1-0	0.925	1	2	0.000	11.111	0.9	0.118	0.000	D	F	1538.4	0.192	0.200	-0.005	1504.518	1072.682	0.025	-	0.037	0.207	-	-	-	-	-	-	-	PAVEMENT_GENERAL	Urban	F	1011101000011101	0000000000000000	-	-	-	-	-	-	-	-	-	-	Terminate	
Unknown	53.98441	01/14/0117 10:15.35	00003239	12.316	Inter613t1-0	0.985	1	2	0.000	11.111	0.9	0.125	0.000	D	F	1572.2	0.368	0.201	-0.005	1504.578	1084.880	0.025	-	0.038	0.241	-	-	-	-	-	-	-	PAVEMENT_GENERAL	Urban	F	1011101000011101	0000000000000000	-	-	-	-	-	-	-	-	-	-	Terminate	
Unknown	54.98443	01/14/0117 10:15.36	00003299	12.539	Inter613t1-0	1.082	1	2	0.000	11.111	-0.4	0.138	0.000	D	F	1607.3	0.491	0.201	0.002	1504.675	1097.307	0.025	-	-0.006	0.255	-	-	-	-	-	-	-	PAVEMENT_GENERAL	Urban	F	1011101000011101	0000000000000000	-	-	-	-	-	-	-	-	-	-	Terminate	
Unknown	55.98445	01/14/0117 10:15.37	00003359	12.847	Inter613t1-0	1.182	1	2	0.000	11.111	-0.5	0.143	0.000	D	F	1644.8	0.414	0.202	0.003	1504.776	1110.006	0.025	-	-0.022	0.325	-	-	-	-	-	-	-	PAVEMENT_GENERAL	Urban	F	1011101000011101	0000000000000000	-	-	-	-	-	-	-	-	-	-	Terminate	
Unknown	56.98447	01/14/0117 10:15.38	00003419	13.078	Inter613t1-0	1.262	1	2	0.000	11.111	-0.6	0.129	0.000	D	F	1610.7	0.289	0.199	0.003	1504.856	1122.973	0.025	-	-0.027	0.209	-	-	-	-	-	-	-	PAVEMENT_GENERAL	Urban	F	1011101000011101	0000000000000000	-	-	-	-	-	-	-	-	-	-	Terminate	
Unknown	57.98449	01/14/0117 10:15.39	00003479	13.344	Inter613t1-0	1.316	1	2	0.000	11.111	-1.4	0.157	0.000	D	F	1702.8	0.164	0.200	0.009	1504.910	1136.166	0.025	-	-0.054	0.356	-	-	-	-	-	-	-	PAVEMENT_GENERAL	Urban	F	1011101000011101	0000000000000000	-	-	-	-	-	-	-	-	-	-	Terminate	
Unknown	58.98451	01/14/0117 10:15.40	00003539	13.533	Inter613t1-0	1.323	1	2	0.000	11.111	1.2	0.109	0.000	D	F	1576.6	359.932	0.197	-0.003	1504.916	1149.633	0.026	-	0.018	0.071	-	-	-	-	-	-	-	PAVEMENT_GENERAL	Urban	F	1011101000011101	0000000000000000	-	-	-	-	-	-	-	-	-	-	Terminate	
Unknown	59.98453	01/14/0117 10:15.41	00003599	13.618	Inter613t1-0	1.364	1	2	0.000	11.111	4.5	0.122	0.000	D	F	1616.7	0.532	0.198	-0.026	1504.958	1163.206	0.026	-	0.203	0.119	-	-	-	-	-	-	-	PAVEMENT_GENERAL	Urban	F	1011101000011101	0000000000000000	-	-	-	-	-	-	-	-	-	-	Terminate	
Unknown	60.98455	01/14/0117 10:15.42	00003659	13.759	Inter613t1-0	1.570	1	2	0.000	11.111	-3.1	0.122	0.000	D	F	1624.2	0.989	0.198	0.014	1505.163	1176.894	0.026	-	-0.084	0.136	-	-	-	-	-	-	-	PAVEMENT_GENERAL	Urban	F	1011101000011101	0000000000000000	-	-	-	-	-	-	-	-	-	-	Terminate	
Unknown	61.98457	01/14/0117 10:15.43	00003719	13.886	Inter613t1-0	1.683	1	2	0.000	11.111	-1.8	0.122	0.000	D	F	1630.2	359.921	0.198	0.013	1505.276	1190.717	0.026	-	-0.146	0.128	-	-	-	-	-	-	-	PAVEMENT_GENERAL	Urban	F	1011101000011101	0000000000000000	-	-	-	-	-	-	-	-	-	-	Terminate	
Unknown	62.98459	01/14/0117 10:15.44	00003779	14.025	Inter746t1-0	1.630	1	2	0.000	11.111	-0.6	0.141	0.000	D	F	1690.3	359.686	0.199	0.004	1505.223	1204.668	0.026	-	-0.029	0.211	-	-	-	-	-	-	-	PAVEMENT_GENERAL	Urban	F	1011101000011101	0000000000000000	-	-	-	-	-	-	-	-	-	-	Terminate	
Unknown	63.98461	01/14/0117 10:15.45	00003839	14.371	Inter746t1-0	1.537	1	2	0.000	11.111	-0.7	0.183	0.000	D	F	1813.4	359.552	0.200	0.005	1505.130	1218.844	0.024	-	-0.037	0.428	-	-	-	-	-	-	-	PAVEMENT_GENERAL	Urban	F	1011101000011101	0000000000000000	-	-	-	-	-	-	-	-	-	-	Terminate	
Unknown	64.98463	01/14/0117 10:15.46	00003899	14.808	Inter746t1-0	1.414	1	2	0.000	11.111	0.4	0.176	0.000	D	F	1825.8	359.521	0.199	-0.002	1505.007	1233.433	0.024	-	0.017	0.415	-	-	-	-	-	-	-	PAVEMENT_GENERAL	Urban	F	1011101000011101	0000000000000000	-	-	-	-	-	-	-	-	-	-	Terminate	
Unknown	65.98465	01/14/0117 10:15.47	00003959	15.072	Inter746t1-0	1.307	1	2	0.000	11.111	0.3	0.127	0.000	D	F	1716.7	359.677	0.192	-0.002	1504.901	1248.391	0.026	-	0.025	0.092	-	-	-	-	-	-	-	PAVEMENT_GENERAL	Urban	F	1011101000011101	0000000000000000	-	-	-	-	-	-	-	-	-	-	Terminate	
Unknown	66.98467	01/14/0117 10:15.48	00004019	15.145	Inter746t1-0	1.232	1	2	0.000	11.111	0.6	0.104	0.000	D	F	1682.2	359.761	0.194	-0.003	1504.826	1263.509	0.026	-	0.026	-0.000	-	-	-	-	-	-	-	PAVEMENT_GENERAL	Urban	F	1011101000011101	0000000000000000	-	-	-	-	-	-	-	-	-	-	Terminate	
Unknown	67.98470	01/14/0117 10:15.49	00004079	15.161	Inter746t1-0	1.182	1	2	0.000	11.111	0.2	0.109	0.000	D	F	1693.7	359.838	0.195	-0.001	1504.775	1278.658	0.026	-	0.009	0.020	-	-	-	-	-	-	-	PAVEMENT_GENERAL	Urban	F	1011101000011101	0000000000000000	-	-	-	-	-	-	-	-	-	-	Terminate	
Unknown	68.98471	01/14/0117 10:15.50	00004139	15.180	Inter746t1-0	1.144	1	2	0.000	11.111	0.3	0.108	0.000	D	F	1691.9	359.866	0.195	-0.002	1504.737	1293.829	0.026	-	0.008	0.015	-	-	-	-	-	-	-	PAVEMENT_GENERAL	Urban	F	1011101000011101	0000000000000000	-	-	-	-	-	-	-	-	-	-	Terminate	
Unknown	69.98473	01/14/0117 10:15.51	00004199	15.188	Inter746t1-0	1.103	1	2	0.000	11.111	-0.8	0.106	0.000	D	F	1687.5	359.780	0.195	0.005	1504.696	1309.014	0.026	-	-0.041	0.004	Person36	1.8	15.132	-	-	-	-	PAVEMENT_GENERAL	Urban	F	1011101000011101	0000000000000000	-	-	-	-	-	-	-	-	-	-	Terminate	
Unknown	70.98476	01/14/0117 10:15.52	00004259	15.156	Inter746t1-0	1.055	1	2	0.000	11.111	1.2	0.060	0.000	D	F	1593.5	359.946	0.190	-0.007	1504.648	1324.200	0.027	-	0.064	-0.201	-	-	-	-	-	-	-	PAVEMENT_GENERAL	Urban	F	1111101000011101	0000000000000000	-	-	-	-	-	-	-	-	-	-	Terminate	
Unknown	71.98477	01/14/0117 10:15.53	00004319	14.876	Inter746t1-0	1.063	1	2	0.000	11.111	0.9	0.049	0.000	D	F	1550.5	0.137	0.192	-0.007	1504.656	1339.217	0.028	-	0.050	-0.281	-	-	-	-	-	-	-	PAVEMENT_GENERAL	Urban	F	1011101000011101	0000000000000000	-	-	-	-	-	-	-	-	-	-	Terminate	
Unknown	72.98479	01/14/0117 10:15.54	00004379	14.602	Inter746t1-0	1.118	1	2	0.000	11.111	0.8	0.056	0.000	D	F	1537.5	0.300	0.193	-0.005	1504.712	1353.955	0.028	-	0.039	-0.264	-	-	-	-	-	-	-	PAVEMENT_GENERAL	Urban	F	1011101000011101	0000000000000000	-	-	-	-	-	-	-	-	-	-	Terminate	
Unknown	73.98481	01/14/0117 10:15.55	00004439	14.359	Inter746t1-0	1.210	1	2	0.000	11.111	-0.2	0.053	0.000	D	F	1515.9	0.422	0.193	-0.002	1504.803	1368.433	0.028	-	0.009	-0.248	-	-	-	-	-	-	-	PAVEMENT_GENERAL	Urban	F	1011101000011101	0000000000000000	-	-	-	-	-	-	-	-	-	-	Terminate	
Unknown	74.98483	01/14/0117 10:15.56	00004499	14.025	Inter746t1-0	1.284	1	2	0.000	11.111	-4.6	0.005	0.000	D	F	1378.2	0.035	0.186	0.032	1504.877	1382.648	0.028	-	-0.222	-0.533	-	-	-	-	-	-	-	PAVEMENT_GENERAL	Urban	F	1011101000011101	0000000000000000	-	-	-	-	-	-	-	-	-	-	Terminate	
Unknown	75.98486	01/14/0117 10:15.57	00004559	13.341	Inter746t1-0	1.156	1	2	0.000	11.111	-9.8	0.000	0.113	D	F	1292.1	358.726	0.157	0.056	1504.750	1396.386	0.030	-	-0.410	-1.637	-	-	-	-	-	-	-	PAVEMENT_GENERAL	Urban	F	1011101000011101	0000000000000000	-	-	-	-	-	-	-	-	-	-	Terminate	
Unknown	76.98487	01/14/0117 10:15.58	00004619	11.680	Inter749t9-0	0.671	1	2	0.000	11.111	-9.9	0.000	0.060	D	F	1139.6	356.727	0.182	0.053	1504.265	1408.779	0.030	-	-0.409	-1.211	-	-	-	-	-	-	-	PAVEMENT_GENERAL	Urban	F	1011101000011101	0000000000000000	-	-	-	-	-	-	-	-	-	-	Terminate	
Unknown	77.98489	01/14/0117 10:15.59	00004679	10.875	Inter749t31-0	0.007	1	1	356.407	11.111	-4.8	0.000	0.006	D	F	1068.4	354.878	0.194	0.025	1503.428	1419.968	0.029	-	-0.220	-0.549	-	-	-	-	-	-	-	PAVEMENT_GENERAL	Urban	F	1011101000011101	0000000000000000	-	-	-	-	-	-	-	-	-	-	Terminate	
Unknown	78.98492	01/14/0117 10:16.00	00004739	10.365	Inter749t31-0	-0.436	1	1	354.748	11.111	0.0	0.000	0.000	D	F	1018.5	354.299	0.195	-0.000	1502.413	1430.538	0.029	-	-0.016	-0.505	-	-	-	-	-	-	-	PAVEMENT_GENERAL	Urban	F	1011101000011101	0000000000000000	-	-	-	-	-	-	-	-	-	-	Terminate	
Unknown	79.98493	01/14/0117 10:16.01	00004799	9.783	Inter749t31-0	-0.482	1	1	355.340	11.111	15.0	0.000	0.039	D	F	957.7	355.675	0.180	-0.059	1501.501	1440.602	0.029	-	0.450	-0.900	-	-	-	-	-	-	-	PAVEMENT_GENERAL	Urban	F	1011101000011101	0000000000000000	-	-	-	-	-	-	-	-	-	-	Terminate	
Unknown	80.98495	01/14/0117 10:16.02	00004859	8.260	Inter749t31-0	-0.031	1	1	356.775	11.111	12.6	0.000	0.203	D	F	788.9	358.059	0.139	-0.037	1501.029	1449.793	0.032	-	0.295	-2.914	-	-	-	-	-	-	-	PAVEMENT_GENERAL	Urban	F	1011101000011101	0000000000000000	-	-	-	-	-	-	-	-	-	-	Terminate	
Unknown	81.98497	01/14/0117 10:16.03	00004919	4.301	Inter749t31-0	0.225	1	1	356.903	11.111	3.5	0.000	0.224	D	F	477.5	359.219	0.163	-0.000	1500.907	1456.088	0.037	-	0.016	-3.393	-	-	-	-	-	-	-	PAVEMENT_GENERAL	Urban	F	1011101000011101	0000000000000000	-	-	-	-	-	-	-	-	-	-	Terminate	
Unknown	82.98499	01/14/0117 10:16.04	00004979	1.780	Inter749t31-0	0.352	1	1	356.903	11.111	2.9	0.000	0.093	D	F	477.5	359.419	0.193	-0.000	1500.878	1458.980	0.032	-	0.001	-1.577	-	-	-	-	-	-	-	PAVEMENT_GENERAL	Urban	F	1011101000011101	0000000000000000	-	-	-	-	-	-	-	-	-	-	Terminate	
Unknown	83.98502	01/14/0117 10:16.05	00005039	0.675	Inter749t31-0	0.406	1	1	356.903	11.111	2.1	0.000	0.084	D	F	477.5	359.488	0.197	0.000	1500.868	1460.163	0.029	-	-0.002	-0.855	-	-	-	-	-	-	-	PAVEMENT_GENERAL	Urban	F	1111101000011101	0000000000000000	-	-	-	-	-	-	-	-	-	-	Terminate	
Unknown	84.98503	01/14/0117 10:16.06	00005099	0.168	Inter749t31-0	0.423	1	1	356.903	11.111	2.0	0.000	0.072	D	F	477.5	359.504	0.211	0.000	1500.865	1460.524	0.028	-	-0.000	-0.210	-	-	-	-	-	-	-	PAVEMENT_GENERAL	Urban	F	1011101000011101	0000000000000000	-	-	-	-	-	-	-	-	-	-	Terminate	
Unknown	85.98505	01/14/0117 10:16.07	00005159	0.118	Inter749t31-0	0.428	1	1	356.903	11.111	1.9	0.000	0.021	D	F	477.5	359.509	0.209	0.000	1500.865	1460.641	0.026	-	0.000	0.097	-	-	-	-	-	-	-	PAVEMENT_GENERAL	Urban	F	1011101000011101	0000000000000000	-	-	-	-	-	-	-	-	-	-	Terminate	
Unknown	86.98507	01/14/0117 10:16.08	00005219	0.319	Inter749t31-0	0.439	1	1	356.903	11.111	1.9	0.000	0.000	D	F	477.5	359.518	0.206	-0.000	1500.863	1460.861	0.026	-	0.000	0.174	-	-	-	-	-	-	-	PAVEMENT_GENERAL	Urban	F	1011101000011101	0000000000000000	-	-	-	-	-	-	-	-	-	-	Terminate	
Unknown	87.98509	01/14/0117 10:16.09	00005279	0.442	Inter749t31-0	0.457	1	1	356.903	11.111	1.8	0.000	0.003	D	F	477.5	359.533	0.204	-0.000	1500.860	1461.249	0.026	-	0.000	0.082	-	-	-	Ambient262	116.727	51.618	-	PAVEMENT_GENERAL	Urban	F	1011101000011101	0000000000000000	-	-	-	-	-	-	-	-	-	-	Terminate	
Unknown	88.98512	01/14/0117 10:16.10	00005339	0.496	Inter749t31-0	0.479	1	1	356.903	11.111	1.8	0.000	0.000	D	F	477.5	359.551	0.204	-0.000	1500.857	1461.722	0.026	-	0.000	0.034	-	-	-	Ambient262	126.808	62.908	-	PAVEMENT_GENERAL	Urban	F	1011101000011101	0000000000000000	-	-	-	-	-	-	-	-	-	-	Terminate	
Unknown	89.98513	01/14/0117 10:16.11	00005399	0.524	Inter749t31-0	0.503	1	1	356.903	11.111	1.8	0.000	0.000	D	F	477.5	359.571	0.204	-0.000	1500.854	1462.233	0.026	-	0.000	0.025	-	-	-	Ambient262	142.310	74.555	-	PAVEMENT_GENERAL	Urban	F	1011101000011101	0000000000000000	-	-	-	-	-	-	-	-	-	-	Terminate	
Unknown	90.98515	01/14/0117 10:16.12	00005459	0.546	Inter749t31-0	0.529	1	1	356.903	11.111	1.7	0.000	0.000	D	F	477.5	359.591	0.204	-0.000	1500.850	1462.768	0.026	-	0.000	0.020	-	-	-	Ambient262	157.901	86.208	-	PAVEMENT_GENERAL	Urban	F	1011101000011101	0000000000000000	-	-	-	-	-	-	-	-	-	-	Terminate	
Unknown	91.98518	01/14/0117 10:16.13	00005519	0.564	Inter749t31-0	0.556	1	1	356.903	11.111	1.7	0.000	0.000	D	F	477.5	359.612	0.204	-0.000	1500.847	1463.323	0.026	-	0.000	0.016	-	-	-	Ambient262	173.629	97.841	-	PAVEMENT_GENERAL	Urban	F	1011101000011101	0000000000000000	-	-	-	-	-	-	-	-	-	-	Terminate	
Unknown	92.98519	01/14/0117 10:16.14	00005579	0.577	Inter749t31-0	0.583	1	1	356.903	11.111	1.7	0.005	0.000	D	F	477.5	359.633	0.204	-0.000	1500.844	1463.894	0.026	-	0.000	0.012	-	-	-	Ambient262	189.565	109.459	-	PAVEMENT_GENERAL	Urban	F	1011101000011101	0000000000000000	-	-	-	-	-	-	-	-	-	-	Terminate	
Unknown	93.98521	01/14/0117 10:16.15	00005639	0.588	Inter749t31-0	0.612	1	1	356.903	11.111	1.6	0.016	0.000	D	F	479.6	359.653	0.204	0.000	1500.841	1464.477	0.026	-	0.000	0.011	-	-	-	Ambient262	205.726	121.064	-	PAVEMENT_GENERAL	Urban	F	1011101000011101	0000000000000000	-	-	-	-	-	-	-	-	-	-	Terminate	
Unknown	94.98523	01/14/0117 10:16.16	00005699	0.784	Inter749t31-0	0.643	1	1	356.903	11.111	1.7	0.041	0.000	D	F	787.0	359.676	0.222	-0.000	1500.837	1465.117	0.025	-	0.001	0.695	-	-	-	Ambient262	169.161	132.619	-	PAVEMENT_GENERAL	Urban	F	1011101000011101	0000000000000000	-	-	-	-	-	-	-	-	-	-	Terminate	
Unknown	95.98525	01/14/0117 10:16.17	00005759	1.363	Inter749t31-0	0.700	1	1	356.903	11.111	1.6	0.018	0.000	D	F	636.7	359.716	0.198	-0.000	1500.832	1466.268	0.024	-	0.001	0.125	-	-	-	Ambient262	103.581	141.193	-	PAVEMENT_GENERAL	Urban	F	1011101000011101	0000000000000000	-	-	-	-	-	-	-	-	-	-	Terminate	
Unknown	96.98528	01/14/0117 10:16.18	00005819	1.329	Inter749t11-0	0.765	LT1	2	0.000	11.111	1.6	0.014	0.000	D	F	540.4	359.761	0.204	-0.000	1500.827	1467.634	0.026	-	0.001	-0.117	-	-	-	-	-	-	-	PAVEMENT_GENERAL	Urban	F	1011101000011101	0000000000000000	-	-	-	-	-	-	-	-	-	-	Terminate	
Unknown	97.98529	01/14/0117 10:16.19	00005879	1.250	Inter749t11-0	0.761	LT1	2	0.000	11.111	2.1	0.019	0.000	D	F	619.7	359.808	0.210	-0.000	1500.824	1468.911	0.026	-	0.002	0.076	-	-	-	-	-	-	-	PAVEMENT_GENERAL	Urban	F	1011101000011101	0000000000000000	-	-	-	-	-	-	-	-	-	-	Terminate	
Unknown	98.98531	01/14/0117 10:16.20	00005939	1.428	Inter749t11-0	0.759	LT1	2	0.000	11.111	2.5	0.018	0.000	D	F	661.1	359.873	0.201	-0.000	1500.822	1470.229	0.025	-	0.002	0.175	-	-	-	-	-	-	-	PAVEMENT_GENERAL	Urban	F	1011101000011101	0000000000000000	-	-	-	-	-	-	-	-	-	-	Terminate	
Unknown	99.98534	01/14/0117 10:16.21	00005999	1.251	Inter749t11-0	0.759	LT1	2	0.000	11.111	2.4	0.000	0.000	D	F	477.5	359.943	0.203	-0.000	1500.822	1471.591	0.027	-	0.001	-0.209	-	-	-	-	-	-	-	PAVEMENT_GENERAL	Urban	F	1011101000011101	0000000000000000	-	-	-	-	-	-	-	-	-	-	Terminate	
Unknown	100.98535	01/14/0117 10:16.22	00006059	1.008	Inter749t11-0	0.760	LT1	2	0.000	11.111	2.4	0.002	0.000	D	F	477.5	0.000	0.205	-0.000	1500.823	1472.695	0.027	-	0.001	-0.124	-	-	-	-	-	-	-	PAVEMENT_GENERAL	Urban	F	1011101000011101	0000000000000000	-	-	-	-	-	-	-	-	-	-	Terminate	
Unknown	101.98537	01/14/0117 10:16.23	00006119	0.904	Inter749t11-0	0.762	LT1	2	0.000	11.111	3.6	0.000	0.000	D	F	477.5	0.050	0.204	-0.001	1500.824	1473.648	0.027	-	0.005	-0.086	-	-	-	-	-	-	-	PAVEMENT_GENERAL	Urban	F	1011101000011101	0000000000000000	-	-	-	-	-	-	-	-	-	-	Terminate	
Unknown	102.98539	01/14/0117 10:16.24	00006179	0.604	Inter749t11-0	0.765	LT1	2	0.000	11.111	2.3	0.000	0.179	D	F	477.5	0.109	0.141	0.000	1500.827	1474.493	0.027	L	-0.001	-1.702	-	-	-	-	-	-	-	PAVEMENT_GENERAL	Urban	F	1011101000111101	0000000000000000	-	-	-	-	-	-	-	-	-	-	Terminate	
Unknown	103.98541	01/14/0117 10:16.25	00006239	0.026	Inter749t11-0	0.765	LT1	2	0.000	11.111	2.7	0.085	0.000	D	F	1046.1	0.113	0.221	0.000	1500.828	1474.589	0.028	L	0.001	0.221	-	-	-	-	-	-	-	PAVEMENT_GENERAL	Urban	F	1011101000111101	0000000000000000	-	-	-	-	-	-	-	-	-	-	Terminate	
Unknown	104.98544	01/14/0117 10:16.26	00006299	2.602	Inter749t11-0	0.771	LT1	2	0.000	11.111	3.9	0.123	0.000	D	F	1377.9	0.208	0.205	-0.002	1500.833	1475.760	0.013	L	0.013	2.428	-	-	-	-	-	-	-	PAVEMENT_GENERAL	Urban	F	1011101000111101	0000000000000000	-	-	-	-	-	-	-	-	-	-	Terminate	
Unknown	105.98545	01/14/0117 10:16.27	00006359	4.411	Inter749t11-0	0.792	LT1	2	0.000	11.111	-8.3	0.111	0.000	D	F	1530.1	0.298	0.210	0.018	1500.855	1479.355	0.019	L	-0.118	1.310	-	-	-	-	-	-	-	PAVEMENT_GENERAL	Urban	F	1011101000111101	0000000000000000	-	-	-	-	-	-	-	-	-	-	Terminate	
Unknown	106.98547	01/14/0117 10:16.28	00006419	5.487	Inter749t65-0	0.869	1	1	350.573	11.111	-35.6	0.106	0.000	D	F	1519.3	357.789	0.217	0.057	1500.733	1484.322	0.021	L	-0.396	1.031	-	-	-	-	-	-	-	PAVEMENT_GENERAL	Urban	F	1011101000111101	0000000000000000	-	-	-	-	-	-	-	-	-	-	Terminate	
Unknown	107.98550	01/14/0117 10:16.29	00006479	6.286	-Inter749t73-0	-0.418	-1	1	216.636	11.111	-78.3	0.101	0.000	D	F	1397.2	352.194	0.205	0.157	1500.131	1490.203	0.023	L	-1.151	0.646	-	-	-	Ambient292	14.789	92.962	-	PAVEMENT_GENERAL	Urban	F	1011101000111101	0000000000000000	-	-	-	-	-	-	-	-	-	-	Terminate	
Unknown	108.98551	01/14/0117 10:16.30	00006539	6.912	-Inter749t59-0	-0.130	-1	1	89.733	11.111	-144.0	0.092	0.000	D	F	1403.2	338.733	0.191	0.330	1498.274	1496.538	0.024	L	-2.437	0.346	-	-	-	-	-	-	-	PAVEMENT_GENERAL	Urban	F	1011101000111101	0000000000000000	-	-	-	-	-	-	-	-	-	-	Terminate	
Unknown	109.98553	01/14/0117 10:16.31	00006599	7.321	Inter749t75-0	-1.342	1	1	269.734	11.111	-179.7	0.101	0.000	D	F	1455.0	315.335	0.175	0.428	1494.101	1502.247	0.026	L	-3.251	0.234	-	-	-	-	-	-	-	PAVEMENT_GENERAL	Urban	F	1011101000111101	0000000000000000	-	-	-	-	-	-	-	-	-	-	Terminate	
Unknown	110.98555	01/14/0117 10:16.32	00006659	7.709	Inter749t77-0	-1.289	1	1	269.734	11.111	-149.1	0.099	0.000	D	F	1473.6	290.297	0.172	0.374	1487.565	1505.869	0.026	L	-2.951	0.239	-	-	-	Ambient312	3.817	29.428	-	PAVEMENT_GENERAL	Urban	F	1011101000111101	0000000000000000	-	-	-	-	-	-	-	-	-	-	Terminate	
Unknown	111.98557	01/14/0117 10:16.33	00006719	8.115	Inter749t3-4	0.060	2	2	270.000	11.111	-31.8	0.095	0.000	D	F	1492.5	275.786	0.200	0.073	1479.773	1507.191	0.025	L	-0.641	0.382	-	-	-	Ambient312	4.401	35.715	-	PAVEMENT_GENERAL	Urban	F	1011101000111101	0000000000000000	-	-	-	-	-	-	-	-	-	-	Terminate	
Unknown	112.98560	01/14/0117 10:16.34	00006779	8.470	Inter749t3-4	0.613	2	2	270.000	11.111	-3.5	0.097	0.000	D	F	1518.5	273.085	0.205	-0.003	1471.495	1507.743	0.025	-	-0.072	0.327	-	-	-	Ambient312	4.656	39.434	-	PAVEMENT_GENERAL	Urban	F	1011101000011101	0000000000000000	-	-	-	-	-	-	-	-	-	-	Terminate	
Unknown	113.98561	01/14/0117 10:16.35	00006839	8.811	Inter749t17-0	1.010	1	1	270.075	11.111	-16.6	0.115	0.000	D	F	1595.3	272.357	0.207	0.062	1462.874	1508.146	0.024	-	-0.389	0.436	-	-	-	Ambient312	4.858	42.808	-	PAVEMENT_GENERAL	Urban	F	1011101000011101	0000000000000000	-	-	-	-	-	-	-	-	-	-	Terminate	
Unknown	114.98563	01/14/0117 10:16.36	00006899	9.187	Inter749t17-0	1.095	1	1	270.103	11.111	-11.3	0.104	0.000	D	F	1609.4	269.599	0.204	0.037	1453.865	1508.240	0.025	-	-0.287	0.323	-	-	-	Ambient312	4.985	45.797	-	PAVEMENT_GENERAL	Urban	F	1011101000011101	0000000000000000	-	-	-	-	-	-	-	-	-	-	Terminate	
Unknown	115.98566	01/14/0117 10:16.37	00006959	9.471	Inter749t17-0	0.859	1	1	270.095	11.111	-0.6	0.095	0.000	D	F	1365.6	268.323	0.202	0.002	1444.531	1508.020	0.025	-	-0.021	0.232	-	-	-	Ambient312	5.116	48.459	-	PAVEMENT_GENERAL	Urban	F	1011101000011101	0000000000000000	-	-	-	-	-	-	-	-	-	-	Terminate	
Unknown	116.98567	01/14/0117 10:16.38	00007019	9.688	Inter749t17-0	0.550	1	1	270.065	11.111	-0.3	0.092	0.000	D	F	1360.4	268.226	0.202	0.001	1434.953	1507.730	0.025	-	-0.010	0.208	-	-	-	Ambient312	5.252	50.886	-	PAVEMENT_GENERAL	Urban	F	1011101000011101	0000000000000000	-	-	-	-	-	-	-	-	-	-	Terminate	
Unknown	117.98569	01/14/0117 10:16.39	00007079	9.892	Inter749t17-0	0.231	1	1	270.061	11.111	0.1	0.093	0.000	D	F	1368.5	268.186	0.202	-0.000	1425.167	1507.422	0.025	-	0.000	0.197	-	-	-	Ambient312	5.368	53.098	-	PAVEMENT_GENERAL	Urban	F	1011101000011101	0000000000000000	-	-	-	-	-	-	-	-	-	-	Terminate	
Unknown	118.98571	01/14/0117 10:16.40	00007139	10.081	Inter749t1-3	-0.092	2	2	270.000	11.111	0.2	0.093	0.000	D	F	1373.7	268.215	0.202	-0.001	1415.185	1507.108	0.025	-	0.008	0.179	-	-	-	Ambient312	5.467	55.113	-	PAVEMENT_GENERAL	Urban	F	1011101000011101	0000000000000000	-	-	-	-	-	-	-	-	-	-	Terminate	
Unknown	119.98573	01/14/0117 10:16.41	00007199	10.256	Inter749t1-3	-0.404	2	2	270.000	11.111	0.4	0.093	0.000	D	F	1385.1	268.260	0.202	-0.001	1405.020	1506.796	0.026	-	0.011	0.172	-	-	-	Ambient312	5.552	56.945	-	PAVEMENT_GENERAL	Urban	F	1111101000011101	0000000000000000	-	-	-	-	-	-	-	-	-	-	Terminate	
Unknown	120.98576	01/14/0117 10:16.42	00007259	10.458	Inter747t1-3	-0.710	2	2	270.000	11.111	2.1	0.097	0.000	D	F	1410.3	268.475	0.201	-0.008	1394.669	1506.497	0.025	-	0.066	0.196	-	-	-	Ambient312	5.602	58.584	-	PAVEMENT_GENERAL	Urban	F	1011101000011101	0000000000000000	-	-	-	-	-	-	-	-	-	-	Terminate	
Unknown	121.98577	01/14/0117 10:16.43	00007319	10.635	Inter747t1-3	-0.954	2	2	270.000	11.111	2.1	0.097	0.000	D	F	1410.4	268.834	0.201	-0.009	1384.123	1506.253	0.026	-	0.067	0.165	-	-	-	Ambient312	5.645	60.036	-	PAVEMENT_GENERAL	Urban	F	1011101000011101	0000000000000000	-	-	-	-	-	-	-	-	-	-	Terminate	
Unknown	122.98579	01/14/0117 10:16.44	00007379	10.795	Inter747t1-3	-1.134	2	2	270.000	11.111	2.0	0.101	0.000	D	F	1430.8	269.199	0.201	-0.009	1373.409	1506.072	0.026	-	0.069	0.169	-	-	-	Ambient312	5.680	61.319	-	PAVEMENT_GENERAL	Urban	F	1011101000011101	0000000000000000	-	-	-	-	-	-	-	-	-	-	Terminate	
Unknown	123.98581	01/14/0117 10:16.45	00007439	10.981	Inter747t1-3	-1.265	2	2	270.000	11.111	1.7	0.101	0.000	D	F	1441.3	269.375	0.201	-0.007	1362.521	1505.942	0.025	-	0.049	0.181	-	-	-	Ambient312	5.685	62.428	-	PAVEMENT_GENERAL	Urban	F	1011101000011101	0000000000000000	-	-	-	-	-	-	-	-	-	-	Terminate	
Unknown	124.98583	01/14/0117 10:16.46	00007499	11.138	Inter747t1-3	-1.349	2	2	270.000	11.111	2.4	0.099	0.000	D	F	1438.6	269.734	0.201	-0.010	1351.459	1505.857	0.026	-	0.078	0.145	-	-	-	Ambient312	5.689	63.363	-	PAVEMENT_GENERAL	Urban	F	1011101000011101	0000000000000000	-	-	-	-	-	-	-	-	-	-	Terminate	
Unknown	125.98586	01/14/0117 10:16.47	00007559	11.301	Inter747t1-3	-1.343	2	2	270.000	11.111	5.2	0.102	0.000	D	F	1458.6	270.355	0.200	-0.027	1340.241	1505.864	0.026	-	0.176	0.162	-	-	-	Ambient312	5.676	64.142	-	PAVEMENT_GENERAL	Urban	F	1011101000011101	0000000000000000	-	-	-	-	-	-	-	-	-	-	Terminate	
Unknown	126.98587	01/14/0117 10:16.48	00007619	11.488	Inter747t1-3	-1.180	2	2	270.000	11.111	3.3	0.106	0.000	D	F	1482.5	271.209	0.201	-0.018	1328.849	1506.027	0.026	-	0.135	0.190	-	-	-	Ambient312	5.636	64.746	-	PAVEMENT_GENERAL	Urban	F	1011101000011101	0000000000000000	-	-	-	-	-	-	-	-	-	-	Terminate	
Unknown	127.98589	01/14/0117 10:16.49	00007679	11.609	Inter747t1-3	-0.941	2	2	270.000	11.111	-5.3	0.122	0.000	D	F	1521.9	270.914	0.202	0.024	1317.302	1506.266	0.025	-	-0.184	0.220	-	-	-	Ambient312	5.616	65.197	-	PAVEMENT_GENERAL	Urban	F	1011101000011101	0000000000000000	-	-	-	-	-	-	-	-	-	-	Terminate	
Unknown	128.98592	01/14/0117 10:16.50	00007739	11.862	Inter747t1-3	-0.845	2	2	270.000	11.111	-1.0	0.120	0.000	D	F	1529.0	270.175	0.200	0.004	1305.563	1506.362	0.025	-	-0.057	0.223	-	-	-	Ambient312	5.518	65.455	-	PAVEMENT_GENERAL	Urban	F	1011101000011101	0000000000000000	-	-	-	-	-	-	-	-	-	-	Terminate	
Unknown	129.98593	01/14/0117 10:16.51	00007799	12.079	Inter747t1-3	-0.827	2	2	270.000	11.111	-0.8	0.139	0.000	D	F	1587.6	270.005	0.202	0.004	1293.595	1506.380	0.025	-	-0.031	0.276	-	-	-	Ambient312	5.421	65.484	830.304	PAVEMENT_GENERAL	Urban	F	1011101000011101	0000000000000000	-	-	-	-	-	-	-	-	-	-	Terminate	
Unknown	130.98595	01/14/0117 10:16.52	00007859	12.362	Inter747t1-3	-0.838	2	2	270.000	11.111	0.4	0.131	0.000	D	F	1585.8	269.912	0.201	-0.001	1281.368	1506.369	0.025	-	0.005	0.263	-	-	-	Ambient312	5.279	65.254	180.395	PAVEMENT_GENERAL	Urban	F	1011101000011101	0000000000000000	-	-	-	-	-	-	-	-	-	-	Terminate	
Unknown	131.98598	01/14/0117 10:16.53	00007919	12.638	Inter747t1-3	-0.843	2	2	270.000	11.111	4.3	0.139	0.000	D	F	1615.8	270.067	0.200	-0.015	1268.870	1506.364	0.025	-	0.124	0.282	-	-	-	Ambient312	5.124	64.753	101.490	PAVEMENT_GENERAL	Urban	F	1011101000011101	0000000000000000	-	-	-	-	-	-	-	-	-	-	Terminate	
Unknown	132.98599	01/14/0117 10:16.54	00007979	12.935	Inter747t1-3	-0.717	2	2	270.000	11.111	1.5	0.150	0.000	D	F	1654.1	271.046	0.200	-0.014	1256.088	1506.489	0.025	-	0.127	0.314	-	-	-	Ambient312	4.945	63.968	68.458	PAVEMENT_GENERAL	Urban	F	1011101000011101	0000000000000000	-	-	-	-	-	-	-	-	-	-	Terminate	
Unknown	133.98601	01/14/0117 10:16.55	00008039	13.224	Inter747t1-3	-0.515	2	2	270.000	11.111	-4.9	0.145	0.000	D	F	1658.8	270.510	0.200	0.024	1243.006	1506.692	0.025	-	-0.214	0.277	-	-	-	Ambient312	4.755	62.884	51.403	PAVEMENT_GENERAL	Urban	F	1011101000011101	0000000000000000	-	-	-	-	-	-	-	-	-	-	Terminate	
Unknown	134.98604	01/14/0117 10:16.56	00008099	13.509	Inter747t1-3	-0.511	2	2	270.000	11.111	-4.2	0.132	0.000	D	F	1642.0	269.551	0.198	0.024	1229.630	1506.696	0.025	-	-0.196	0.216	-	-	-	Ambient312	4.553	61.504	40.777	PAVEMENT_GENERAL	Urban	F	1011101000011101	0000000000000000	-	-	-	-	-	-	-	-	-	-	Terminate	
Unknown	135.98605	01/14/0117 10:16.57	00008159	13.674	Inter747t1-3	-0.725	2	2	270.000	11.111	-6.8	0.125	0.000	D	F	1625.6	268.527	0.198	0.042	1216.036	1506.482	0.026	-	-0.313	0.149	-	-	-	Ambient312	4.381	59.908	35.790	PAVEMENT_GENERAL	Urban	F	1011101000011101	0000000000000000	-	-	-	-	-	-	-	-	-	-	Terminate	
Unknown	136.98607	01/14/0117 10:16.58	00008219	13.820	Inter747t1-3	-1.196	2	2	270.000	11.111	4.4	0.123	0.000	D	F	1633.6	267.800	0.197	-0.016	1202.297	1506.010	0.026	-	0.102	0.144	-	-	-	Ambient312	4.036	55.778	30.649	PAVEMENT_GENERAL	Urban	F	1011101000011101	0000000000000000	-	-	-	-	-	-	-	-	-	-	Terminate	
Unknown	137.98610	01/14/0117 10:16.59	00008279	13.959	Inter748t1-3	-1.546	2	2	270.000	11.111	7.6	0.125	0.000	D	F	1641.9	269.485	0.197	-0.054	1188.411	1505.661	0.026	-	0.412	0.136	-	-	-	Ambient312	4.032	56.277	28.728	PAVEMENT_GENERAL	Urban	F	1011101000011101	0000000000000000	-	-	-	-	-	-	-	-	-	-	Terminate	
Unknown	138.98611	01/14/0117 10:17.00	00008339	14.097	Inter748t1-3	-1.548	2	2	270.000	11.111	-0.1	0.134	0.000	D	F	1657.8	270.298	0.197	-0.002	1174.383	1505.659	0.026	-	0.030	0.142	-	-	-	Ambient312	3.848	54.246	25.870	PAVEMENT_GENERAL	Urban	F	1011101000011101	0000000000000000	-	-	-	-	-	-	-	-	-	-	Terminate	
Unknown	139.98613	01/14/0117 10:17.01	00008399	14.291	Inter748t1-3	-1.491	2	2	270.000	11.111	-1.9	0.157	0.000	D	F	1742.9	270.087	0.198	0.012	1160.201	1505.716	0.025	-	-0.091	0.276	-	-	-	Ambient312	3.643	52.060	22.722	PAVEMENT_GENERAL	Urban	F	1011101000011101	0000000000000000	-	-	-	-	-	-	-	-	-	-	Terminate	
Unknown	140.98616	01/14/0117 10:17.02	00008459	14.589	Inter748t1-3	-1.526	2	2	270.000	11.111	-2.8	0.139	0.000	D	F	1714.3	269.588	0.195	0.018	1145.756	1505.681	0.025	-	-0.141	0.207	-	-	-	Ambient312	3.401	49.613	19.167	PAVEMENT_GENERAL	Urban	F	1011101000011101	0000000000000000	-	-	-	-	-	-	-	-	-	-	Terminate	
Unknown	141.98618	01/14/0117 10:17.03	00008519	14.718	Inter748t1-3	-1.668	2	2	270.000	11.111	3.3	0.123	0.000	D	F	1691.5	269.482	0.196	-0.020	1131.098	1505.538	0.026	-	0.129	0.104	-	-	-	Ambient312	3.190	46.952	17.276	PAVEMENT_GENERAL	Urban	F	1011101000011101	0000000000000000	-	-	-	-	-	-	-	-	-	-	Terminate	
Unknown	142.98619	01/14/0117 10:17.04	00008579	14.806	Inter748t1-3	-1.695	2	2	270.000	11.111	4.9	0.122	0.000	D	F	1693.4	270.394	0.196	-0.032	1116.335	1505.511	0.026	-	0.251	0.087	-	-	-	Ambient312	2.984	44.186	15.747	PAVEMENT_GENERAL	Urban	F	1011101000011101	0000000000000000	-	-	-	-	-	-	-	-	-	-	Terminate	
Unknown	143.98621	01/14/0117 10:17.05	00008639	14.890	Inter748t1-3	-1.468	2	2	270.000	11.111	5.1	0.123	0.000	D	F	1699.9	271.411	0.196	-0.034	1101.489	1505.739	0.026	-	0.263	0.085	-	-	-	Ambient312	2.776	41.336	14.307	PAVEMENT_GENERAL	Urban	F	1011101000011101	0000000000000000	-	-	-	-	-	-	-	-	-	-	Terminate	
Unknown	144.98624	01/14/0117 10:17.06	00008699	14.969	Inter748t1-3	-0.976	2	2	270.000	11.111	4.0	0.120	0.000	D	F	1701.5	272.421	0.195	-0.032	1086.567	1506.231	0.026	-	0.236	0.075	-	-	-	Ambient312	2.566	38.412	12.938	PAVEMENT_GENERAL	Urban	F	1011101000011101	0000000000000000	-	-	-	-	-	-	-	-	-	-	Terminate	
Unknown	145.98625	01/14/0117 10:17.07	00008759	15.041	Inter748t1-3	-0.379	2	2	270.000	11.111	-5.3	0.076	0.000	D	F	1618.1	271.585	0.191	0.050	1071.567	1506.828	0.026	-	-0.392	-0.078	-	-	-	Ambient312	2.354	35.409	11.646	PAVEMENT_GENERAL	Urban	F	1011101000011101	0000000000000000	-	-	-	-	-	-	-	-	-	-	Terminate	
Unknown	146.98627	01/14/0117 10:17.08	00008819	14.715	Inter748t1-3	-0.038	2	2	270.000	11.111	-11.7	0.011	0.000	D	F	1447.0	270.943	0.190	0.074	1056.666	1507.169	0.029	-	-0.486	-0.483	-	-	-	Ambient312	2.209	32.507	11.974	PAVEMENT_GENERAL	Urban	F	1011101000011101	0000000000000000	-	-	-	-	-	-	-	-	-	-	Terminate	
Unknown	147.98630	01/14/0117 10:17.09	00008879	14.211	Inter748t1-3	-0.215	2	2	270.000	11.111	-15.5	0.026	0.000	D	F	1399.4	267.351	0.188	0.123	1042.215	1506.992	0.029	-	-0.934	-0.418	-	-	-	Ambient312	2.115	30.057	13.597	PAVEMENT_GENERAL	Urban	F	1011101000011101	0000000000000000	-	-	-	-	-	-	-	-	-	-	Terminate	
Unknown	148.98631	01/14/0117 10:17.10	00008939	14.081	Inter748t1-3	-1.155	2	2	270.000	11.111	12.6	0.095	0.000	D	F	1586.5	265.856	0.196	-0.068	1028.143	1506.052	0.026	-	0.429	-0.004	-	-	-	-	-	-	-	PAVEMENT_GENERAL	Urban	F	1011101000011101	0000000000000000	-	-	-	-	-	-	-	-	-	-	Terminate	
Unknown	149.98633	01/14/0117 10:17.11	00008999	13.939	Inter748t1-2	1.739	1	2	270.000	11.111	6.0	0.062	0.000	D	F	1500.4	268.343	0.192	-0.058	1014.135	1505.346	0.027	-	0.432	-0.196	-	-	-	-	-	-	-	PAVEMENT_GENERAL	Urban	F	1111101000011101	0000000000000000	-	-	-	-	-	-	-	-	-	-	Terminate	
Unknown	150.98636	01/14/0117 10:17.12	00009059	13.740	Inter748t1-2	1.468	1	2	270.000	11.111	4.0	0.049	0.000	D	F	1455.5	269.451	0.197	-0.023	1000.296	1505.075	0.027	-	0.213	-0.240	-	-	-	-	-	-	-	PAVEMENT_GENERAL	Urban	F	1011101000011101	0000000000000000	-	-	-	-	-	-	-	-	-	-	Terminate	
Unknown	151.98637	01/14/0117 10:17.13	00009119	13.356	Inter752t1-2	0.772	1	2	269.954	24.444	6.7	0.016	0.000	D	F	1314.6	270.559	-0.006	-0.332	986.745	1505.063	0.057	-	0.319	-0.413	-	-	-	-	-	-	-	FREEWAY_SMOOTH	Urban	F	1011101000011101	0000000000000000	-	-	-	-	-	-	-	-	-	-	Terminate	
Unknown	152.98639	01/14/0117 10:17.14	00009179	13.136	Inter752t1-2	1.114	1	2	269.464	24.444	0.2	0.099	0.000	D	F	1525.6	271.687	0.355	-0.614	973.553	1505.333	0.082	-	0.036	0.095	-	-	-	-	-	-	-	FREEWAY_SMOOTH	Urban	F	1011101000011101	0000000000000000	-	-	-	-	-	-	-	-	-	-	Terminate	
Unknown	153.98642	01/14/0117 10:17.15	00009239	13.170	Inter752t1-2	1.630	1	2	268.736	24.444	-7.1	0.086	0.000	D	F	1500.6	270.935	0.370	-0.895	960.398	1505.642	0.121	-	-0.333	0.009	-	-	-	-	-	-	-	FREEWAY_SMOOTH	Urban	F	1011101000011101	0000000000000000	-	-	-	-	-	-	-	-	-	-	Terminate	
Unknown	154.98643	01/14/0117 10:17.16	00009299	13.189	Inter752t1-3	-1.578	2	2	267.690	24.444	-12.7	0.086	0.000	D	F	1501.3	268.785	0.383	-1.189	947.218	1505.618	0.163	-	-0.653	0.017	-	-	-	-	-	-	-	FREEWAY_SMOOTH	Urban	F	1111101000011101	0000000000000000	-	-	-	-	-	-	-	-	-	-	Terminate	
Unknown	155.98645	01/14/0117 10:17.17	00009359	13.204	Inter752t1-3	-1.524	2	2	266.340	24.444	-13.4	0.086	0.000	D	F	1500.5	265.862	0.346	-1.515	934.039	1504.978	0.200	-	-0.701	0.022	-	-	-	-	-	-	-	FREEWAY_SMOOTH	Urban	F	1011101000011101	0000000000000000	-	-	-	-	-	-	-	-	-	-	Terminate	
Unknown	156.98647	01/14/0117 10:17.18	00009419	13.199	Inter752t1-2	1.794	1	2	264.693	24.444	-3.0	0.055	0.000	D	F	1424.2	263.117	0.283	-1.896	920.898	1503.653	0.226	-	-0.353	-0.118	-	-	-	-	-	-	-	FREEWAY_SMOOTH	Urban	F	1011101000011101	0000000000000000	-	-	-	-	-	-	-	-	-	-	Terminate	
Unknown	157.98650	01/14/0117 10:17.19	00009479	12.883	Inter752t1-2	1.536	1	2	262.769	24.444	-3.8	0.019	0.000	D	F	1269.7	262.180	0.308	-2.219	907.953	1501.955	0.252	-	-0.277	-0.378	-	-	-	-	-	-	-	FREEWAY_SMOOTH	Urban	F	1011101000011101	0000000000000000	-	-	-	-	-	-	-	-	-	-	Terminate	
Unknown	158.98651	01/14/0117 10:17.20	00009539	12.546	Inter752t1-2	1.491	1	2	260.584	24.444	-3.8	0.025	0.000	D	F	1262.1	260.998	0.354	-2.528	895.384	1500.052	0.281	-	-0.277	-0.330	-	-	-	-	-	-	-	FREEWAY_SMOOTH	Urban	F	1011101000011101	0000000000000000	-	-	-	-	-	-	-	-	-	-	Terminate	
Unknown	159.98653	01/14/0117 10:17.21	00009599	12.215	Inter752t1-2	1.671	1	2	258.181	24.444	-3.5	0.023	0.000	D	F	1234.6	259.754	0.419	-2.832	883.185	1497.931	0.320	-	-0.263	-0.337	-	-	-	-	-	-	-	FREEWAY_SMOOTH	Urban	F	1011101000011101	0000000000000000	-	-	-	-	-	-	-	-	-	-	Terminate	
Unknown	160.98656	01/14/0117 10:17.22	00009659	11.885	Inter752t1-3	-1.499	2	2	255.700	24.444	-3.7	0.023	0.000	D	F	1215.4	258.503	0.496	-3.117	871.361	1495.603	0.374	-	-0.267	-0.340	-	-	-	-	-	-	-	FREEWAY_SMOOTH	Urban	F	1011101000011101	0000000000000000	-	-	-	-	-	-	-	-	-	-	Terminate	
Unknown	161.98657	01/14/0117 10:17.23	00009719	11.662	Inter752t1-3	-0.807	2	2	252.943	24.444	-10.9	0.078	0.000	D	F	1384.3	257.084	0.625	-3.365	859.899	1493.069	0.445	-	-0.485	0.002	-	-	-	-	-	-	-	FREEWAY_SMOOTH	Urban	F	1011101000011101	0000000000000000	-	-	-	-	-	-	-	-	-	-	Terminate	
Unknown	162.98659	01/14/0117 10:17.24	00009779	11.717	Inter752t1-3	-0.067	2	2	250.100	24.444	-20.0	0.093	0.000	D	F	1450.0	253.413	0.421	-3.387	848.626	1490.044	0.497	-	-0.889	0.083	-	-	-	-	-	-	-	FREEWAY_SMOOTH	Urban	F	1011101000011101	0000000000000000	-	-	-	-	-	-	-	-	-	-	Terminate	
Unknown	163.98662	01/14/0117 10:17.25	00009839	11.651	Inter752t1-3	0.426	2	2	247.196	24.444	-17.5	0.071	0.000	D	F	1348.3	249.263	0.327	-3.402	837.577	1486.214	0.528	-	-0.805	-0.092	-	-	-	-	-	-	-	FREEWAY_SMOOTH	Urban	F	1011101000011101	0000000000000000	-	-	-	-	-	-	-	-	-	-	Terminate	
Unknown	164.98663	01/14/0117 10:17.26	00009899	11.432	Inter752t1-3	0.684	2	2	244.386	24.444	-16.9	0.035	0.000	D	F	1227.6	245.364	0.247	-3.408	826.942	1481.676	0.544	-	-0.762	-0.289	-	-	-	-	-	-	-	FREEWAY_SMOOTH	Urban	F	1011101000011101	0000000000000000	-	-	-	-	-	-	-	-	-	-	Terminate	
Unknown	165.98665	01/14/0117 10:17.27	00009959	11.342	Inter752t1-3	0.716	2	2	241.616	24.444	-19.7	0.093	0.000	D	F	1441.2	241.354	0.181	-3.400	816.847	1476.526	0.544	-	-0.846	0.182	-	-	-	-	-	-	-	FREEWAY_SMOOTH	Urban	F	1011101000011101	0000000000000000	-	-	-	-	-	-	-	-	-	-	Terminate	
Unknown	166.98668	01/14/0117 10:17.28	00010019	11.264	Inter752t1-3	0.519	2	2	238.850	24.444	-6.3	0.056	0.000	D	F	1281.9	237.948	0.156	-3.464	807.142	1470.702	0.534	-	-0.394	-0.128	-	-	-	-	-	-	-	FREEWAY_SMOOTH	Urban	F	1011101000011101	0000000000000000	-	-	-	-	-	-	-	-	-	-	Terminate	
Unknown	167.98669	01/14/0117 10:17.29	00010079	11.123	Inter752t1-3	0.400	2	2	236.100	24.444	-6.9	0.092	0.000	D	F	1373.7	236.082	0.195	-3.460	797.789	1464.549	0.527	-	-0.377	-0.084	-	-	-	-	-	-	-	FREEWAY_SMOOTH	Urban	F	1011101000011101	0000000000000000	-	-	-	-	-	-	-	-	-	-	Terminate	
Unknown	168.98671	01/14/0117 10:17.30	00010139	11.318	Inter752t1-3	0.438	2	2	233.347	24.444	-6.9	0.090	0.000	D	F	1431.5	234.067	0.259	-3.460	788.629	1458.064	0.528	-	-0.396	0.136	-	-	-	-	-	-	-	FREEWAY_SMOOTH	Urban	F	1011101000011101	0000000000000000	-	-	-	-	-	-	-	-	-	-	Terminate	
Unknown	169.98674	01/14/0117 10:17.31	00010199	11.348	Inter752t1-3	0.624	2	2	230.590	24.444	-10.0	0.079	0.000	D	F	1378.3	231.975	0.290	-3.442	779.610	1451.189	0.539	-	-0.485	0.006	-	-	-	-	-	-	-	FREEWAY_SMOOTH	Urban	F	1011101000011101	0000000000000000	-	-	-	-	-	-	-	-	-	-	Terminate	
Unknown	170.98676	01/14/0117 10:17.32	00010259	11.274	Inter752t1-3	0.856	2	2	227.700	24.444	-16.8	0.060	0.000	D	F	1295.0	228.908	0.286	-3.414	770.917	1443.930	0.554	-	-0.723	-0.125	-	-	-	-	-	-	-	FREEWAY_SMOOTH	Urban	F	1011101000011101	0000000000000000	-	-	-	-	-	-	-	-	-	-	Terminate	
Unknown	171.98677	01/14/0117 10:17.33	00010319	11.159	Inter752t1-3	0.941	2	2	224.950	24.444	-15.6	0.060	0.000	D	F	1291.5	225.259	0.219	-3.421	762.764	1436.229	0.559	-	-0.688	-0.109	-	-	-	-	-	-	-	FREEWAY_SMOOTH	Urban	F	1011101000011101	0000000000000000	-	-	-	-	-	-	-	-	-	-	Terminate	
Unknown	172.98679	01/14/0117 10:17.34	00010379	11.062	Inter752t1-3	0.868	2	2	222.345	24.444	-14.0	0.086	0.000	D	F	1356.2	221.822	0.188	-3.429	755.175	1428.117	0.555	-	-0.627	-0.046	-	-	-	-	-	-	-	FREEWAY_SMOOTH	Urban	F	1011101000011101	0000000000000000	-	-	-	-	-	-	-	-	-	-	Terminate	
Unknown	173.98682	01/14/0117 10:17.35	00010439	11.249	Inter752t1-3	0.679	2	2	219.594	24.444	-13.7	0.101	0.000	D	F	1449.2	218.552	0.151	-3.427	748.041	1419.543	0.542	-	-0.634	0.164	-	-	-	-	-	-	-	FREEWAY_SMOOTH	Urban	F	1011101000011101	0000000000000000	-	-	-	-	-	-	-	-	-	-	Terminate	
Unknown	174.98683	01/14/0117 10:17.36	00010499	11.387	Inter752t1-3	0.401	2	2	216.835	24.444	-10.6	0.092	0.000	D	F	1430.0	215.445	0.135	-3.440	741.294	1410.449	0.526	-	-0.552	0.105	-	-	-	-	-	-	-	FREEWAY_SMOOTH	Urban	F	1011101000011101	0000000000000000	-	-	-	-	-	-	-	-	-	-	Terminate	
Unknown	175.98685	01/14/0117 10:17.37	00010559	11.519	Inter752t1-3	0.166	2	2	213.941	24.444	-2.8	0.097	0.000	D	F	1445.2	213.501	0.173	-3.473	734.887	1400.953	0.511	-	-0.274	0.118	-	-	-	-	-	-	-	FREEWAY_SMOOTH	Urban	F	1011101000011101	0000000000000000	-	-	-	-	-	-	-	-	-	-	Terminate	
Unknown	176.98688	01/14/0117 10:17.38	00010619	11.604	Inter752t1-3	0.268	2	2	211.119	24.444	1.3	0.093	0.000	D	F	1435.7	212.969	0.308	-3.499	728.611	1391.235	0.518	-	-0.078	0.062	-	-	-	-	-	-	-	FREEWAY_SMOOTH	Urban	F	1011101000011101	0000000000000000	-	-	-	-	-	-	-	-	-	-	Terminate	
Unknown	177.98689	01/14/0117 10:17.39	00010679	11.674	Inter752t1-3	0.740	2	2	208.199	24.444	-17.1	0.099	0.000	D	F	1450.9	210.789	0.365	-3.405	722.471	1381.345	0.546	-	-0.764	0.072	-	-	-	-	-	-	-	FREEWAY_SMOOTH	Urban	F	1011101000011101	0000000000000000	-	-	-	-	-	-	-	-	-	-	Terminate	
Unknown	178.98691	01/14/0117 10:17.40	00010739	11.738	Inter752t1-3	1.085	2	2	205.397	24.444	-21.4	0.092	0.000	D	F	1435.7	206.514	0.264	-3.383	716.916	1371.039	0.567	-	-0.966	0.048	-	-	-	-	-	-	-	FREEWAY_GENERAL	Urban	F	1011101000011101	0000000000000000	-	-	-	-	-	-	-	-	-	-	Terminate	
Unknown	179.98694	01/14/0117 10:17.41	00010799	11.797	Inter752t1-3	1.085	2	2	202.448	24.444	-20.5	0.090	0.000	D	F	1436.3	201.900	0.172	-3.392	712.173	1360.271	0.567	-	-0.936	0.056	-	-	-	-	-	-	-	FREEWAY_GENERAL	Urban	F	1011101000011101	0000000000000000	-	-	-	-	-	-	-	-	-	-	Terminate	
Unknown	180.98695	01/14/0117 10:17.42	00010859	11.864	Inter752t1-3	0.741	2	2	199.625	24.444	-20.5	0.088	0.000	D	F	1434.6	197.348	0.075	-3.386	708.281	1349.101	0.546	-	-0.942	0.063	-	-	-	-	-	-	-	FREEWAY_SMOOTH	Urban	F	1011101000011101	0000000000000000	-	-	-	-	-	-	-	-	-	-	Terminate	
Unknown	181.98697	01/14/0117 10:17.43	00010919	11.919	Inter752t1-3	0.056	2	2	196.718	24.444	-20.3	0.088	0.000	D	F	1438.4	192.830	-0.203	-3.238	705.269	1337.595	0.489	-	-0.935	0.025	-	-	-	-	-	-	-	FREEWAY_SMOOTH	Urban	F	1011101000011101	0000000000000000	-	-	-	-	-	-	-	-	-	-	Terminate	
Unknown	182.98700	01/14/0117 10:17.44	00010979	11.930	Inter752t1-3	-0.969	2	2	193.966	24.444	-7.1	0.062	0.000	D	F	1336.6	188.549	-0.266	-3.005	703.149	1325.854	0.396	-	-0.542	-0.135	-	-	-	-	-	-	-	FREEWAY_SMOOTH	Urban	F	1011101000011101	0000000000000000	-	-	-	-	-	-	-	-	-	-	Terminate	
Unknown	183.98701	01/14/0117 10:17.45	00011039	11.736	Inter752t1-2	1.745	1	2	191.479	24.444	13.7	0.090	0.000	D	F	1403.9	189.340	-0.053	-2.855	701.445	1314.153	0.319	-	0.493	-0.078	-	-	-	-	-	-	-	FREEWAY_SMOOTH	Urban	F	1011101000011101	0000000000000000	-	-	-	-	-	-	-	-	-	-	Terminate	
Unknown	184.98703	01/14/0117 10:17.46	00011099	11.872	Inter752t1-2	1.582	1	2	189.263	24.444	-9.5	0.109	0.000	D	F	1506.8	189.114	0.043	-2.451	699.510	1302.513	0.281	-	-0.449	0.128	-	-	-	-	-	-	-	FREEWAY_SMOOTH	Urban	F	1011101000011101	0000000000000000	-	-	-	-	-	-	-	-	-	-	Terminate	
Unknown	185.98706	01/14/0117 10:17.47	00011159	11.991	Inter752t1-2	1.496	1	2	187.225	24.444	-7.9	0.097	0.000	D	F	1478.9	186.826	0.039	-2.160	697.911	1290.686	0.248	-	-0.426	0.087	-	-	-	-	-	-	-	FREEWAY_SMOOTH	Urban	F	1011101000011101	0000000000000000	-	-	-	-	-	-	-	-	-	-	Terminate	
Unknown	186.98708	01/14/0117 10:17.48	00011219	11.978	Inter752t1-2	1.401	1	2	185.434	24.444	-7.7	0.058	0.000	D	F	1339.7	185.119	0.055	-1.872	696.707	1278.748	0.216	-	-0.372	-0.160	-	-	-	-	-	-	-	FREEWAY_SMOOTH	Urban	F	1011101000011101	0000000000000000	-	-	-	-	-	-	-	-	-	-	Terminate	
Unknown	187.98709	01/14/0117 10:17.49	00011279	11.878	Inter752t1-2	1.284	1	2	183.905	24.444	-5.8	0.099	0.000	D	F	1470.3	183.318	0.054	-1.583	695.876	1266.882	0.183	-	-0.314	0.069	-	-	-	-	-	-	-	FREEWAY_SMOOTH	Urban	F	1111101000011101	0000000000000000	-	-	-	-	-	-	-	-	-	-	Terminate	
Unknown	188.98711	01/14/0117 10:17.50	00011339	12.097	Inter752t1-2	1.169	1	2	182.621	24.444	-3.3	0.157	0.000	D	F	1648.7	182.308	0.064	-1.304	695.329	1254.937	0.151	-	-0.183	0.379	-	-	-	-	-	-	-	FREEWAY_SMOOTH	Urban	F	1011101000011101	0000000000000000	-	-	-	-	-	-	-	-	-	-	Terminate	
Unknown	189.98714	01/14/0117 10:17.51	00011399	12.450	Inter752t1-2	1.106	1	2	181.560	24.444	-3.9	0.150	0.000	D	F	1641.6	181.382	0.059	-0.999	694.958	1242.662	0.121	-	-0.200	0.318	-	-	-	-	-	-	-	FREEWAY_SMOOTH	Urban	F	1111101000011101	0000000000000000	-	-	-	-	-	-	-	-	-	-	Terminate	
Unknown	190.98715	01/14/0117 10:17.52	00011459	12.777	Inter752t1-2	1.044	1	2	180.760	24.444	-3.9	0.159	0.000	D	F	1675.1	180.445	0.074	-0.685	694.778	1230.052	0.091	-	-0.194	0.337	-	-	-	-	-	-	-	FREEWAY_SMOOTH	Urban	F	1011101000011101	0000000000000000	-	-	-	-	-	-	-	-	-	-	Terminate	
Unknown	191.98717	01/14/0117 10:17.53	00011519	13.107	Inter752t1-2	0.940	1	2	180.233	24.444	-1.9	0.157	0.000	D	F	1691.5	179.709	0.065	-0.369	694.779	1217.108	0.061	-	-0.114	0.317	-	-	-	-	-	-	-	FREEWAY_SMOOTH	Urban	F	1011101000011101	0000000000000000	-	-	-	-	-	-	-	-	-	-	Terminate	
Unknown	192.98720	01/14/0117 10:17.54	00011579	13.324	Inter752t1-2	0.875	1	2	180.008	24.444	7.2	0.116	0.000	D	F	1581.3	180.216	0.068	-0.099	694.825	1203.868	0.032	-	0.299	0.067	-	-	-	-	-	-	-	FREEWAY_SMOOTH	Urban	F	1011101000011101	0000000000000000	-	-	-	-	-	-	-	-	-	-	Terminate	
Unknown	193.98721	01/14/0117 10:17.55	00011639	13.431	Inter754t3-2	1.695	1	2	180.000	11.111	-5.2	0.116	0.000	D	F	1592.0	180.506	0.198	0.024	694.698	1190.496	0.026	-	-0.177	0.124	-	-	-	Ambient439	6.226	83.621	26.792	PAVEMENT_GENERAL	Urban	F	1111101000011101	0000000000000000	-	-	-	-	-	-	-	-	-	-	Terminate	
Unknown	194.98723	01/14/0117 10:17.56	00011699	13.545	Inter754t3-2	1.618	1	2	180.000	11.111	-4.0	0.115	0.000	D	F	1592.9	178.627	0.197	0.033	694.776	1177.007	0.026	-	-0.323	0.105	-	-	-	Ambient439	5.937	80.416	24.852	PAVEMENT_GENERAL	Urban	F	1011101000011101	0000000000000000	-	-	-	-	-	-	-	-	-	-	Terminate	
Unknown	195.98726	01/14/0117 10:17.57	00011759	13.590	Inter754t3-2	1.343	1	2	180.000	11.111	10.4	0.071	0.000	D	F	1486.8	179.588	0.191	-0.066	695.050	1163.421	0.027	-	0.499	-0.130	-	-	-	Ambient439	5.677	77.151	23.515	PAVEMENT_GENERAL	Urban	F	1011101000011101	0000000000000000	-	-	-	-	-	-	-	-	-	-	Terminate	
Unknown	196.98727	01/14/0117 10:17.58	00011819	13.470	Inter754t3-2	1.500	1	2	180.000	11.111	0.1	0.074	0.000	D	F	1486.1	181.613	0.195	-0.013	694.893	1149.895	0.027	-	0.165	-0.109	-	-	-	Ambient439	5.491	73.966	23.405	PAVEMENT_GENERAL	Urban	F	1011101000011101	0000000000000000	-	-	-	-	-	-	-	-	-	-	Terminate	
Unknown	197.98729	01/14/0117 10:17.59	00011879	13.376	Inter754t3-2	1.781	1	2	180.000	11.111	-9.1	0.078	0.000	D	F	1486.5	180.469	0.195	0.059	694.612	1136.476	0.027	-	-0.430	-0.091	-	-	-	Ambient439	5.296	70.842	23.102	PAVEMENT_GENERAL	Urban	F	1011101000011101	0000000000000000	-	-	-	-	-	-	-	-	-	-	Terminate	
Unknown	198.98732	01/14/0117 10:18.00	00011939	13.261	Inter754t3-2	1.721	1	2	180.000	11.111	-6.8	0.067	0.000	D	F	1451.4	179.061	0.195	0.041	694.672	1123.151	0.027	-	-0.317	-0.149	-	-	-	Ambient439	5.113	67.809	22.976	PAVEMENT_GENERAL	Urban	F	1011101000011101	0000000000000000	-	-	-	-	-	-	-	-	-	-	Terminate	
Unknown	199.98734	01/14/0117 10:18.01	00011999	13.125	Inter754t3-2	1.352	1	2	180.000	11.111	-1.4	0.065	0.000	D	F	1441.3	177.792	0.195	0.017	695.041	1109.964	0.027	-	-0.143	-0.145	-	-	-	Ambient439	4.946	64.914	23.057	PAVEMENT_GENERAL	Urban	F	1011101000011101	0000000000000000	-	-	-	-	-	-	-	-	-	-	Terminate	
Unknown	200.98735	01/14/0117 10:18.02	00012059	13.016	Inter754t9-0	0.933	1	1	179.995	11.111	16.1	0.074	0.000	D	F	1452.0	179.094	0.195	-0.101	695.461	1096.903	0.027	-	0.708	-0.109	-	-	-	Ambient439	4.774	62.135	22.961	PAVEMENT_GENERAL	Urban	F	1011101000011101	0000000000000000	-	-	-	-	-	-	-	-	-	-	Terminate	
Unknown	201.98737	01/14/0117 10:18.03	00012119	12.893	Inter754t9-0	1.014	1	1	179.991	11.111	5.7	0.044	0.000	D	F	1377.2	181.187	0.193	-0.033	695.380	1083.944	0.027	-	0.268	-0.206	-	-	-	Ambient439	4.614	59.484	23.028	PAVEMENT_GENERAL	Urban	F	1011101000011101	0000000000000000	-	-	-	-	-	-	-	-	-	-	Terminate	
Unknown	202.98740	01/14/0117 10:18.04	00012179	12.628	Inter754t9-0	1.300	1	1	179.989	11.111	-12.2	0.042	0.000	D	F	1350.4	180.681	0.195	0.070	695.097	1071.188	0.028	-	-0.527	-0.259	-	-	-	Ambient439	4.701	59.363	25.600	PAVEMENT_GENERAL	Urban	F	1011101000011101	0000000000000000	-	-	-	-	-	-	-	-	-	-	Terminate	
Unknown	203.98741	01/14/0117 10:18.05	00012239	12.379	Inter754t9-0	1.185	1	1	179.990	11.111	-6.3	0.044	0.000	D	F	1332.7	178.479	0.194	0.041	695.214	1058.687	0.028	-	-0.319	-0.247	-	-	-	Ambient439	4.618	57.170	27.625	PAVEMENT_GENERAL	Urban	F	1011101000011101	0000000000000000	-	-	-	-	-	-	-	-	-	-	Terminate	
Unknown	204.98743	01/14/0117 10:18.06	00012299	12.130	Inter754t11-0	-0.168	LT1	0	177.444	11.111	0.7	0.039	0.000	D	F	1298.0	178.001	0.195	-0.001	695.613	1046.436	0.028	-	0.009	-0.271	-	-	-	Ambient439	4.553	55.228	30.333	PAVEMENT_GENERAL	Urban	F	1011101000011101	0000000000000000	-	-	-	-	-	-	-	-	-	-	Terminate	
Unknown	205.98746	01/14/0117 10:18.07	00012359	11.871	Inter754t11-0	0.066	LT1	0	178.656	11.111	4.7	0.042	0.000	D	F	1285.3	178.399	0.196	-0.025	695.999	1034.444	0.028	-	0.167	-0.242	-	-	-	Ambient439	4.511	53.545	34.288	PAVEMENT_GENERAL	Urban	F	1011101000011101	0000000000000000	-	-	-	-	-	-	-	-	-	-	Terminate	
