ZoneName	Time	SystemTime	Frame	Velocity	LaneName	LanePos	LaneIndex	LaneCount	LaneHeading	SpeedLimit	Steer	Accel	Brake	Gear	Horn	SubjectEngineRPM	SubjectHeading	SubjectPitch	SubjectRoll	SubjectX	SubjectY	SubjectZ	Signal	LatAccel	LongAccel	Collision	CollisionAngle	CollisionVelocity	VehAhead	HeadwayTime	HeadwayDist	TTC	TerrainType	CultureType	Slip	DigitalInputs	DigitalInputs2	ActiveTrigger	EntityName	DistToEntity	TimeToEntity	EntityVelocity	EntityAccel	EntityHeading	EntityX	EntityY	EntityZ	GrabData	
Unknown	0.98335	01/15/0117 10:49.33	00000059	0.002	Inter625t13-0	-0.088	1	2	0.000	11.111	-0.6	0.000	0.000	D	F	0.0	0.000	0.153	0.000	1503.500	523.206	0.019	-	0.000	0.000	-	-	-	-	-	-	-	PAVEMENT_GENERAL	Urban	F	1011101000011101	0000000000010000	-	-	-	-	-	-	-	-	-	-	Terminate	
Unknown	1.98337	01/15/0117 10:49.34	00000119	0.000	Inter625t13-0	-0.088	1	2	0.000	11.111	-0.6	0.000	0.000	D	F	0.0	0.000	0.197	0.000	1503.500	523.208	0.026	-	-0.000	-0.001	-	-	-	-	-	-	-	PAVEMENT_GENERAL	Urban	F	1011101000011101	0000000000010000	-	-	-	-	-	-	-	-	-	-	Terminate	
Unknown	2.98339	01/15/0117 10:49.35	00000179	-0.000	Inter625t13-0	-0.088	1	2	0.000	11.111	-0.6	0.000	0.000	D	F	0.0	0.000	0.207	0.000	1503.500	523.208	0.028	-	-0.000	-0.000	-	-	-	-	-	-	-	PAVEMENT_GENERAL	Urban	F	1011101000011101	0000000000010000	-	-	-	-	-	-	-	-	-	-	Terminate	
Unknown	3.98341	01/15/0117 10:49.36	00000239	-0.000	Inter625t13-0	-0.088	1	2	0.000	11.111	-0.6	0.000	0.000	D	F	0.0	0.000	0.210	0.000	1503.500	523.208	0.028	-	-0.000	-0.000	-	-	-	-	-	-	-	PAVEMENT_GENERAL	Urban	F	1011101000011101	0000000000010000	-	-	-	-	-	-	-	-	-	-	Terminate	
Unknown	4.98343	01/15/0117 10:49.37	00000299	-0.000	Inter625t13-0	-0.088	1	2	0.000	11.111	-0.6	0.000	0.000	D	F	0.0	0.000	0.210	0.000	1503.500	523.208	0.028	-	-0.000	0.000	-	-	-	-	-	-	-	PAVEMENT_GENERAL	Urban	F	1011101000011101	0000000000010000	-	-	-	-	-	-	-	-	-	-	Terminate	
Unknown	5.98345	01/15/0117 10:49.38	00000359	-0.000	Inter625t13-0	-0.088	1	2	0.000	11.111	-0.6	0.000	0.000	D	F	0.0	0.000	0.209	0.000	1503.500	523.208	0.028	-	-0.000	0.000	-	-	-	-	-	-	-	PAVEMENT_GENERAL	Urban	F	1011101000011101	0000000000010000	-	-	-	-	-	-	-	-	-	-	Terminate	
Unknown	6.98347	01/15/0117 10:49.39	00000419	-0.000	Inter625t13-0	-0.088	1	2	0.000	11.111	-0.6	0.000	0.000	D	F	0.0	0.000	0.209	0.000	1503.500	523.208	0.028	-	-0.000	0.000	-	-	-	-	-	-	-	PAVEMENT_GENERAL	Urban	F	1011101000011101	0000000000010000	-	-	-	-	-	-	-	-	-	-	Terminate	
Unknown	7.98349	01/15/0117 10:49.40	00000479	-0.000	Inter625t13-0	-0.088	1	2	0.000	11.111	-0.6	0.000	0.000	D	F	0.0	0.000	0.209	-0.000	1503.500	523.208	0.028	-	-0.000	0.000	-	-	-	-	-	-	-	PAVEMENT_GENERAL	Urban	F	1011101000011101	0000000000010000	-	-	-	-	-	-	-	-	-	-	Terminate	
Unknown	8.98351	01/15/0117 10:49.41	00000539	-0.000	Inter625t13-0	-0.088	1	2	0.000	11.111	-0.6	0.000	0.000	D	F	0.0	0.000	0.209	-0.000	1503.500	523.208	0.028	-	-0.000	0.000	-	-	-	-	-	-	-	PAVEMENT_GENERAL	Urban	F	1011101000011101	0000000000010000	-	-	-	-	-	-	-	-	-	-	Terminate	
Unknown	9.98353	01/15/0117 10:49.42	00000599	-0.000	Inter625t13-0	-0.088	1	2	0.000	11.111	-0.6	0.000	0.000	D	F	0.0	0.000	0.209	-0.000	1503.500	523.208	0.028	-	-0.000	0.000	-	-	-	-	-	-	-	PAVEMENT_GENERAL	Urban	F	1011101000011101	0000000000010000	-	-	-	-	-	-	-	-	-	-	Terminate	
Unknown	10.98355	01/15/0117 10:49.43	00000659	-0.000	Inter625t13-0	-0.088	1	2	0.000	11.111	-0.6	0.000	0.000	D	F	0.0	0.000	0.209	-0.000	1503.500	523.208	0.028	-	0.000	0.000	-	-	-	-	-	-	-	PAVEMENT_GENERAL	Urban	F	1111101000011101	0000000000010000	-	-	-	-	-	-	-	-	-	-	Terminate	
Unknown	11.98357	01/15/0117 10:49.44	00000719	-0.000	Inter625t13-0	-0.088	1	2	0.000	11.111	-7.4	0.000	0.000	D	F	0.0	0.000	0.209	-0.000	1503.500	523.207	0.028	-	0.000	0.000	-	-	-	-	-	-	-	PAVEMENT_GENERAL	Urban	F	1011101000011101	0000000000010000	-	-	-	-	-	-	-	-	-	-	Terminate	
Unknown	12.98359	01/15/0117 10:49.45	00000779	-0.000	Inter625t13-0	-0.088	1	2	0.000	11.111	-6.8	0.000	0.000	D	F	0.0	0.000	0.209	0.000	1503.500	523.207	0.028	-	0.000	0.000	-	-	-	-	-	-	-	PAVEMENT_GENERAL	Urban	F	1011101000011101	0000000000010000	-	-	-	-	-	-	-	-	-	-	Terminate	
Unknown	13.98361	01/15/0117 10:49.46	00000839	-0.000	Inter625t13-0	-0.088	1	2	0.000	11.111	-5.3	0.000	0.000	D	F	0.0	0.000	0.209	0.000	1503.500	523.207	0.028	-	0.000	0.000	-	-	-	-	-	-	-	PAVEMENT_GENERAL	Urban	F	1011101000011101	0000000000010000	-	-	-	-	-	-	-	-	-	-	Terminate	
Unknown	14.98363	01/15/0117 10:49.47	00000899	-0.000	Inter625t13-0	-0.088	1	2	0.000	11.111	-7.9	0.000	0.000	D	F	0.0	0.000	0.209	0.000	1503.500	523.207	0.028	-	-0.000	0.000	-	-	-	-	-	-	-	PAVEMENT_GENERAL	Urban	F	1011101000011101	0000000000010000	-	-	-	-	-	-	-	-	-	-	Terminate	
Unknown	15.98365	01/15/0117 10:49.48	00000959	-0.000	Inter625t13-0	-0.088	1	2	0.000	11.111	-12.9	0.000	0.000	D	F	0.0	0.000	0.209	0.000	1503.500	523.207	0.028	-	-0.000	0.000	-	-	-	-	-	-	-	PAVEMENT_GENERAL	Urban	F	1011101000011101	0000000000010000	-	-	-	-	-	-	-	-	-	-	Terminate	
Unknown	16.98367	01/15/0117 10:49.49	00001019	-0.000	Inter625t13-0	-0.088	1	2	0.000	11.111	-11.8	0.000	0.000	D	F	0.0	0.000	0.209	0.000	1503.500	523.207	0.028	-	-0.000	0.000	-	-	-	-	-	-	-	PAVEMENT_GENERAL	Urban	F	1011101000011101	0000000000010000	-	-	-	-	-	-	-	-	-	-	Terminate	
Unknown	17.98369	01/15/0117 10:49.50	00001079	-0.000	Inter625t13-0	-0.088	1	2	0.000	11.111	-4.4	0.000	0.000	D	F	0.0	0.000	0.209	-0.000	1503.500	523.207	0.028	-	-0.000	0.000	-	-	-	-	-	-	-	PAVEMENT_GENERAL	Urban	F	1011101000011101	0000000000010000	-	-	-	-	-	-	-	-	-	-	Terminate	
Unknown	18.98371	01/15/0117 10:49.51	00001139	-0.000	Inter625t13-0	-0.088	1	2	0.000	11.111	-4.3	0.000	0.000	D	F	0.0	0.000	0.209	-0.000	1503.500	523.207	0.028	-	-0.000	0.000	-	-	-	-	-	-	-	PAVEMENT_GENERAL	Urban	F	1011101000011101	0000000000010000	-	-	-	-	-	-	-	-	-	-	Terminate	
Unknown	19.98373	01/15/0117 10:49.52	00001199	-0.000	Inter625t13-0	-0.088	1	2	0.000	11.111	-4.3	0.000	0.000	D	F	0.0	0.000	0.209	-0.000	1503.500	523.207	0.028	-	-0.000	0.000	-	-	-	-	-	-	-	PAVEMENT_GENERAL	Urban	F	1011101000011101	0000000000010000	-	-	-	-	-	-	-	-	-	-	Terminate	
Unknown	20.98375	01/15/0117 10:49.53	00001259	-0.000	Inter625t13-0	-0.088	1	2	0.000	11.111	-4.3	0.000	0.000	D	F	0.0	0.000	0.209	-0.000	1503.500	523.207	0.028	-	-0.000	0.000	-	-	-	-	-	-	-	PAVEMENT_GENERAL	Urban	F	1011101000011101	0000000000010000	-	-	-	-	-	-	-	-	-	-	Terminate	
Unknown	21.98377	01/15/0117 10:49.54	00001319	-0.000	Inter625t13-0	-0.088	1	2	0.000	11.111	-4.3	0.000	0.000	D	F	0.0	0.000	0.209	-0.000	1503.500	523.207	0.028	-	-0.000	0.000	-	-	-	-	-	-	-	PAVEMENT_GENERAL	Urban	F	1011101000011101	0000000000010000	-	-	-	-	-	-	-	-	-	-	Terminate	
Unknown	22.98379	01/15/0117 10:49.55	00001379	-0.000	Inter625t13-0	-0.088	1	2	0.000	11.111	-4.3	0.000	0.000	D	F	0.0	0.000	0.209	-0.000	1503.500	523.207	0.028	-	-0.000	0.000	-	-	-	-	-	-	-	PAVEMENT_GENERAL	Urban	F	1011101000011101	0000000000010000	-	-	-	-	-	-	-	-	-	-	Terminate	
Unknown	23.98381	01/15/0117 10:49.56	00001439	-0.000	Inter625t13-0	-0.088	1	2	0.000	11.111	-4.3	0.000	0.000	D	F	0.0	0.000	0.209	-0.000	1503.500	523.207	0.028	-	-0.000	0.000	-	-	-	-	-	-	-	PAVEMENT_GENERAL	Urban	F	1011101000011101	0000000000010000	-	-	-	-	-	-	-	-	-	-	Terminate	
Unknown	24.98383	01/15/0117 10:49.57	00001499	-0.000	Inter625t13-0	-0.088	1	2	0.000	11.111	-4.3	0.000	0.000	D	F	0.0	0.000	0.209	-0.000	1503.500	523.207	0.028	-	-0.000	0.000	-	-	-	-	-	-	-	PAVEMENT_GENERAL	Urban	F	1011101000011101	0000000000010000	-	-	-	-	-	-	-	-	-	-	Terminate	
Unknown	25.98385	01/15/0117 10:49.58	00001559	-0.000	Inter625t13-0	-0.088	1	2	0.000	11.111	-4.3	0.000	0.000	D	F	0.0	0.000	0.209	-0.000	1503.500	523.207	0.028	-	-0.000	0.000	-	-	-	-	-	-	-	PAVEMENT_GENERAL	Urban	F	1011101000011101	0000000000010000	-	-	-	-	-	-	-	-	-	-	Terminate	
Unknown	26.98387	01/15/0117 10:49.59	00001619	-0.000	Inter625t13-0	-0.088	1	2	0.000	11.111	-4.3	0.000	0.000	D	F	0.0	0.000	0.209	-0.000	1503.500	523.207	0.028	-	-0.000	0.000	-	-	-	-	-	-	-	PAVEMENT_GENERAL	Urban	F	1011101000011101	0000000000010000	-	-	-	-	-	-	-	-	-	-	Terminate	
Unknown	27.98389	01/15/0117 10:50.00	00001679	-0.000	Inter625t13-0	-0.088	1	2	0.000	11.111	-4.3	0.000	0.000	D	F	0.0	0.000	0.209	-0.000	1503.500	523.207	0.028	-	-0.000	0.000	-	-	-	-	-	-	-	PAVEMENT_GENERAL	Urban	F	1011101000011101	0000000000010000	-	-	-	-	-	-	-	-	-	-	Terminate	
Unknown	28.98391	01/15/0117 10:50.01	00001739	-0.000	Inter625t13-0	-0.088	1	2	0.000	11.111	-4.3	0.000	0.000	D	F	0.0	0.000	0.209	-0.000	1503.500	523.207	0.028	-	-0.000	0.000	-	-	-	-	-	-	-	PAVEMENT_GENERAL	Urban	F	1011101000011101	0000000000010000	-	-	-	-	-	-	-	-	-	-	Terminate	
Unknown	29.98393	01/15/0117 10:50.02	00001799	-0.000	Inter625t13-0	-0.088	1	2	0.000	11.111	-4.3	0.000	0.000	D	F	0.0	0.000	0.209	-0.000	1503.500	523.207	0.028	-	-0.000	0.000	-	-	-	-	-	-	-	PAVEMENT_GENERAL	Urban	F	1011101000011101	0000000000010000	-	-	-	-	-	-	-	-	-	-	Terminate	
Unknown	30.98395	01/15/0117 10:50.03	00001859	-0.000	Inter625t13-0	-0.088	1	2	0.000	11.111	-4.3	0.000	0.000	D	F	0.0	0.000	0.209	-0.000	1503.500	523.207	0.028	-	-0.000	0.000	-	-	-	-	-	-	-	PAVEMENT_GENERAL	Urban	F	1011101000011101	0000000000010000	-	-	-	-	-	-	-	-	-	-	Terminate	
Unknown	31.98397	01/15/0117 10:50.04	00001919	-0.000	Inter625t13-0	-0.088	1	2	0.000	11.111	-4.3	0.000	0.000	D	F	0.0	0.000	0.209	-0.000	1503.500	523.207	0.028	-	-0.000	0.000	-	-	-	-	-	-	-	PAVEMENT_GENERAL	Urban	F	1011101000011101	0000000000010000	-	-	-	-	-	-	-	-	-	-	Terminate	
Unknown	32.98399	01/15/0117 10:50.05	00001979	-0.000	Inter625t13-0	-0.088	1	2	0.000	11.111	-4.3	0.000	0.000	D	F	0.0	0.000	0.209	-0.000	1503.500	523.207	0.028	-	-0.000	0.000	-	-	-	-	-	-	-	PAVEMENT_GENERAL	Urban	F	1011101000011101	0000000000010000	-	-	-	-	-	-	-	-	-	-	Terminate	
Unknown	33.98401	01/15/0117 10:50.06	00002039	-0.000	Inter625t13-0	-0.088	1	2	0.000	11.111	-4.3	0.000	0.000	D	F	0.0	0.000	0.209	-0.000	1503.500	523.207	0.028	-	-0.000	0.000	-	-	-	-	-	-	-	PAVEMENT_GENERAL	Urban	F	1011101000011101	0000000000010000	-	-	-	-	-	-	-	-	-	-	Terminate	
Unknown	34.98403	01/15/0117 10:50.07	00002099	-0.000	Inter625t13-0	-0.088	1	2	0.000	11.111	-4.3	0.000	0.000	D	F	0.0	0.000	0.209	-0.000	1503.500	523.207	0.028	-	-0.000	0.000	-	-	-	-	-	-	-	PAVEMENT_GENERAL	Urban	F	1011101000011101	0000000000010000	-	-	-	-	-	-	-	-	-	-	Terminate	
Unknown	35.98405	01/15/0117 10:50.08	00002159	-0.000	Inter625t13-0	-0.088	1	2	0.000	11.111	-4.3	0.000	0.000	D	F	0.0	0.000	0.209	-0.000	1503.500	523.207	0.028	-	-0.000	0.000	-	-	-	-	-	-	-	PAVEMENT_GENERAL	Urban	F	1011101000011101	0000000000010000	-	-	-	-	-	-	-	-	-	-	Terminate	
Unknown	36.98407	01/15/0117 10:50.09	00002219	-0.000	Inter625t13-0	-0.088	1	2	0.000	11.111	-4.3	0.134	0.000	D	F	0.0	0.000	0.209	-0.000	1503.500	523.207	0.028	-	-0.000	0.000	-	-	-	-	-	-	-	PAVEMENT_GENERAL	Urban	F	1011101000011101	0000000000010000	-	-	-	-	-	-	-	-	-	-	Terminate	
Unknown	37.98409	01/15/0117 10:50.10	00002279	-0.000	Inter625t13-0	-0.088	1	2	0.000	11.111	-4.3	0.000	0.000	D	F	0.0	0.000	0.209	-0.000	1503.500	523.207	0.028	-	-0.000	0.000	-	-	-	-	-	-	-	PAVEMENT_GENERAL	Urban	F	1011101000011101	0000000000010000	-	-	-	-	-	-	-	-	-	-	Terminate	
Unknown	38.98411	01/15/0117 10:50.11	00002339	-0.000	Inter625t13-0	-0.088	1	2	0.000	11.111	-4.3	0.000	0.000	D	F	0.0	0.000	0.209	-0.000	1503.500	523.207	0.028	-	-0.000	0.000	-	-	-	-	-	-	-	PAVEMENT_GENERAL	Urban	F	1011101000011101	0000000000010000	-	-	-	-	-	-	-	-	-	-	Terminate	
Unknown	39.98413	01/15/0117 10:50.12	00002399	0.001	Inter625t13-0	-0.088	1	2	0.000	11.111	-4.3	0.000	0.000	D	F	272.2	0.000	0.208	-0.000	1503.500	523.207	0.028	-	-0.000	0.003	-	-	-	-	-	-	-	PAVEMENT_GENERAL	Urban	F	1011101000011111	0000000000010000	-	-	-	-	-	-	-	-	-	-	Terminate	
Unknown	40.98415	01/15/0117 10:50.13	00002459	0.011	Inter625t13-0	-0.088	1	2	0.000	11.111	-4.3	0.000	0.000	D	F	477.5	0.000	0.198	0.000	1503.500	523.213	0.024	-	-0.000	0.008	-	-	-	-	-	-	-	PAVEMENT_GENERAL	Urban	F	1011101000011101	0000000000010000	-	-	-	-	-	-	-	-	-	-	Terminate	
Unknown	41.98417	01/15/0117 10:50.14	00002519	0.102	Inter625t13-0	-0.088	1	2	0.000	11.111	-0.7	0.000	0.000	D	F	477.5	0.000	0.205	0.000	1503.500	523.254	0.025	-	-0.000	0.186	-	-	-	-	-	-	-	PAVEMENT_GENERAL	Urban	F	1011101000011101	0000000000010000	-	-	-	-	-	-	-	-	-	-	Terminate	
Unknown	42.98419	01/15/0117 10:50.15	00002579	0.372	Inter625t13-0	-0.089	1	2	0.000	11.111	-5.7	0.044	0.000	D	F	780.4	0.000	0.226	0.000	1503.499	523.465	0.025	-	-0.003	0.733	-	-	-	-	-	-	-	PAVEMENT_GENERAL	Urban	F	1011101000011101	0000000000010000	-	-	-	-	-	-	-	-	-	-	Terminate	
Unknown	43.98421	01/15/0117 10:50.16	00002639	2.605	Inter625t13-0	-0.096	1	2	0.000	11.111	-6.3	0.139	0.000	D	F	1402.2	359.806	0.215	0.004	1503.492	524.846	0.015	-	-0.025	2.370	-	-	-	-	-	-	-	PAVEMENT_GENERAL	Urban	F	1011101000011101	0000000000010000	-	-	-	-	-	-	-	-	-	-	Terminate	
Unknown	44.98423	01/15/0117 10:50.17	00002699	4.772	Inter625t13-0	-0.139	1	2	0.000	11.111	-4.3	0.152	0.000	D	F	1683.0	359.290	0.216	0.003	1503.449	528.614	0.017	-	-0.020	1.711	-	-	-	-	-	-	-	PAVEMENT_GENERAL	Urban	F	1011101000011101	0000000000010000	-	-	-	-	-	-	-	-	-	-	Terminate	
Unknown	45.98425	01/15/0117 10:50.18	00002759	6.230	Inter625t49-0	-0.224	1	1	0.005	11.111	-3.0	0.148	0.000	D	F	1607.2	359.056	0.209	0.005	1503.364	534.142	0.020	-	-0.040	1.256	-	-	-	-	-	-	-	PAVEMENT_GENERAL	Urban	F	1011101000011101	0000000000010000	-	-	-	-	-	-	-	-	-	-	Terminate	
Unknown	46.98427	01/15/0117 10:50.19	00002819	7.282	Inter625t49-0	-0.371	1	1	0.006	11.111	-2.5	0.143	0.000	D	F	1576.7	358.613	0.210	0.006	1503.218	540.922	0.022	-	-0.043	0.917	-	-	-	-	-	-	-	PAVEMENT_GENERAL	Urban	F	1011101000011101	0000000000010000	-	-	-	-	-	-	-	-	-	-	Terminate	
Unknown	47.98429	01/15/0117 10:50.20	00002879	8.313	Inter625t49-0	-0.521	1	1	0.008	11.111	5.1	0.198	0.000	D	F	1785.8	359.252	0.210	-0.015	1503.068	548.682	0.021	-	0.111	1.214	-	-	-	-	-	-	-	PAVEMENT_GENERAL	Urban	F	1011101000011101	0000000000010000	-	-	-	-	-	-	-	-	-	-	Terminate	
Unknown	48.98431	01/15/0117 10:50.21	00002939	9.389	Inter625t49-0	-0.602	1	1	0.007	11.111	-5.2	0.175	0.000	D	F	1799.4	359.412	0.206	0.019	1502.988	557.577	0.022	-	-0.130	0.860	-	-	-	-	-	-	-	PAVEMENT_GENERAL	Urban	F	1011101000011101	0000000000010000	-	-	-	-	-	-	-	-	-	-	Terminate	
Unknown	49.98433	01/15/0117 10:50.22	00002999	10.407	Inter625t49-0	-0.793	1	1	0.005	11.111	-0.7	0.210	0.000	D	F	1960.5	358.564	0.209	0.003	1502.799	567.454	0.021	-	-0.046	1.033	-	-	-	-	-	-	-	PAVEMENT_GENERAL	Urban	F	1011101000011101	0000000000010000	-	-	-	-	-	-	-	-	-	-	Terminate	
Unknown	50.98435	01/15/0117 10:50.23	00003059	11.344	Inter625t49-0	-1.038	1	1	0.005	11.111	4.7	0.208	0.000	D	F	2047.9	359.027	0.208	-0.020	1502.555	578.337	0.022	-	0.165	0.905	-	-	-	-	-	-	-	PAVEMENT_GENERAL	Urban	F	1011101000011101	0000000000010000	-	-	-	-	-	-	-	-	-	-	Terminate	
Unknown	51.98437	01/15/0117 10:50.24	00003119	12.381	Inter625t15-0	-1.136	1	2	0.000	11.111	5.0	0.257	0.000	D	F	2222.4	0.000	0.208	-0.025	1502.458	590.186	0.021	-	0.204	1.079	-	-	-	-	-	-	-	PAVEMENT_GENERAL	Urban	F	1011101000011101	0000000000010000	-	-	-	-	-	-	-	-	-	-	Terminate	
Unknown	52.98439	01/15/0117 10:50.25	00003179	13.456	Inter614t1-0	-1.081	1	2	0.000	11.111	-4.5	0.266	0.000	D	F	2355.2	0.152	0.207	0.024	1502.512	603.106	0.021	-	-0.176	1.060	-	-	-	-	-	-	-	PAVEMENT_GENERAL	Urban	F	1011101000011101	0000000000010000	-	-	-	-	-	-	-	-	-	-	Terminate	
Unknown	53.98441	01/15/0117 10:50.26	00003239	14.493	Inter614t1-0	-1.143	1	2	0.000	11.111	-2.3	0.266	0.000	D	F	2493.9	359.400	0.206	0.017	1502.450	617.084	0.022	-	-0.131	1.019	-	-	-	-	-	-	-	PAVEMENT_GENERAL	Urban	F	1011101000011101	0000000000010000	-	-	-	-	-	-	-	-	-	-	Terminate	
Unknown	54.98443	01/15/0117 10:50.27	00003299	15.509	Inter614t1-0	-1.302	1	2	0.000	11.111	2.5	0.235	0.000	D	F	2574.2	359.578	0.203	-0.018	1502.291	632.088	0.022	-	0.138	0.950	-	-	-	-	-	-	-	PAVEMENT_GENERAL	Urban	F	1011101000011101	0000000000010000	-	-	-	-	-	-	-	-	-	-	Terminate	
Unknown	55.98445	01/15/0117 10:50.28	00003359	15.975	Inter614t1-0	-1.362	1	2	0.000	11.111	1.8	0.176	0.000	D	F	1881.9	0.000	0.198	-0.012	1502.232	647.896	0.025	-	0.094	0.273	-	-	-	-	-	-	-	PAVEMENT_GENERAL	Urban	F	1011101000011101	0000000000010000	-	-	-	-	-	-	-	-	-	-	Terminate	
Unknown	56.98447	01/15/0117 10:50.29	00003419	16.371	Inter614t1-0	-1.255	1	2	0.000	11.111	7.7	0.208	0.000	D	F	1970.2	1.107	0.197	-0.059	1502.338	664.058	0.025	-	0.451	0.445	-	-	-	-	-	-	-	PAVEMENT_GENERAL	Urban	F	1011101000011101	0000000000010000	-	-	-	-	-	-	-	-	-	-	Terminate	
Unknown	57.98449	01/15/0117 10:50.30	00003479	16.803	Inter614t1-0	-0.770	1	2	0.000	11.111	-4.0	0.208	0.000	D	F	1991.8	2.128	0.196	0.011	1502.823	680.640	0.025	-	-0.026	0.425	-	-	-	-	-	-	-	PAVEMENT_GENERAL	Urban	F	1011101000011101	0000000000010000	-	-	-	-	-	-	-	-	-	-	Terminate	
Unknown	58.98451	01/15/0117 10:50.31	00003539	17.225	Inter614t1-0	-0.306	1	2	0.000	11.111	-5.3	0.212	0.000	D	F	2021.9	0.883	0.196	0.042	1503.287	697.649	0.025	-	-0.343	0.413	-	-	-	-	-	-	-	PAVEMENT_GENERAL	Urban	F	1011101000011101	0000000000010000	-	-	-	-	-	-	-	-	-	-	Terminate	
Unknown	59.98453	01/15/0117 10:50.32	00003599	17.630	Inter614t1-0	-0.170	1	2	0.000	11.111	-4.1	0.217	0.000	D	F	2061.0	359.923	0.195	0.034	1503.423	715.076	0.025	-	-0.264	0.412	-	-	-	-	-	-	-	PAVEMENT_GENERAL	Urban	F	1011101000011101	0000000000010000	-	-	-	-	-	-	-	-	-	-	Terminate	
Unknown	60.98455	01/15/0117 10:50.33	00003659	17.980	Inter614t1-0	-0.291	1	2	0.000	11.111	2.0	0.081	0.000	D	F	1850.2	359.352	0.178	-0.007	1503.302	732.906	0.025	-	0.014	-0.158	-	-	-	-	-	-	-	PAVEMENT_GENERAL	Urban	F	1011101000011101	0000000000010000	-	-	-	-	-	-	-	-	-	-	Terminate	
Unknown	61.98457	01/15/0117 10:50.34	00003719	18.020	Inter614t1-0	-0.387	1	2	0.000	11.111	7.4	0.180	0.000	D	F	2019.7	0.380	0.190	-0.061	1503.206	750.864	0.025	-	0.483	0.200	-	-	-	-	-	-	-	PAVEMENT_GENERAL	Urban	F	1011101000011101	0000000000010000	-	-	-	-	-	-	-	-	-	-	Terminate	
Unknown	62.98459	01/15/0117 10:50.35	00003779	18.176	Inter614t1-0	-0.080	1	2	0.000	11.111	-1.6	0.160	0.000	D	F	2001.8	1.508	0.191	-0.004	1503.513	768.966	0.026	-	0.063	0.128	-	-	-	-	-	-	-	PAVEMENT_GENERAL	Urban	F	1011101000011101	0000000000010000	-	-	-	-	-	-	-	-	-	-	Terminate	
Unknown	63.98461	01/15/0117 10:50.36	00003839	18.283	Inter614t1-0	0.292	1	2	0.000	11.111	-4.9	0.160	0.000	D	F	2012.6	0.586	0.192	0.045	1503.885	787.188	0.026	-	-0.354	0.142	-	-	-	-	-	-	-	PAVEMENT_GENERAL	Urban	F	1011101000011101	0000000000010000	-	-	-	-	-	-	-	-	-	-	Terminate	
Unknown	64.98463	01/15/0117 10:50.37	00003899	18.386	Inter612t1-0	0.368	1	2	0.000	11.111	0.7	0.109	0.000	D	F	1950.9	0.000	0.184	-0.001	1503.961	805.536	0.026	-	-0.008	-0.107	-	-	-	-	-	-	-	PAVEMENT_GENERAL	Urban	F	1011101000011101	0000000000010000	-	-	-	-	-	-	-	-	-	-	Terminate	
Unknown	65.98465	01/15/0117 10:50.38	00003959	18.279	Inter612t1-0	0.396	1	2	0.000	11.111	0.4	0.104	0.000	D	F	1943.5	0.199	0.189	-0.004	1503.989	823.864	0.027	-	0.039	-0.116	-	-	-	-	-	-	-	PAVEMENT_GENERAL	Urban	F	1011101000011101	0000000000010000	-	-	-	-	-	-	-	-	-	-	Terminate	
Unknown	66.98467	01/15/0117 10:50.39	00004019	17.839	Inter612t1-0	0.464	1	2	0.000	11.111	0.3	0.000	0.000	D	F	1239.8	0.248	0.185	-0.004	1504.057	841.966	0.029	-	0.023	-0.567	-	-	-	-	-	-	-	PAVEMENT_GENERAL	Urban	F	1011101000011101	0000000000010000	-	-	-	-	-	-	-	-	-	-	Terminate	
Unknown	67.98470	01/15/0117 10:50.40	00004079	17.396	Inter612t1-0	0.550	1	2	0.000	11.111	0.6	0.102	0.000	D	F	1459.0	0.331	0.191	-0.004	1504.144	859.558	0.028	-	0.032	-0.231	-	-	-	-	-	-	-	PAVEMENT_GENERAL	Urban	F	1011101000011101	0000000000010000	-	-	-	-	-	-	-	-	-	-	Terminate	
Unknown	68.98471	01/15/0117 10:50.41	00004139	17.652	Inter612t1-0	0.650	1	2	0.000	11.111	-1.6	0.252	0.000	D	F	1845.2	0.226	0.196	0.012	1504.243	877.034	0.025	-	-0.090	0.419	-	-	-	-	-	-	-	PAVEMENT_GENERAL	Urban	F	1011101000011101	0000000000010000	-	-	-	-	-	-	-	-	-	-	Terminate	
Unknown	69.98473	01/15/0117 10:50.42	00004199	18.149	Inter612t1-0	0.686	1	2	0.000	11.111	-0.5	0.270	0.000	D	F	2139.9	0.007	0.196	0.006	1504.279	894.923	0.024	-	-0.041	0.538	-	-	-	-	-	-	-	PAVEMENT_GENERAL	Urban	F	1011101000011101	0000000000010000	-	-	-	-	-	-	-	-	-	-	Terminate	
Unknown	70.98476	01/15/0117 10:50.43	00004259	18.374	Inter612t1-0	0.683	1	2	0.000	11.111	0.8	0.000	0.000	D	F	1439.6	0.014	0.173	-0.006	1504.277	913.290	0.028	-	0.043	-0.547	-	-	-	-	-	-	-	PAVEMENT_GENERAL	Urban	F	1111101000011101	0000000000010000	-	-	-	-	-	-	-	-	-	-	Terminate	
Unknown	71.98477	01/15/0117 10:50.44	00004319	17.806	Inter612t1-0	0.700	1	2	0.000	11.111	-1.7	0.000	0.000	D	F	1217.5	359.949	0.185	0.017	1504.293	931.381	0.029	-	-0.130	-0.570	-	-	-	-	-	-	-	PAVEMENT_GENERAL	Urban	F	1011101000011101	0000000000010000	-	-	-	-	-	-	-	-	-	-	Terminate	
Unknown	72.98479	01/15/0117 10:50.45	00004379	17.366	Inter612t1-0	0.629	1	2	0.000	11.111	-0.7	0.042	0.000	D	F	1295.2	359.582	0.188	0.007	1504.223	948.954	0.028	-	-0.063	-0.389	-	-	-	-	-	-	-	PAVEMENT_GENERAL	Urban	F	1011101000011101	0000000000010000	-	-	-	-	-	-	-	-	-	-	Terminate	
Unknown	73.98481	01/15/0117 10:50.46	00004439	17.230	Inter612t1-0	0.499	1	2	0.000	11.111	1.4	0.215	0.000	D	F	1786.7	359.619	0.197	-0.010	1504.092	966.189	0.025	-	0.071	0.305	-	-	-	-	-	-	-	PAVEMENT_GENERAL	Urban	F	1011101000011101	0000000000010000	-	-	-	-	-	-	-	-	-	-	Terminate	
Unknown	74.98483	01/15/0117 10:50.47	00004499	17.726	Inter612t1-0	0.418	1	2	0.000	11.111	1.2	0.272	0.000	D	F	2113.9	359.879	0.197	-0.010	1504.012	983.650	0.024	-	0.075	0.559	-	-	-	-	-	-	-	PAVEMENT_GENERAL	Urban	F	1011101000011101	0000000000010000	-	-	-	-	-	-	-	-	-	-	Terminate	
Unknown	75.98486	01/15/0117 10:50.48	00004559	18.281	Inter613t1-0	0.409	1	2	0.000	11.111	0.5	0.273	0.000	D	F	2156.3	0.078	0.196	-0.006	1504.002	1001.654	0.024	-	0.046	0.547	-	-	-	-	-	-	-	PAVEMENT_GENERAL	Urban	F	1011101000011101	0000000000010000	-	-	-	-	-	-	-	-	-	-	Terminate	
Unknown	76.98487	01/15/0117 10:50.49	00004619	18.694	Inter613t1-0	0.443	1	2	0.000	11.111	-0.0	0.175	0.000	D	F	2064.6	0.120	0.190	0.000	1504.036	1020.183	0.026	-	-0.001	0.177	-	-	-	-	-	-	-	PAVEMENT_GENERAL	Urban	F	1011101000011101	0000000000010000	-	-	-	-	-	-	-	-	-	-	Terminate	
Unknown	77.98489	01/15/0117 10:50.50	00004679	18.801	Inter613t1-0	0.476	1	2	0.000	11.111	0.2	0.102	0.000	D	F	1971.7	0.063	0.184	-0.000	1504.069	1038.958	0.027	-	-0.004	-0.131	-	-	-	-	-	-	-	PAVEMENT_GENERAL	Urban	F	1011101000011101	0000000000010000	-	-	-	-	-	-	-	-	-	-	Terminate	
Unknown	78.98492	01/15/0117 10:50.51	00004739	18.365	Inter613t1-0	0.510	1	2	0.000	11.111	-0.2	0.000	0.000	D	F	1270.2	0.132	0.183	0.001	1504.103	1057.585	0.029	-	-0.004	-0.576	-	-	-	-	-	-	-	PAVEMENT_GENERAL	Urban	F	1011101000011101	0000000000010000	-	-	-	-	-	-	-	-	-	-	Terminate	
Unknown	79.98493	01/15/0117 10:50.52	00004799	17.791	Inter613t1-0	0.532	1	2	0.000	11.111	-0.5	0.000	0.000	D	F	1213.5	359.942	0.185	0.009	1504.125	1075.662	0.029	-	-0.066	-0.570	-	-	-	-	-	-	-	PAVEMENT_GENERAL	Urban	F	1011101000011101	0000000000010000	-	-	-	-	-	-	-	-	-	-	Terminate	
Unknown	80.98495	01/15/0117 10:50.53	00004859	17.227	Inter613t1-0	0.512	1	2	0.000	11.111	0.9	0.002	0.000	D	F	1175.1	0.000	0.186	-0.010	1504.105	1093.170	0.029	-	0.066	-0.553	-	-	-	-	-	-	-	PAVEMENT_GENERAL	Urban	F	1011101000011101	0000000000010000	-	-	-	-	-	-	-	-	-	-	Terminate	
Unknown	81.98497	01/15/0117 10:50.54	00004919	16.745	Inter613t1-0	0.541	1	2	0.000	11.111	-0.3	0.069	0.000	D	F	1342.6	0.187	0.192	0.002	1504.135	1110.138	0.028	-	0.003	-0.288	-	-	-	-	-	-	-	PAVEMENT_GENERAL	Urban	F	1011101000011101	0000000000010000	-	-	-	-	-	-	-	-	-	-	Terminate	
Unknown	82.98499	01/15/0117 10:50.55	00004979	16.731	Inter613t1-0	0.581	1	2	0.000	11.111	-0.7	0.138	0.000	D	F	1570.4	0.070	0.193	0.005	1504.174	1126.851	0.026	-	-0.039	0.053	-	-	-	-	-	-	-	PAVEMENT_GENERAL	Urban	F	1011101000011101	0000000000010000	-	-	-	-	-	-	-	-	-	-	Terminate	
Unknown	83.98502	01/15/0117 10:50.56	00005039	16.812	Inter613t1-0	0.584	1	2	0.000	11.111	-0.5	0.178	0.000	D	F	1682.2	359.933	0.196	0.005	1504.177	1143.613	0.026	-	-0.036	0.201	-	-	-	-	-	-	-	PAVEMENT_GENERAL	Urban	F	1011101000011101	0000000000010000	-	-	-	-	-	-	-	-	-	-	Terminate	
Unknown	84.98503	01/15/0117 10:50.57	00005099	16.980	Inter613t1-0	0.551	1	2	0.000	11.111	-0.4	0.136	0.000	D	F	1563.3	359.835	0.187	0.003	1504.144	1160.525	0.026	-	-0.026	-0.005	-	-	-	-	-	-	-	PAVEMENT_GENERAL	Urban	F	1011101000011101	0000000000010000	-	-	-	-	-	-	-	-	-	-	Terminate	
Unknown	85.98505	01/15/0117 10:50.58	00005159	17.069	Inter613t1-0	0.494	1	2	0.000	11.111	-0.2	0.157	0.000	D	F	1633.0	359.781	0.193	0.002	1504.088	1177.543	0.026	-	-0.013	0.118	-	-	-	-	-	-	-	PAVEMENT_GENERAL	Urban	F	1011101000011101	0000000000010000	-	-	-	-	-	-	-	-	-	-	Terminate	
Unknown	86.98507	01/15/0117 10:50.59	00005219	17.194	Inter613t1-0	0.422	1	2	0.000	11.111	-0.3	0.159	0.000	D	F	1636.3	359.728	0.193	0.002	1504.015	1194.675	0.026	-	-0.017	0.117	-	-	-	-	-	-	-	PAVEMENT_GENERAL	Urban	F	1011101000011101	0000000000010000	-	-	-	-	-	-	-	-	-	-	Terminate	
Unknown	87.98509	01/15/0117 10:51.00	00005279	17.305	Inter746t1-0	0.335	1	2	0.000	11.111	0.7	0.145	0.000	D	F	1607.2	359.701	0.192	-0.004	1503.928	1211.926	0.026	-	0.020	0.085	-	-	-	-	-	-	-	PAVEMENT_GENERAL	Urban	F	1011101000011101	0000000000010000	-	-	-	-	-	-	-	-	-	-	Terminate	
Unknown	88.98512	01/15/0117 10:51.01	00005339	17.096	Inter746t1-0	0.262	1	2	0.000	11.111	0.4	0.074	0.000	D	F	1373.4	359.822	0.190	-0.004	1503.855	1229.147	0.028	-	0.028	-0.235	-	-	-	-	-	-	-	PAVEMENT_GENERAL	Urban	F	1011101000011101	0000000000010000	-	-	-	-	-	-	-	-	-	-	Terminate	
Unknown	89.98513	01/15/0117 10:51.02	00005399	16.877	Inter746t1-0	0.217	1	2	0.000	11.111	0.2	0.086	0.000	D	F	1414.9	359.888	0.191	-0.002	1503.811	1246.128	0.027	-	0.017	-0.176	-	-	-	-	-	-	-	PAVEMENT_GENERAL	Urban	F	1011101000011101	0000000000010000	-	-	-	-	-	-	-	-	-	-	Terminate	
Unknown	90.98515	01/15/0117 10:51.03	00005459	16.955	Inter746t1-0	0.189	1	2	0.000	11.111	0.1	0.168	0.000	D	F	1656.2	359.917	0.194	-0.001	1503.782	1263.011	0.026	-	0.005	0.173	-	-	-	-	-	-	-	PAVEMENT_GENERAL	Urban	F	1011101000011101	0000000000010000	-	-	-	-	-	-	-	-	-	-	Terminate	
Unknown	91.98518	01/15/0117 10:51.04	00005519	17.123	Inter746t1-0	0.166	1	2	0.000	11.111	-0.1	0.168	0.000	D	F	1660.7	359.927	0.194	0.001	1503.759	1280.051	0.026	-	-0.004	0.165	-	-	-	-	-	-	-	PAVEMENT_GENERAL	Urban	F	1011101000011101	0000000000010000	-	-	-	-	-	-	-	-	-	-	Terminate	
Unknown	92.98519	01/15/0117 10:51.05	00005579	17.287	Inter746t1-0	0.140	1	2	0.000	11.111	-0.2	0.169	0.000	D	F	1670.7	359.893	0.193	0.001	1503.733	1297.256	0.026	-	-0.011	0.164	-	-	-	-	-	-	-	PAVEMENT_GENERAL	Urban	F	1011101000011101	0000000000010000	-	-	-	-	-	-	-	-	-	-	Terminate	
Unknown	93.98521	01/15/0117 10:51.06	00005639	17.452	Inter746t1-0	0.102	1	2	0.000	11.111	-0.1	0.169	0.000	D	F	1677.2	359.840	0.193	0.002	1503.695	1314.626	0.026	-	-0.015	0.164	-	-	-	-	-	-	-	PAVEMENT_GENERAL	Urban	F	1011101000011101	0000000000010000	-	-	-	-	-	-	-	-	-	-	Terminate	
Unknown	94.98523	01/15/0117 10:51.07	00005699	17.606	Inter746t1-0	0.054	1	2	0.000	11.111	0.2	0.168	0.000	D	F	1678.9	359.854	0.193	-0.001	1503.647	1332.156	0.026	-	0.010	0.149	-	-	-	-	-	-	-	PAVEMENT_GENERAL	Urban	F	1011101000011101	0000000000010000	-	-	-	-	-	-	-	-	-	-	Terminate	
Unknown	95.98525	01/15/0117 10:51.08	00005759	17.756	Inter746t1-0	0.012	1	2	0.000	11.111	0.3	0.168	0.000	D	F	1686.5	359.887	0.192	-0.002	1503.606	1349.836	0.026	-	0.014	0.147	-	-	-	-	-	-	-	PAVEMENT_GENERAL	Urban	F	1011101000011101	0000000000010000	-	-	-	-	-	-	-	-	-	-	Terminate	
Unknown	96.98528	01/15/0117 10:51.09	00005819	17.841	Inter746t1-0	-0.015	1	2	0.000	11.111	0.4	0.092	0.000	D	F	1479.7	0.000	0.187	-0.003	1503.578	1367.657	0.027	-	0.024	-0.110	-	-	-	-	-	-	-	PAVEMENT_GENERAL	Urban	F	1011101000011101	0000000000010000	-	-	-	-	-	-	-	-	-	-	Terminate	
Unknown	97.98529	01/15/0117 10:51.10	00005879	17.358	Inter746t1-0	-0.018	1	2	0.000	11.111	0.8	0.000	0.000	D	F	1183.8	0.070	0.185	-0.008	1503.576	1385.287	0.029	-	0.060	-0.564	-	-	-	-	-	-	-	PAVEMENT_GENERAL	Urban	F	1011101000011101	0000000000010000	-	-	-	-	-	-	-	-	-	-	Terminate	
Unknown	98.98531	01/15/0117 10:51.11	00005939	16.799	Inter749t9-0	0.035	1	2	0.000	11.111	1.3	0.000	0.000	D	F	1145.6	0.341	0.187	-0.013	1503.629	1402.365	0.029	-	0.097	-0.556	-	-	-	-	-	-	-	PAVEMENT_GENERAL	Urban	F	1011101000011101	0000000000010000	-	-	-	-	-	-	-	-	-	-	Terminate	
Unknown	99.98534	01/15/0117 10:51.12	00005999	16.246	Inter749t33-0	0.181	1	1	0.067	11.111	0.8	0.000	0.000	D	F	1108.0	0.751	0.187	-0.012	1503.776	1418.886	0.029	-	0.096	-0.549	-	-	-	-	-	-	-	PAVEMENT_GENERAL	Urban	F	1011101000011101	0000000000010000	-	-	-	-	-	-	-	-	-	-	Terminate	
Unknown	100.98535	01/15/0117 10:51.13	00006059	15.689	Inter749t33-0	0.360	1	1	0.109	11.111	-3.1	0.000	0.045	D	F	1064.4	0.451	0.185	0.026	1503.974	1434.858	0.029	-	-0.190	-0.813	-	-	-	-	-	-	-	PAVEMENT_GENERAL	Urban	F	1011101000011101	0000000000010000	-	-	-	-	-	-	-	-	-	-	Terminate	
Unknown	101.98537	01/15/0117 10:51.14	00006119	13.175	Inter749t33-0	0.373	1	1	0.064	11.111	-2.3	0.000	0.278	D	F	905.9	359.805	0.130	0.018	1504.016	1449.667	0.037	-	-0.139	-3.939	-	-	-	-	-	-	-	PAVEMENT_GENERAL	Urban	F	1011101000011101	0000000000010000	-	-	-	-	-	-	-	-	-	-	Terminate	
Unknown	102.98539	01/15/0117 10:51.15	00006179	9.501	Inter749t33-0	0.286	1	1	0.061	11.111	-2.3	0.000	0.230	D	F	900.8	359.408	0.146	0.009	1503.942	1460.910	0.035	-	-0.069	-3.361	-	-	-	-	-	-	-	PAVEMENT_GENERAL	Urban	F	1011101000011101	0000000000010000	-	-	-	-	-	-	-	-	-	-	Terminate	
Unknown	103.98541	01/15/0117 10:51.16	00006239	5.733	Inter749t11-1	0.122	2	2	0.000	11.111	-32.4	0.000	0.278	D	F	543.1	357.840	0.145	0.041	1503.784	1468.562	0.037	-	-0.394	-3.828	-	-	-	-	-	-	-	PAVEMENT_GENERAL	Urban	F	1011101000011101	0000000000010000	-	-	-	-	-	-	-	-	-	-	Terminate	
Unknown	104.98544	01/15/0117 10:51.17	00006299	2.903	Inter749t11-1	-0.290	2	2	0.000	11.111	-90.6	0.000	0.000	D	F	477.5	352.779	0.224	0.032	1503.373	1472.554	0.031	-	-0.268	-0.415	-	-	-	-	-	-	-	PAVEMENT_GENERAL	Urban	F	1011101000011101	0000000000010000	-	-	-	-	-	-	-	-	-	-	Terminate	
Unknown	105.98545	01/15/0117 10:51.18	00006359	2.533	Inter749t11-1	-0.886	2	2	0.000	11.111	-91.5	0.000	0.000	D	F	477.5	347.591	0.200	0.025	1502.776	1475.204	0.028	-	-0.194	-0.360	-	-	-	-	-	-	-	PAVEMENT_GENERAL	Urban	F	1011101000011101	0000000000010000	-	-	-	-	-	-	-	-	-	-	Terminate	
Unknown	106.98547	01/15/0117 10:51.19	00006419	2.097	Inter749t11-1	-1.536	2	2	0.000	11.111	-6.5	0.000	0.000	D	F	558.0	344.661	0.199	-0.015	1502.126	1477.447	0.028	-	0.098	-0.497	-	-	-	-	-	-	-	PAVEMENT_GENERAL	Urban	F	1011101000011101	0000000000010000	-	-	-	-	-	-	-	-	-	-	Terminate	
Unknown	107.98550	01/15/0117 10:51.20	00006479	1.510	Inter749t11-0	1.614	LT1	2	0.000	11.111	70.6	0.000	0.131	D	F	477.5	345.851	0.150	-0.005	1501.676	1479.251	0.029	-	0.041	-1.678	-	-	-	-	-	-	-	PAVEMENT_GENERAL	Urban	F	1011101000011101	0000000000010000	-	-	-	-	-	-	-	-	-	-	Terminate	
Unknown	108.98551	01/15/0117 10:51.21	00006539	-0.001	Inter749t11-0	1.529	LT1	2	0.000	11.111	87.1	0.000	0.361	D	F	477.5	346.543	0.240	-0.003	1501.592	1479.673	0.031	-	-0.002	-0.000	-	-	-	-	-	-	-	PAVEMENT_GENERAL	Urban	F	1011101000011101	0000000000010000	-	-	-	-	-	-	-	-	-	-	Terminate	
Unknown	109.98553	01/15/0117 10:51.22	00006599	-0.000	Inter749t11-0	1.529	LT1	2	0.000	11.111	83.6	0.000	0.233	D	F	477.5	346.545	0.218	-0.002	1501.592	1479.672	0.029	-	0.000	0.000	-	-	-	-	-	-	-	PAVEMENT_GENERAL	Urban	F	1011101000011101	0000000000010000	-	-	-	-	-	-	-	-	-	-	Terminate	
Unknown	110.98555	01/15/0117 10:51.23	00006659	-0.000	Inter749t11-0	1.529	LT1	2	0.000	11.111	83.7	0.000	0.063	D	F	477.5	346.545	0.211	-0.001	1501.592	1479.672	0.028	-	0.000	0.000	-	-	-	-	-	-	-	PAVEMENT_GENERAL	Urban	F	1011101000011101	0000000000010000	-	-	-	-	-	-	-	-	-	-	Terminate	
Unknown	111.98557	01/15/0117 10:51.24	00006719	0.161	Inter749t11-0	1.528	LT1	2	0.000	11.111	49.6	0.257	0.000	D	F	1536.8	346.637	0.204	-0.054	1501.591	1479.687	0.018	-	0.305	0.713	-	-	-	-	-	-	-	PAVEMENT_GENERAL	Urban	T	1011101000011101	0000000000010000	-	-	-	-	-	-	-	-	-	-	Terminate	
Unknown	112.98560	01/15/0117 10:51.25	00006779	4.251	Inter749t65-0	1.044	1	1	358.434	11.111	-43.7	0.310	0.000	D	F	1890.2	346.761	0.219	0.066	1501.105	1481.836	0.008	-	-0.448	3.532	-	-	-	-	-	-	-	PAVEMENT_GENERAL	Urban	F	1011101000011101	0000000000010000	-	-	-	-	-	-	-	-	-	-	Terminate	
Unknown	113.98561	01/15/0117 10:51.26	00006839	7.311	Inter749t65-0	0.114	1	1	341.923	11.111	-81.3	0.328	0.000	D	F	2420.1	339.178	0.226	0.190	1499.260	1487.386	0.013	-	-1.407	2.660	-	-	-	-	-	-	-	PAVEMENT_GENERAL	Urban	F	1011101000011101	0000000000010000	-	-	-	-	-	-	-	-	-	-	Terminate	
Unknown	114.98563	01/15/0117 10:51.27	00006899	8.715	Inter749t65-0	-0.229	1	1	323.972	11.111	-101.4	0.000	0.000	D	F	1068.5	325.976	0.163	0.335	1495.251	1494.693	0.027	-	-2.523	-0.545	-	-	-	-	-	-	-	PAVEMENT_GENERAL	Urban	F	1011101000011101	0000000000010000	-	-	-	-	-	-	-	-	-	-	Terminate	
Unknown	115.98566	01/15/0117 10:51.28	00006959	8.146	Inter749t65-0	-0.329	1	1	303.175	11.111	-139.8	0.000	0.000	D	F	806.1	306.278	0.161	0.409	1489.270	1500.580	0.030	-	-3.126	-0.687	-	-	-	-	-	-	-	PAVEMENT_GENERAL	Urban	F	1011101000011101	0000000000010000	-	-	-	-	-	-	-	-	-	-	Terminate	
Unknown	116.98567	01/15/0117 10:51.29	00007019	7.575	Inter749t65-0	0.073	1	1	271.787	11.111	-144.4	0.004	0.000	D	F	747.7	284.160	0.161	0.366	1482.060	1503.589	0.030	-	-2.829	-0.659	-	-	-	-	-	-	-	PAVEMENT_GENERAL	Urban	F	1011101000011101	0000000000010000	-	-	-	-	-	-	-	-	-	-	Terminate	
Unknown	117.98569	01/15/0117 10:51.30	00007079	7.499	Inter749t3-3	0.582	1	2	270.000	11.111	-2.5	0.146	0.000	D	F	1428.2	271.203	0.208	-0.036	1474.656	1504.112	0.024	-	0.051	0.589	-	-	-	-	-	-	-	PAVEMENT_GENERAL	Urban	F	1011101000011101	0000000000010000	-	-	-	-	-	-	-	-	-	-	Terminate	
Unknown	118.98571	01/15/0117 10:51.31	00007139	8.804	Inter749t19-0	0.799	1	1	270.063	11.111	-1.9	0.268	0.000	D	F	1911.2	271.906	0.215	0.002	1466.581	1504.330	0.019	-	-0.032	1.517	-	-	-	-	-	-	-	PAVEMENT_GENERAL	Urban	F	1111101000011101	0000000000010000	-	-	-	-	-	-	-	-	-	-	Terminate	
Unknown	119.98573	01/15/0117 10:51.32	00007199	10.333	Inter749t19-0	0.993	1	1	270.093	11.111	-5.0	0.314	0.000	D	F	2090.1	270.500	0.215	0.030	1457.014	1504.534	0.019	-	-0.200	1.522	-	-	-	-	-	-	-	PAVEMENT_GENERAL	Urban	F	1011101000011101	0000000000010000	-	-	-	-	-	-	-	-	-	-	Terminate	
Unknown	120.98576	01/15/0117 10:51.33	00007259	11.813	Inter749t19-0	1.060	1	1	270.099	11.111	0.5	0.337	0.000	D	F	2239.6	270.593	0.213	-0.004	1445.936	1504.618	0.020	-	0.048	1.448	-	-	-	-	-	-	-	PAVEMENT_GENERAL	Urban	F	1011101000011101	0000000000010000	-	-	-	-	-	-	-	-	-	-	Terminate	
Unknown	121.98577	01/15/0117 10:51.34	00007319	13.214	Inter749t19-0	1.081	1	1	270.061	11.111	-6.9	0.347	0.000	D	F	2395.4	269.521	0.210	0.042	1433.415	1504.663	0.020	-	-0.332	1.369	-	-	-	-	-	-	-	PAVEMENT_GENERAL	Urban	F	1011101000011101	0000000000010000	-	-	-	-	-	-	-	-	-	-	Terminate	
Unknown	122.98579	01/15/0117 10:51.35	00007379	14.568	Inter749t19-0	0.917	1	1	270.061	11.111	4.1	0.356	0.000	D	F	2564.5	269.710	0.208	-0.036	1419.523	1504.514	0.020	-	0.242	1.337	-	-	-	-	-	-	-	PAVEMENT_GENERAL	Urban	F	1011101000011101	0000000000010000	-	-	-	-	-	-	-	-	-	-	Terminate	
Unknown	123.98581	01/15/0117 10:51.36	00007439	15.893	Inter749t1-2	0.914	1	2	270.000	11.111	-1.5	0.363	0.000	D	F	2750.1	270.162	0.207	0.003	1404.290	1504.514	0.020	-	-0.021	1.315	-	-	-	-	-	-	-	PAVEMENT_GENERAL	Urban	F	1011101000011101	0000000000010000	-	-	-	-	-	-	-	-	-	-	Terminate	
Unknown	124.98583	01/15/0117 10:51.37	00007499	17.192	Inter747t1-2	0.893	1	2	270.000	11.111	-0.2	0.370	0.000	D	F	2939.1	269.708	0.204	0.014	1387.744	1504.500	0.021	-	-0.084	1.279	-	-	-	-	-	-	-	PAVEMENT_GENERAL	Urban	F	1011101000011101	0000000000010000	-	-	-	-	-	-	-	-	-	-	Terminate	
Unknown	125.98586	01/15/0117 10:51.38	00007559	18.357	Inter747t1-2	0.819	1	2	270.000	11.111	3.0	0.247	0.000	D	F	2433.4	269.905	0.187	-0.023	1369.933	1504.426	0.022	-	0.158	0.733	-	-	-	-	-	-	-	PAVEMENT_GENERAL	Urban	F	1011101000011101	0000000000010000	-	-	-	-	-	-	-	-	-	-	Terminate	
Unknown	126.98587	01/15/0117 10:51.39	00007619	18.873	Inter747t1-2	0.863	1	2	270.000	11.111	0.2	0.173	0.000	D	F	2108.3	270.347	0.194	-0.004	1351.304	1504.469	0.024	-	0.047	0.433	-	-	-	-	-	-	-	PAVEMENT_GENERAL	Urban	F	1011101000011101	0000000000010000	-	-	-	-	-	-	-	-	-	-	Terminate	
Unknown	127.98589	01/15/0117 10:51.40	00007679	18.415	Inter747t1-2	0.981	1	2	270.000	11.111	-2.4	0.023	0.000	D	F	1272.2	270.336	0.187	0.016	1332.621	1504.587	0.029	-	-0.103	-0.483	-	-	-	-	-	-	-	PAVEMENT_GENERAL	Urban	F	1011101000011101	0000000000010000	-	-	-	-	-	-	-	-	-	-	Terminate	
Unknown	128.98592	01/15/0117 10:51.41	00007739	18.313	Inter747t1-2	1.035	1	2	270.000	11.111	-2.2	0.190	0.000	D	F	1755.7	270.004	0.193	0.015	1314.326	1504.642	0.026	-	-0.108	0.215	-	-	-	-	-	-	-	PAVEMENT_GENERAL	Urban	F	1011101000011101	0000000000010000	-	-	-	-	-	-	-	-	-	-	Terminate	
Unknown	129.98593	01/15/0117 10:51.42	00007799	18.502	Inter747t1-2	0.969	1	2	270.000	11.111	-2.0	0.192	0.000	D	F	1759.1	269.523	0.192	0.018	1295.919	1504.576	0.026	-	-0.140	0.197	-	-	-	-	-	-	-	PAVEMENT_GENERAL	Urban	F	1011101000011101	0000000000010000	-	-	-	-	-	-	-	-	-	-	Terminate	
Unknown	130.98595	01/15/0117 10:51.43	00007859	18.712	Inter747t1-2	0.792	1	2	270.000	11.111	1.3	0.194	0.000	D	F	1780.6	269.461	0.192	-0.008	1277.314	1504.398	0.026	-	0.065	0.216	-	-	-	-	-	-	-	PAVEMENT_GENERAL	Urban	F	1011101000011101	0000000000010000	-	-	-	-	-	-	-	-	-	-	Terminate	
Unknown	131.98598	01/15/0117 10:51.44	00007919	18.934	Inter747t1-2	0.662	1	2	270.000	11.111	2.6	0.203	0.000	D	F	1802.8	269.865	0.192	-0.024	1258.493	1504.269	0.026	-	0.173	0.233	-	-	-	-	-	-	-	PAVEMENT_GENERAL	Urban	F	1011101000011101	0000000000010000	-	-	-	-	-	-	-	-	-	-	Terminate	
Unknown	132.98599	01/15/0117 10:51.45	00007979	19.161	Inter747t1-2	0.669	1	2	270.000	11.111	-1.5	0.201	0.000	D	F	1810.7	270.124	0.191	0.010	1239.446	1504.276	0.026	-	-0.037	0.226	-	-	-	-	-	-	-	PAVEMENT_GENERAL	Urban	F	1011101000011101	0000000000010000	-	-	-	-	-	-	-	-	-	-	Terminate	
Unknown	133.98601	01/15/0117 10:51.46	00008039	19.381	Inter747t1-2	0.675	1	2	270.000	11.111	0.6	0.205	0.000	D	F	1819.6	269.957	0.191	-0.001	1220.174	1504.282	0.026	-	0.006	0.216	-	-	-	-	-	-	-	PAVEMENT_GENERAL	Urban	F	1011101000011101	0000000000010000	-	-	-	-	-	-	-	-	-	-	Terminate	
Unknown	134.98604	01/15/0117 10:51.47	00008099	19.595	Inter747t1-2	0.704	1	2	270.000	11.111	0.8	0.203	0.000	D	F	1833.0	270.243	0.190	-0.010	1200.685	1504.311	0.026	-	0.072	0.214	-	-	-	-	-	-	-	PAVEMENT_GENERAL	Urban	F	1011101000011101	0000000000010000	-	-	-	-	-	-	-	-	-	-	Terminate	
Unknown	135.98605	01/15/0117 10:51.48	00008159	19.809	Inter748t1-2	0.779	1	2	270.000	11.111	-0.9	0.203	0.000	D	F	1837.5	270.131	0.190	0.008	1180.983	1504.386	0.026	-	-0.064	0.208	-	-	-	-	-	-	-	PAVEMENT_GENERAL	Urban	F	1111101000011101	0000000000010000	-	-	-	-	-	-	-	-	-	-	Terminate	
Unknown	136.98607	01/15/0117 10:51.49	00008219	20.016	Inter748t1-2	0.800	1	2	270.000	11.111	-0.5	0.203	0.000	D	F	1850.5	269.958	0.190	0.006	1161.071	1504.407	0.026	-	-0.048	0.212	-	-	-	-	-	-	-	PAVEMENT_GENERAL	Urban	F	1011101000011101	0000000000010000	-	-	-	-	-	-	-	-	-	-	Terminate	
Unknown	137.98610	01/15/0117 10:51.50	00008279	20.226	Inter748t1-2	0.784	1	2	270.000	11.111	-0.0	0.210	0.000	D	F	1862.1	269.961	0.189	-0.001	1140.950	1504.391	0.026	-	0.008	0.211	-	-	-	-	-	-	-	PAVEMENT_GENERAL	Urban	F	1011101000011101	0000000000010000	-	-	-	-	-	-	-	-	-	-	Terminate	
Unknown	138.98611	01/15/0117 10:51.51	00008339	20.437	Inter748t1-2	0.763	1	2	270.000	11.111	-0.8	0.210	0.000	D	F	1874.0	269.876	0.189	0.007	1120.619	1504.370	0.026	-	-0.054	0.210	-	-	-	-	-	-	-	PAVEMENT_GENERAL	Urban	F	1011101000011101	0000000000010000	-	-	-	-	-	-	-	-	-	-	Terminate	
Unknown	139.98613	01/15/0117 10:51.52	00008399	20.643	Inter748t1-2	0.696	1	2	270.000	11.111	-0.8	0.201	0.000	D	F	1866.8	269.717	0.188	0.007	1100.078	1504.303	0.026	-	-0.056	0.194	-	-	-	-	-	-	-	PAVEMENT_GENERAL	Urban	F	1011101000011101	0000000000010000	-	-	-	-	-	-	-	-	-	-	Terminate	
Unknown	140.98616	01/15/0117 10:51.53	00008459	20.261	Inter748t1-2	0.573	1	2	270.000	11.111	-0.2	0.000	0.000	D	F	1381.6	269.551	0.179	0.007	1079.555	1504.180	0.029	-	-0.052	-0.608	-	-	-	-	-	-	-	PAVEMENT_GENERAL	Urban	F	1011101000011101	0000000000010000	-	-	-	-	-	-	-	-	-	-	Terminate	
Unknown	141.98618	01/15/0117 10:51.54	00008519	19.658	Inter748t1-2	0.433	1	2	270.000	11.111	1.4	0.000	0.000	D	F	1339.1	269.776	0.182	-0.019	1059.597	1504.040	0.029	-	0.139	-0.597	-	-	-	-	-	-	-	PAVEMENT_GENERAL	Urban	F	1011101000011101	0000000000010000	-	-	-	-	-	-	-	-	-	-	Terminate	
Unknown	142.98619	01/15/0117 10:51.55	00008579	19.065	Inter748t1-2	0.400	1	2	270.000	11.111	0.9	0.000	0.000	D	F	1300.1	270.078	0.183	-0.012	1040.236	1504.006	0.029	-	0.090	-0.589	-	-	-	-	-	-	-	PAVEMENT_GENERAL	Urban	F	1011101000011101	0000000000010000	-	-	-	-	-	-	-	-	-	-	Terminate	
Unknown	143.98621	01/15/0117 10:51.56	00008639	18.500	Inter748t1-2	0.457	1	2	270.000	11.111	0.5	0.011	0.000	D	F	1262.6	270.308	0.184	-0.007	1021.461	1504.064	0.029	-	0.056	-0.524	-	-	-	-	-	-	-	PAVEMENT_GENERAL	Urban	F	1111101000011101	0000000000010000	-	-	-	-	-	-	-	-	-	-	Terminate	
Unknown	144.98624	01/15/0117 10:51.57	00008699	18.271	Inter748t1-2	0.565	1	2	270.000	11.111	-0.7	0.205	0.000	D	F	1791.9	270.350	0.195	0.004	1003.156	1504.172	0.026	-	-0.023	0.259	-	-	-	-	-	-	-	PAVEMENT_GENERAL	Urban	F	1011101000011101	0000000000010000	-	-	-	-	-	-	-	-	-	-	Terminate	
Unknown	145.98625	01/15/0117 10:51.58	00008759	18.530	Inter752t1-2	-0.039	1	2	269.842	24.444	-2.5	0.201	0.000	D	F	1784.0	269.985	0.094	-0.314	984.757	1504.247	0.044	-	-0.204	0.245	-	-	-	-	-	-	-	FREEWAY_SMOOTH	Urban	F	1011101000011101	0000000000010000	-	-	-	-	-	-	-	-	-	-	Terminate	
Unknown	146.98627	01/15/0117 10:51.59	00008819	18.819	Inter752t1-2	0.016	1	2	269.082	24.444	-2.9	0.205	0.000	D	F	1809.9	269.282	0.303	-0.771	966.080	1504.138	0.083	-	-0.267	0.299	-	-	-	-	-	-	-	FREEWAY_SMOOTH	Urban	F	1011101000011101	0000000000010000	-	-	-	-	-	-	-	-	-	-	Terminate	
Unknown	147.98630	01/15/0117 10:52.00	00008879	19.105	Inter752t1-2	0.165	1	2	267.674	24.444	-4.5	0.196	0.000	D	F	1794.5	268.369	0.318	-1.226	947.119	1503.755	0.121	-	-0.378	0.261	-	-	-	-	-	-	-	FREEWAY_SMOOTH	Urban	F	1011101000011101	0000000000010000	-	-	-	-	-	-	-	-	-	-	Terminate	
Unknown	148.98631	01/15/0117 10:52.01	00008939	18.862	Inter752t1-2	0.446	1	2	265.612	24.444	-10.8	0.000	0.000	D	F	1286.1	266.162	0.319	-1.619	928.068	1502.918	0.169	-	-1.002	-0.542	-	-	-	-	-	-	-	FREEWAY_SMOOTH	Urban	F	1011101000011101	0000000000010000	-	-	-	-	-	-	-	-	-	-	Terminate	
Unknown	149.98633	01/15/0117 10:52.02	00008999	18.337	Inter752t1-2	0.506	1	2	262.981	24.444	-14.9	0.019	0.000	D	F	1252.9	262.229	0.278	-2.027	909.565	1501.121	0.209	-	-1.406	-0.434	-	-	-	-	-	-	-	FREEWAY_SMOOTH	Urban	F	1011101000011101	0000000000010000	-	-	-	-	-	-	-	-	-	-	Terminate	
Unknown	150.98636	01/15/0117 10:52.03	00009059	17.923	Inter752t1-2	0.221	1	2	259.843	24.444	-7.0	0.025	0.000	D	F	1259.6	258.868	0.264	-2.566	891.692	1498.119	0.233	-	-0.801	-0.395	-	-	-	-	-	-	-	FREEWAY_SMOOTH	Urban	F	1011101000011101	0000000000010000	-	-	-	-	-	-	-	-	-	-	Terminate	
Unknown	151.98637	01/15/0117 10:52.04	00009119	17.673	Inter752t1-2	0.080	1	2	256.204	24.444	-10.8	0.123	0.000	D	F	1557.8	256.020	0.300	-2.972	874.353	1494.275	0.258	-	-0.975	-0.009	-	-	-	-	-	-	-	FREEWAY_SMOOTH	Urban	F	1011101000011101	0000000000010000	-	-	-	-	-	-	-	-	-	-	Terminate	
Unknown	152.98639	01/15/0117 10:52.05	00009179	17.745	Inter752t1-2	0.171	1	2	252.089	24.444	-15.6	0.150	0.000	D	F	1632.3	252.544	0.317	-3.361	857.311	1489.493	0.295	-	-1.234	0.089	-	-	-	-	-	-	-	FREEWAY_SMOOTH	Urban	F	1011101000011101	0000000000010000	-	-	-	-	-	-	-	-	-	-	Terminate	
Unknown	153.98642	01/15/0117 10:52.06	00009239	17.802	Inter752t1-2	0.307	1	2	247.604	24.444	-20.2	0.157	0.000	D	F	1646.7	247.370	0.178	-3.282	840.600	1483.449	0.304	-	-1.725	0.069	-	-	-	-	-	-	-	FREEWAY_SMOOTH	Urban	F	1011101000011101	0000000000010000	-	-	-	-	-	-	-	-	-	-	Terminate	
Unknown	154.98643	01/15/0117 10:52.07	00009299	17.890	Inter752t1-2	0.186	1	2	243.145	24.444	-11.9	0.159	0.000	D	F	1665.1	242.535	0.162	-3.363	824.453	1475.866	0.297	-	-1.178	0.104	-	-	-	-	-	-	-	FREEWAY_SMOOTH	Urban	F	1011101000011101	0000000000010000	-	-	-	-	-	-	-	-	-	-	Terminate	
Unknown	155.98645	01/15/0117 10:52.08	00009359	17.976	Inter752t1-2	0.183	1	2	238.669	24.444	-15.2	0.153	0.000	D	F	1651.8	238.913	0.211	-3.345	808.804	1467.105	0.296	-	-1.252	0.074	-	-	-	-	-	-	-	FREEWAY_SMOOTH	Urban	F	1011101000011101	0000000000010000	-	-	-	-	-	-	-	-	-	-	Terminate	
Unknown	156.98647	01/15/0117 10:52.09	00009419	18.053	Inter752t1-2	0.314	1	2	234.172	24.444	-17.6	0.164	0.000	D	F	1674.0	234.278	0.197	-3.308	793.754	1457.216	0.304	-	-1.532	0.096	-	-	-	-	-	-	-	FREEWAY_SMOOTH	Urban	F	1011101000011101	0000000000010000	-	-	-	-	-	-	-	-	-	-	Terminate	
Unknown	157.98650	01/15/0117 10:52.10	00009479	18.116	Inter752t1-2	0.337	1	2	229.659	24.444	-18.1	0.157	0.000	D	F	1663.0	229.241	0.167	-3.301	779.534	1446.046	0.306	-	-1.592	0.073	-	-	-	-	-	-	-	FREEWAY_SMOOTH	Urban	F	1011101000011101	0000000000010000	-	-	-	-	-	-	-	-	-	-	Terminate	
Unknown	158.98651	01/15/0117 10:52.11	00009539	18.189	Inter752t1-2	0.225	1	2	225.128	24.444	-15.7	0.157	0.000	D	F	1666.6	224.556	0.163	-3.330	766.283	1433.645	0.299	-	-1.395	0.078	-	-	-	-	-	-	-	FREEWAY_SMOOTH	Urban	F	1011101000011101	0000000000010000	-	-	-	-	-	-	-	-	-	-	Terminate	
Unknown	159.98653	01/15/0117 10:52.12	00009599	18.261	Inter752t1-2	0.131	1	2	220.584	24.444	-15.4	0.157	0.000	D	F	1669.2	220.210	0.172	-3.334	753.991	1420.191	0.294	-	-1.373	0.072	-	-	-	-	-	-	-	FREEWAY_SMOOTH	Urban	F	1011101000011101	0000000000010000	-	-	-	-	-	-	-	-	-	-	Terminate	
Unknown	160.98656	01/15/0117 10:52.13	00009659	18.328	Inter752t1-2	0.105	1	2	216.034	24.444	-15.7	0.160	0.000	D	F	1672.7	215.846	0.183	-3.329	742.710	1405.790	0.292	-	-1.396	0.074	-	-	-	-	-	-	-	FREEWAY_SMOOTH	Urban	F	1111101000011101	0000000000010000	-	-	-	-	-	-	-	-	-	-	Terminate	
Unknown	161.98657	01/15/0117 10:52.14	00009719	18.398	Inter752t1-2	0.128	1	2	211.423	24.444	-17.1	0.164	0.000	D	F	1686.4	211.257	0.186	-3.311	732.538	1390.506	0.293	-	-1.518	0.085	-	-	-	-	-	-	-	FREEWAY_SMOOTH	Urban	F	1011101000011101	0000000000010000	-	-	-	-	-	-	-	-	-	-	Terminate	
Unknown	162.98659	01/15/0117 10:52.15	00009779	18.468	Inter752t1-2	0.120	1	2	206.825	24.444	-17.1	0.157	0.000	D	F	1679.3	206.479	0.176	-3.308	723.615	1374.377	0.293	-	-1.543	0.068	-	-	-	-	-	-	-	FREEWAY_SMOOTH	Urban	F	1011101000011101	0000000000010000	-	-	-	-	-	-	-	-	-	-	Terminate	
Unknown	163.98662	01/15/0117 10:52.16	00009839	18.528	Inter752t1-2	0.056	1	2	202.191	24.444	-17.0	0.159	0.000	D	F	1677.5	201.668	0.161	-3.313	716.043	1357.502	0.289	-	-1.548	0.062	-	-	-	-	-	-	-	FREEWAY_SMOOTH	Urban	F	1011101000011101	0000000000010000	-	-	-	-	-	-	-	-	-	-	Terminate	
Unknown	164.98663	01/15/0117 10:52.17	00009899	18.586	Inter752t1-2	-0.064	1	2	197.547	24.444	-17.0	0.160	0.000	D	F	1685.6	196.879	0.133	-3.288	709.891	1339.998	0.281	-	-1.530	0.066	-	-	-	-	-	-	-	FREEWAY_SMOOTH	Urban	F	1011101000011101	0000000000010000	-	-	-	-	-	-	-	-	-	-	Terminate	
Unknown	165.98665	01/15/0117 10:52.18	00009959	18.602	Inter752t1-2	-0.258	1	2	193.244	24.444	-16.2	0.162	0.000	D	F	1692.8	192.160	0.032	-2.816	705.199	1322.010	0.238	-	-1.484	0.030	-	-	-	-	-	-	-	FREEWAY_SMOOTH	Urban	F	1011101000011101	0000000000010000	-	-	-	-	-	-	-	-	-	-	Terminate	
Unknown	166.98668	01/15/0117 10:52.19	00010019	18.631	Inter752t1-2	-0.505	1	2	189.511	24.444	-8.0	0.164	0.000	D	F	1694.2	189.058	0.081	-2.456	701.819	1303.704	0.195	-	-0.753	0.031	-	-	-	-	-	-	-	FREEWAY_SMOOTH	Urban	F	1011101000011101	0000000000010000	-	-	-	-	-	-	-	-	-	-	Terminate	
Unknown	167.98669	01/15/0117 10:52.20	00010079	18.658	Inter752t1-2	-0.468	1	2	186.387	24.444	-9.0	0.162	0.000	D	F	1695.7	186.776	0.112	-1.992	699.248	1285.238	0.166	-	-0.766	0.027	-	-	-	-	-	-	-	FREEWAY_SMOOTH	Urban	F	1011101000011101	0000000000010000	-	-	-	-	-	-	-	-	-	-	Terminate	
Unknown	168.98671	01/15/0117 10:52.21	00010139	18.682	Inter752t1-2	-0.284	1	2	183.895	24.444	-9.8	0.162	0.000	D	F	1699.8	184.257	0.105	-1.521	697.433	1266.658	0.140	-	-0.825	0.035	-	-	-	-	-	-	-	FREEWAY_SMOOTH	Urban	F	1011101000011101	0000000000010000	-	-	-	-	-	-	-	-	-	-	Terminate	
Unknown	169.98674	01/15/0117 10:52.22	00010199	18.710	Inter752t1-2	-0.180	1	2	181.987	24.444	-7.3	0.164	0.000	D	F	1699.5	181.993	0.092	-1.079	696.406	1247.991	0.110	-	-0.635	0.032	-	-	-	-	-	-	-	FREEWAY_SMOOTH	Urban	F	1011101000011101	0000000000010000	-	-	-	-	-	-	-	-	-	-	Terminate	
Unknown	170.98676	01/15/0117 10:52.23	00010259	18.743	Inter752t1-2	-0.201	1	2	180.720	24.444	-5.8	0.166	0.000	D	F	1705.0	180.355	0.086	-0.634	696.013	1229.270	0.077	-	-0.465	0.038	-	-	-	-	-	-	-	FREEWAY_SMOOTH	Urban	F	1011101000011101	0000000000010000	-	-	-	-	-	-	-	-	-	-	Terminate	
Unknown	171.98677	01/15/0117 10:52.24	00010319	18.778	Inter752t1-2	-0.325	1	2	180.078	24.444	2.0	0.166	0.000	D	F	1706.6	179.784	0.087	-0.231	696.028	1210.509	0.044	-	0.048	0.034	-	-	-	-	-	-	-	FREEWAY_SMOOTH	Urban	F	1011101000011101	0000000000010000	-	-	-	-	-	-	-	-	-	-	Terminate	
Unknown	172.98679	01/15/0117 10:52.25	00010379	18.811	Inter754t3-2	0.359	1	2	180.000	11.111	1.7	0.099	0.000	D	F	1532.1	180.255	0.187	-0.016	696.035	1191.710	0.026	-	0.135	-0.088	-	-	-	Ambient391	10.985	206.640	24.472	PAVEMENT_GENERAL	Urban	F	1011101000011101	0000000000010000	-	-	-	-	-	-	-	-	-	-	Terminate	
Unknown	173.98682	01/15/0117 10:52.26	00010439	18.307	Inter754t3-2	0.477	1	2	180.000	11.111	-0.4	0.000	0.000	D	F	1248.4	180.445	0.184	0.002	695.916	1173.121	0.029	-	-0.005	-0.578	-	-	-	Ambient391	10.839	198.419	24.991	PAVEMENT_GENERAL	Urban	F	1011101000011101	0000000000010000	-	-	-	-	-	-	-	-	-	-	Terminate	
Unknown	174.98683	01/15/0117 10:52.27	00010499	17.734	Inter754t3-2	0.601	1	2	180.000	11.111	-2.8	0.000	0.000	D	F	1209.0	180.245	0.185	0.023	695.792	1155.102	0.029	-	-0.166	-0.569	-	-	-	Ambient391	10.757	190.767	25.897	PAVEMENT_GENERAL	Urban	F	1011101000011101	0000000000010000	-	-	-	-	-	-	-	-	-	-	Terminate	
Unknown	175.98685	01/15/0117 10:52.28	00010559	17.171	Inter754t3-2	0.578	1	2	180.000	11.111	2.8	0.004	0.000	D	F	1171.5	179.698	0.186	-0.011	695.816	1137.651	0.029	-	0.070	-0.553	-	-	-	Ambient416	2.105	36.147	5.627	PAVEMENT_GENERAL	Urban	F	1011101000011101	0000000000010000	-	-	-	-	-	-	-	-	-	-	Terminate	
Unknown	176.98688	01/15/0117 10:52.29	00010619	16.649	Inter754t3-2	0.576	1	2	180.000	11.111	-0.4	0.005	0.000	D	F	1135.2	180.288	0.186	-0.005	695.817	1120.741	0.029	-	0.060	-0.535	-	-	-	Ambient416	1.801	29.986	5.080	PAVEMENT_GENERAL	Urban	F	1011101000011101	0000000000010000	-	-	-	-	-	-	-	-	-	-	Terminate	
Unknown	177.98689	01/15/0117 10:52.30	00010679	16.100	Inter754t3-2	0.609	1	2	180.000	11.111	-3.2	0.000	0.000	D	F	1097.9	179.779	0.187	0.032	695.784	1104.367	0.029	-	-0.225	-0.547	-	-	-	Ambient416	1.513	24.361	4.551	PAVEMENT_GENERAL	Urban	F	1011101000011101	0000000000010000	-	-	-	-	-	-	-	-	-	-	Terminate	
Unknown	178.98691	01/15/0117 10:52.31	00010739	12.285	Inter754t9-0	0.496	1	1	179.993	11.111	1.2	0.000	0.445	D	F	1018.2	179.408	0.008	-0.003	695.898	1089.695	0.040	-	0.010	-5.602	-	-	-	Ambient416	1.664	20.437	13.288	PAVEMENT_GENERAL	Urban	F	1011101000011101	0000000000010000	-	-	-	-	-	-	-	-	-	-	Terminate	
Unknown	179.98694	01/15/0117 10:52.32	00010799	10.221	Inter754t9-0	0.413	1	1	179.990	11.111	1.3	0.000	0.000	D	F	1002.3	179.694	0.195	-0.005	695.982	1078.930	0.029	-	0.046	-0.502	-	-	-	Ambient416	1.765	18.043	-	PAVEMENT_GENERAL	Urban	F	1011101000011101	0000000000010000	-	-	-	-	-	-	-	-	-	-	Terminate	
Unknown	180.98695	01/15/0117 10:52.33	00010859	10.478	Inter754t9-0	0.369	1	1	179.989	11.111	-2.9	0.233	0.000	D	F	1813.5	179.662	0.216	0.010	696.028	1068.738	0.022	-	-0.084	1.014	-	-	-	Ambient416	1.775	18.600	-	PAVEMENT_GENERAL	Urban	F	1011101000011101	0000000000010000	-	-	-	-	-	-	-	-	-	-	Terminate	
Unknown	181.98697	01/15/0117 10:52.34	00010919	11.557	Inter754t9-0	0.248	1	1	179.990	11.111	0.5	0.252	0.000	D	F	2113.0	179.174	0.210	0.001	696.151	1057.726	0.021	-	-0.009	1.106	-	-	-	Ambient416	1.787	20.658	25.508	PAVEMENT_GENERAL	Urban	F	1011101000011101	0000000000010000	-	-	-	-	-	-	-	-	-	-	Terminate	
Unknown	182.98700	01/15/0117 10:52.35	00010979	12.685	Inter754t9-0	0.132	1	1	179.993	11.111	3.9	0.256	0.000	D	F	2257.6	179.823	0.207	-0.024	696.269	1045.607	0.021	-	0.179	1.096	-	-	-	Ambient416	1.523	19.315	9.966	PAVEMENT_GENERAL	Urban	F	1011101000011101	0000000000010000	-	-	-	-	-	-	-	-	-	-	Terminate	
Unknown	183.98701	01/15/0117 10:52.36	00011039	12.507	Inter754t9-0	0.108	1	1	179.996	11.111	-2.0	0.000	0.000	D	F	1247.4	179.733	0.191	0.011	696.295	1032.879	0.029	-	-0.098	-0.532	-	-	-	Ambient416	1.388	17.362	9.865	PAVEMENT_GENERAL	Urban	F	1011101000011101	0000000000010000	-	-	-	-	-	-	-	-	-	-	Terminate	
Unknown	184.98703	01/15/0117 10:52.37	00011099	11.976	Inter754t9-0	0.044	1	1	179.996	11.111	3.7	0.000	0.000	D	F	1176.9	179.876	0.193	-0.022	696.359	1020.637	0.029	-	0.155	-0.528	-	-	-	Ambient416	1.128	13.509	10.991	PAVEMENT_GENERAL	Urban	F	1011101000011101	0000000000010000	-	-	-	-	-	-	-	-	-	-	Terminate	
Unknown	185.98706	01/15/0117 10:52.38	00011159	11.453	Inter754t1-1	0.090	1	1	180.000	11.111	-0.2	0.000	0.000	D	F	1125.2	180.416	0.193	-0.003	696.314	1008.924	0.029	-	0.015	-0.520	-	-	-	Ambient416	1.301	14.905	21.134	PAVEMENT_GENERAL	Urban	F	1011101000011101	0000000000010000	-	-	-	-	-	-	-	-	-	-	Terminate	
Unknown	186.98708	01/15/0117 10:52.39	00011219	10.936	Inter686t1-0	0.124	1	1	180.000	11.111	-4.0	0.000	0.000	D	F	1074.6	179.899	0.194	0.019	696.272	997.730	0.029	-	-0.153	-0.513	-	-	-	Ambient416	1.322	14.459	76.541	PAVEMENT_GENERAL	Urban	F	1011101000011101	0000000000010000	-	-	-	-	-	-	-	-	-	-	Terminate	
Unknown	187.98709	01/15/0117 10:52.40	00011279	10.578	Inter686t1-0	0.047	1	1	180.000	11.111	4.7	0.081	0.000	D	F	1324.7	179.510	0.202	-0.018	696.349	987.008	0.027	-	0.119	-0.055	-	-	-	Ambient416	1.369	14.486	-	PAVEMENT_GENERAL	Urban	F	1011101000011101	0000000000010000	-	-	-	-	-	-	-	-	-	-	Terminate	
Unknown	188.98711	01/15/0117 10:52.41	00011339	10.899	Inter686t1-0	0.028	1	1	180.000	11.111	-0.2	0.145	0.000	D	F	1562.0	180.111	0.203	-0.001	696.368	976.300	0.024	-	0.011	0.442	-	-	-	Ambient416	1.333	14.526	95.695	PAVEMENT_GENERAL	Urban	F	1011101000011101	0000000000010000	-	-	-	-	-	-	-	-	-	-	Terminate	
Unknown	189.98714	01/15/0117 10:52.42	00011399	11.331	Inter686t1-0	0.025	1	1	180.000	11.111	-0.6	0.150	0.000	D	F	1589.8	179.849	0.203	0.003	696.371	965.184	0.024	-	-0.031	0.432	-	-	-	Ambient416	1.250	14.158	24.266	PAVEMENT_GENERAL	Urban	F	1011101000011101	0000000000010000	-	-	-	-	-	-	-	-	-	-	Terminate	
Unknown	190.98715	01/15/0117 10:52.43	00011459	11.749	Inter686t1-0	-0.012	1	1	180.000	11.111	-0.1	0.148	0.000	D	F	1606.4	179.797	0.203	0.001	696.408	953.641	0.024	-	-0.006	0.404	-	-	-	Ambient416	1.137	13.363	13.336	PAVEMENT_GENERAL	Urban	F	1011101000011101	0000000000010000	-	-	-	-	-	-	-	-	-	-	Terminate	
Unknown	191.98717	01/15/0117 10:52.44	00011519	12.145	Inter686t1-0	-0.038	1	1	180.000	11.111	2.6	0.150	0.000	D	F	1628.6	180.040	0.202	-0.013	696.434	941.692	0.025	-	0.099	0.387	-	-	-	Ambient416	1.002	12.163	8.703	PAVEMENT_GENERAL	Urban	F	1011101000011101	0000000000010000	-	-	-	-	-	-	-	-	-	-	Terminate	
Unknown	192.98720	01/15/0117 10:52.45	00011579	11.816	Inter686t1-0	-0.010	1	1	180.000	11.111	-3.0	0.000	0.000	D	F	1160.8	180.065	0.193	0.016	696.406	929.635	0.029	-	-0.109	-0.525	-	-	-	Ambient416	0.919	10.854	10.160	PAVEMENT_GENERAL	Urban	F	1011101000011101	0000000000010000	-	-	-	-	-	-	-	-	-	-	Terminate	
Unknown	193.98721	01/15/0117 10:52.46	00011639	10.319	Inter686t1-0	-0.053	1	1	180.000	11.111	3.0	0.000	0.119	D	F	997.5	179.683	0.170	-0.011	696.449	918.403	0.032	-	0.065	-1.977	-	-	-	Ambient416	1.005	10.370	-	PAVEMENT_GENERAL	Urban	F	1011101000011101	0000000000010000	-	-	-	-	-	-	-	-	-	-	Terminate	
Unknown	194.98723	01/15/0117 10:52.47	00011699	9.613	Inter686t1-0	-0.053	1	1	180.000	11.111	2.2	0.000	0.000	D	F	944.6	180.236	0.195	-0.008	696.450	908.526	0.029	-	0.069	-0.495	-	-	-	Ambient416	1.169	11.241	-	PAVEMENT_GENERAL	Urban	F	1011101000011101	0000000000010000	-	-	-	-	-	-	-	-	-	-	Terminate	
Unknown	195.98726	01/15/0117 10:52.48	00011759	9.507	Inter686t1-0	-0.009	1	1	180.000	11.111	-3.3	0.159	0.000	D	F	1560.8	180.127	0.204	0.013	696.405	899.088	0.023	-	-0.086	0.648	-	-	-	Ambient416	1.320	12.552	-	PAVEMENT_GENERAL	Urban	F	1011101000011101	0000000000010000	-	-	-	-	-	-	-	-	-	-	Terminate	
Unknown	196.98727	01/15/0117 10:52.49	00011819	10.202	Inter686t1-0	-0.030	1	1	180.000	11.111	-0.8	0.175	0.000	D	F	1627.9	179.737	0.207	0.004	696.426	889.234	0.023	-	-0.031	0.694	-	-	-	Ambient416	1.318	13.446	-	PAVEMENT_GENERAL	Urban	F	1011101000011101	0000000000010000	-	-	-	-	-	-	-	-	-	-	Terminate	
Unknown	197.98729	01/15/0117 10:52.50	00011879	10.863	Inter686t1-0	-0.089	1	1	180.000	11.111	0.4	0.180	0.000	D	F	1655.0	179.649	0.206	-0.002	696.485	878.697	0.023	-	0.006	0.647	-	-	-	Ambient416	1.257	13.657	118.012	PAVEMENT_GENERAL	Urban	F	1011101000011101	0000000000010000	-	-	-	-	-	-	-	-	-	-	Terminate	
Unknown	198.98732	01/15/0117 10:52.51	00011939	11.498	Inter686t1-0	-0.145	1	1	180.000	11.111	0.9	0.180	0.000	D	F	1678.7	179.781	0.204	-0.004	696.541	867.513	0.024	-	0.033	0.609	-	-	-	Ambient416	1.150	13.222	17.601	PAVEMENT_GENERAL	Urban	F	1011101000011101	0000000000010000	-	-	-	-	-	-	-	-	-	-	Terminate	
Unknown	199.98734	01/15/0117 10:52.52	00011999	11.883	Inter686t1-0	-0.167	1	1	180.000	11.111	0.9	0.000	0.000	D	F	1158.4	180.006	0.161	-0.006	696.563	855.736	0.026	-	0.043	-0.590	-	-	-	Ambient416	1.026	12.194	10.737	PAVEMENT_GENERAL	Urban	F	1011101000011101	0000000000010000	-	-	-	-	-	-	-	-	-	-	Terminate	
Unknown	200.98735	01/15/0117 10:52.53	00012059	11.360	Inter686t1-0	-0.146	1	1	180.000	11.111	0.9	0.000	0.000	D	F	1116.2	180.210	0.193	-0.005	696.542	844.116	0.029	-	0.040	-0.519	-	-	-	Ambient416	0.997	11.321	18.479	PAVEMENT_GENERAL	Urban	F	1011101000011101	0000000000010000	-	-	-	-	-	-	-	-	-	-	Terminate	
Unknown	201.98737	01/15/0117 10:52.54	00012119	10.845	Inter686t1-0	-0.089	1	1	180.000	11.111	0.6	0.000	0.000	D	F	1065.5	180.353	0.194	-0.003	696.485	833.014	0.029	-	0.022	-0.511	-	-	-	Ambient416	1.011	10.967	112.187	PAVEMENT_GENERAL	Urban	F	1011101000011101	0000000000010000	-	-	-	-	-	-	-	-	-	-	Terminate	
Unknown	202.98740	01/15/0117 10:52.55	00012179	10.337	Inter686t1-0	-0.015	1	1	180.000	11.111	-1.7	0.000	0.000	D	F	1015.8	180.373	0.195	0.006	696.412	822.423	0.029	-	-0.052	-0.504	-	-	-	Ambient416	1.076	11.125	-	PAVEMENT_GENERAL	Urban	F	1011101000011101	0000000000010000	-	-	-	-	-	-	-	-	-	-	Terminate	
Unknown	203.98741	01/15/0117 10:52.56	00012239	10.030	Inter686t1-0	0.011	1	1	180.000	11.111	-1.0	0.104	0.000	D	F	1393.6	179.981	0.202	0.006	696.385	812.299	0.026	-	-0.037	0.133	-	-	-	Ambient416	1.171	11.749	-	PAVEMENT_GENERAL	Urban	F	1011101000011101	0000000000010000	-	-	-	-	-	-	-	-	-	-	Terminate	
Unknown	204.98743	01/15/0117 10:52.57	00012299	10.310	Inter686t1-0	0.021	1	1	180.000	11.111	1.8	0.111	0.000	D	F	1447.7	180.185	0.203	-0.007	696.375	802.131	0.025	-	0.056	0.292	-	-	-	Ambient416	0.967	9.972	-	PAVEMENT_GENERAL	Urban	F	1011101000011101	0000000000010000	-	-	-	-	-	-	-	-	-	-	Terminate	
Unknown	205.98746	01/15/0117 10:52.58	00012359	10.597	Inter682t1-1	0.071	1	1	180.000	11.111	-2.3	0.116	0.000	D	F	1469.8	180.166	0.203	0.011	696.333	791.677	0.025	-	-0.068	0.295	-	-	-	Ambient416	1.191	12.624	-	PAVEMENT_GENERAL	Urban	F	1011101000011101	0000000000010000	-	-	-	-	-	-	-	-	-	-	Terminate	
Unknown	206.98747	01/15/0117 10:52.59	00012419	10.889	Inter682t1-1	0.062	1	1	180.000	11.111	1.0	0.115	0.000	D	F	1488.4	179.844	0.202	-0.002	696.342	780.933	0.025	-	0.016	0.288	-	-	-	Ambient416	1.160	12.628	88.903	PAVEMENT_GENERAL	Urban	F	1011101000011101	0000000000010000	-	-	-	-	-	-	-	-	-	-	Terminate	
Unknown	207.98749	01/15/0117 10:53.00	00012479	11.162	Inter682t1-1	0.050	1	1	180.000	11.111	0.6	0.120	0.000	D	F	1502.8	180.006	0.202	-0.003	696.354	769.907	0.025	-	0.024	0.272	-	-	-	Ambient416	1.106	12.350	29.756	PAVEMENT_GENERAL	Urban	F	1011101000011101	0000000000010000	-	-	-	-	-	-	-	-	-	-	Terminate	
Unknown	208.98752	01/15/0117 10:53.01	00012539	11.346	Inter682t1-1	0.063	1	1	180.000	11.111	0.5	0.023	0.000	D	F	1189.3	180.116	0.183	-0.002	696.341	758.620	0.026	-	0.019	-0.295	-	-	-	Ambient416	1.041	11.812	19.717	PAVEMENT_GENERAL	Urban	F	1011101000011101	0000000000010000	-	-	-	-	-	-	-	-	-	-	Terminate	
