ZoneName	Time	SystemTime	Frame	Velocity	LaneName	LanePos	LaneIndex	LaneCount	LaneHeading	SpeedLimit	Steer	Accel	Brake	Gear	Horn	SubjectEngineRPM	SubjectHeading	SubjectPitch	SubjectRoll	SubjectX	SubjectY	SubjectZ	Signal	LatAccel	LongAccel	Collision	CollisionAngle	CollisionVelocity	VehAhead	HeadwayTime	HeadwayDist	TTC	TerrainType	CultureType	Slip	DigitalInputs	DigitalInputs2	ActiveTrigger	EntityName	DistToEntity	TimeToEntity	EntityVelocity	EntityAccel	EntityHeading	EntityX	EntityY	EntityZ	GrabData	
Unknown	0.98335	01/16/0117 09:18.37	00000059	0.002	Inter625t13-0	-0.088	1	2	0.000	11.111	8.8	0.000	0.000	D	F	0.0	0.003	0.153	-0.003	1503.500	523.206	0.019	-	-0.000	0.000	-	-	-	-	-	-	-	PAVEMENT_GENERAL	Urban	F	1011101000011101	0000000000010000	-	-	-	-	-	-	-	-	-	-	Terminate	
Unknown	1.98337	01/16/0117 09:18.38	00000119	0.000	Inter625t13-0	-0.088	1	2	0.000	11.111	8.6	0.000	0.000	D	F	0.0	0.002	0.197	-0.000	1503.500	523.208	0.026	-	0.000	-0.001	-	-	-	-	-	-	-	PAVEMENT_GENERAL	Urban	F	1011101000011101	0000000000010000	-	-	-	-	-	-	-	-	-	-	Terminate	
Unknown	2.98339	01/16/0117 09:18.39	00000179	0.000	Inter625t13-0	-0.088	1	2	0.000	11.111	8.6	0.000	1.000	D	F	22.2	0.002	0.206	-0.000	1503.500	523.208	0.027	-	-0.000	-0.000	-	-	-	-	-	-	-	PAVEMENT_GENERAL	Urban	F	1111101000011111	0000000000010000	-	-	-	-	-	-	-	-	-	-	Terminate	
Unknown	3.98341	01/16/0117 09:18.40	00000239	0.000	Inter625t13-0	-0.088	1	2	0.000	11.111	8.2	0.000	0.606	D	F	355.6	0.002	0.208	0.000	1503.500	523.208	0.028	-	-0.000	-0.000	-	-	-	-	-	-	-	PAVEMENT_GENERAL	Urban	F	1011101000011111	0000000000010000	-	-	-	-	-	-	-	-	-	-	Terminate	
Unknown	4.98343	01/16/0117 09:18.41	00000299	0.000	Inter625t13-0	-0.088	1	2	0.000	11.111	8.0	0.000	0.827	D	F	477.5	0.002	0.208	0.000	1503.500	523.208	0.028	-	-0.000	-0.000	-	-	-	-	-	-	-	PAVEMENT_GENERAL	Urban	F	1011101000011101	0000000000010000	-	-	-	-	-	-	-	-	-	-	Terminate	
Unknown	5.98345	01/16/0117 09:18.42	00000359	0.000	Inter625t13-0	-0.088	1	2	0.000	11.111	8.4	0.000	0.690	D	F	477.5	0.002	0.208	0.000	1503.500	523.208	0.028	-	-0.000	-0.000	-	-	-	-	-	-	-	PAVEMENT_GENERAL	Urban	F	1011101000011101	0000000000010000	-	-	-	-	-	-	-	-	-	-	Terminate	
Unknown	6.98347	01/16/0117 09:18.43	00000419	0.000	Inter625t13-0	-0.088	1	2	0.000	11.111	6.5	0.000	0.409	D	F	477.5	0.002	0.208	0.000	1503.500	523.208	0.028	-	-0.000	-0.000	-	-	-	-	-	-	-	PAVEMENT_GENERAL	Urban	F	1011101000011101	0000000000010000	-	-	-	-	-	-	-	-	-	-	Terminate	
Unknown	7.98349	01/16/0117 09:18.44	00000479	0.094	Inter625t13-0	-0.088	1	2	0.000	11.111	6.3	0.138	0.000	D	F	1276.4	0.003	0.235	-0.000	1503.500	523.216	0.023	-	0.008	0.578	-	-	-	-	-	-	-	PAVEMENT_GENERAL	Urban	F	1111101000011101	0000000000010000	-	-	-	-	-	-	-	-	-	-	Terminate	
Unknown	8.98351	01/16/0117 09:18.45	00000539	3.050	Inter625t13-0	-0.080	1	2	0.000	11.111	6.0	0.190	0.000	D	F	1616.7	0.195	0.232	-0.005	1503.508	524.600	0.010	-	0.027	3.330	-	-	-	-	-	-	-	PAVEMENT_GENERAL	Urban	F	1011101000011101	0000000000010000	-	-	-	-	-	-	-	-	-	-	Terminate	
Unknown	9.98353	01/16/0117 09:18.46	00000599	5.708	Inter625t13-0	-0.044	1	2	0.000	11.111	1.3	0.215	0.000	D	F	1979.9	0.481	0.223	-0.003	1503.544	529.063	0.015	-	0.017	2.261	-	-	-	-	-	-	-	PAVEMENT_GENERAL	Urban	F	1011101000011101	0000000000010000	-	-	-	-	-	-	-	-	-	-	Terminate	
Unknown	10.98355	01/16/0117 09:18.47	00000659	7.622	Inter625t49-0	0.030	1	1	0.005	11.111	0.8	0.194	0.000	D	F	1820.8	0.703	0.205	-0.001	1503.618	535.794	0.019	-	0.012	1.383	-	-	-	-	-	-	-	PAVEMENT_GENERAL	Urban	F	1011101000011101	0000000000010000	-	-	-	-	-	-	-	-	-	-	Terminate	
Unknown	11.98357	01/16/0117 09:18.48	00000719	8.808	Inter625t49-0	0.133	1	1	0.007	11.111	-2.6	0.194	0.000	D	F	1825.9	0.666	0.212	0.006	1503.722	544.022	0.021	-	-0.057	1.164	-	-	-	-	-	-	-	PAVEMENT_GENERAL	Urban	F	1011101000011101	0000000000010000	-	-	-	-	-	-	-	-	-	-	Terminate	
Unknown	12.98359	01/16/0117 09:18.49	00000779	9.240	Inter625t49-0	0.202	1	1	0.007	11.111	0.9	0.106	0.000	D	F	1404.8	0.381	0.207	-0.003	1503.792	553.140	0.025	-	0.022	0.321	-	-	-	-	-	-	-	PAVEMENT_GENERAL	Urban	F	1011101000011101	0000000000010000	-	-	-	-	-	-	-	-	-	-	Terminate	
Unknown	13.98361	01/16/0117 09:18.50	00000839	10.014	Inter625t49-0	0.271	1	1	0.005	11.111	0.1	0.242	0.000	D	F	1763.8	0.389	0.211	0.001	1503.862	562.728	0.022	-	-0.004	0.991	-	-	-	-	-	-	-	PAVEMENT_GENERAL	Urban	F	1011101000011101	0000000000010000	-	-	-	-	-	-	-	-	-	-	Terminate	
Unknown	14.98363	01/16/0117 09:18.51	00000899	11.161	Inter625t49-0	0.352	1	1	0.005	11.111	1.1	0.222	0.000	D	F	2048.4	0.518	0.209	-0.005	1503.944	573.314	0.021	-	0.038	1.085	-	-	-	-	-	-	-	PAVEMENT_GENERAL	Urban	F	1011101000011101	0000000000010000	-	-	-	-	-	-	-	-	-	-	Terminate	
Unknown	15.98365	01/16/0117 09:18.52	00000959	12.191	Inter625t15-0	0.485	1	2	0.000	11.111	0.6	0.238	0.000	D	F	2183.0	0.817	0.208	-0.007	1504.078	584.990	0.022	-	0.046	1.019	-	-	-	-	-	-	-	PAVEMENT_GENERAL	Urban	F	1011101000011101	0000000000010000	-	-	-	-	-	-	-	-	-	-	Terminate	
Unknown	16.98367	01/16/0117 09:18.53	00001019	13.197	Inter625t15-0	0.655	1	2	0.000	11.111	-1.0	0.240	0.000	D	F	2300.2	0.643	0.207	0.006	1504.248	597.688	0.022	-	-0.055	0.975	-	-	-	-	-	-	-	PAVEMENT_GENERAL	Urban	F	1011101000011101	0000000000010000	-	-	-	-	-	-	-	-	-	-	Terminate	
Unknown	17.98369	01/16/0117 09:18.54	00001079	14.149	Inter614t1-0	0.781	1	2	0.000	11.111	-1.1	0.245	0.000	D	F	2431.2	0.401	0.205	0.008	1504.375	611.363	0.022	-	-0.058	0.947	-	-	-	-	-	-	-	PAVEMENT_GENERAL	Urban	F	1011101000011101	0000000000010000	-	-	-	-	-	-	-	-	-	-	Terminate	
Unknown	18.98371	01/16/0117 09:18.55	00001139	15.079	Inter614t1-0	0.855	1	2	0.000	11.111	-1.1	0.242	0.000	D	F	2560.9	0.157	0.203	0.008	1504.448	625.982	0.022	-	-0.061	0.893	-	-	-	-	-	-	-	PAVEMENT_GENERAL	Urban	F	1011101000011101	0000000000010000	-	-	-	-	-	-	-	-	-	-	Terminate	
Unknown	19.98373	01/16/0117 09:18.56	00001199	15.790	Inter614t1-0	0.887	1	2	0.000	11.111	0.3	0.219	0.000	D	F	1986.4	0.138	0.199	-0.004	1504.480	641.452	0.024	-	0.025	0.578	-	-	-	-	-	-	-	PAVEMENT_GENERAL	Urban	F	1011101000011101	0000000000010000	-	-	-	-	-	-	-	-	-	-	Terminate	
Unknown	20.98375	01/16/0117 09:18.57	00001259	16.127	Inter614t1-0	0.951	1	2	0.000	11.111	1.2	0.042	0.000	D	F	1670.6	0.403	0.185	-0.009	1504.544	657.477	0.027	-	0.085	-0.167	-	-	-	-	-	-	-	PAVEMENT_GENERAL	Urban	F	1011101000011101	0000000000010000	-	-	-	-	-	-	-	-	-	-	Terminate	
Unknown	21.98377	01/16/0117 09:18.58	00001319	15.982	Inter614t1-0	1.069	1	2	0.000	11.111	-3.4	0.162	0.000	D	F	1853.6	0.278	0.198	0.027	1504.663	673.460	0.026	-	-0.167	0.206	-	-	-	12	6.864	109.696	-	PAVEMENT_GENERAL	Urban	F	1011101000011101	0000000000010000	-	-	-	-	-	-	-	-	-	-	Terminate	
Unknown	22.98379	01/16/0117 09:18.59	00001379	16.305	Inter614t1-0	1.079	1	2	0.000	11.111	-1.2	0.192	0.000	D	F	1933.9	359.821	0.197	0.009	1504.672	689.591	0.025	-	-0.078	0.366	-	-	-	12	6.835	111.437	-	PAVEMENT_GENERAL	Urban	F	1011101000011101	0000000000010000	-	-	-	-	-	-	-	-	-	-	Terminate	
Unknown	23.98381	01/16/0117 09:19.00	00001439	16.682	Inter614t1-0	1.010	1	2	0.000	11.111	0.4	0.199	0.000	D	F	1967.6	359.711	0.197	0.000	1504.603	706.084	0.025	-	0.001	0.387	-	-	-	-	-	-	-	PAVEMENT_GENERAL	Urban	F	1011101000011101	0000000000010000	-	-	-	-	-	-	-	-	-	-	Terminate	
Unknown	24.98383	01/16/0117 09:19.01	00001499	17.068	Inter614t1-0	0.951	1	2	0.000	11.111	1.1	0.208	0.000	D	F	2008.0	0.000	0.196	-0.009	1504.544	722.959	0.025	-	0.080	0.404	-	-	-	12	6.806	116.160	-	PAVEMENT_GENERAL	Urban	F	1011101000011101	0000000000010000	-	-	-	-	-	-	-	-	-	-	Terminate	
Unknown	25.98385	01/16/0117 09:19.02	00001559	17.467	Inter614t1-0	0.935	1	2	0.000	11.111	-1.7	0.208	0.000	D	F	2036.4	359.856	0.195	0.011	1504.528	740.230	0.025	-	-0.089	0.390	-	-	-	12	6.730	117.555	-	PAVEMENT_GENERAL	Urban	F	1011101000011101	0000000000010000	-	-	-	-	-	-	-	-	-	-	Terminate	
Unknown	26.98387	01/16/0117 09:19.03	00001619	17.847	Inter614t1-0	0.826	1	2	0.000	11.111	-2.6	0.210	0.000	D	F	2068.1	359.348	0.195	0.022	1504.420	757.887	0.025	-	-0.169	0.382	-	-	-	12	6.748	120.439	-	PAVEMENT_GENERAL	Urban	F	1011101000011101	0000000000010000	-	-	-	-	-	-	-	-	-	-	Terminate	
Unknown	27.98389	01/16/0117 09:19.04	00001679	18.245	Inter614t1-0	0.573	1	2	0.000	11.111	5.0	0.212	0.000	D	F	2097.1	359.175	0.193	-0.026	1504.166	775.930	0.025	-	0.180	0.371	-	-	-	12	6.788	123.854	-	PAVEMENT_GENERAL	Urban	F	1011101000011101	0000000000010000	-	-	-	-	-	-	-	-	-	-	Terminate	
Unknown	28.98391	01/16/0117 09:19.05	00001739	18.560	Inter614t1-0	0.445	1	2	0.000	11.111	4.1	0.196	0.000	D	F	2092.2	0.091	0.192	-0.035	1504.038	794.343	0.025	-	0.263	0.269	-	-	-	12	6.865	127.419	-	PAVEMENT_GENERAL	Urban	F	1011101000011101	0000000000010000	-	-	-	-	-	-	-	-	-	-	Terminate	
Unknown	29.98393	01/16/0117 09:19.06	00001799	18.827	Inter612t1-0	0.576	1	2	0.000	11.111	0.1	0.194	0.000	D	F	2107.5	0.727	0.192	-0.009	1504.169	813.036	0.025	-	0.083	0.264	-	-	-	12	6.962	131.063	-	PAVEMENT_GENERAL	Urban	F	1011101000011101	0000000000010000	-	-	-	-	-	-	-	-	-	-	Terminate	
Unknown	30.98395	01/16/0117 09:19.07	00001859	18.929	Inter612t1-0	0.804	1	2	0.000	11.111	-0.6	0.037	0.000	D	F	1512.1	0.666	0.178	0.003	1504.397	831.969	0.028	-	-0.021	-0.399	-	-	-	12	7.105	134.483	-	PAVEMENT_GENERAL	Urban	F	1011101000011101	0000000000010000	-	-	-	-	-	-	-	-	-	-	Terminate	
Unknown	31.98397	01/16/0117 09:19.08	00001919	18.856	Inter612t1-0	0.994	1	2	0.000	11.111	-1.7	0.198	0.000	D	F	1790.9	0.401	0.189	0.017	1504.588	850.792	0.025	-	-0.118	0.211	-	-	-	12	7.319	138.014	-	PAVEMENT_GENERAL	Urban	F	1011101000011101	0000000000010000	-	-	-	-	-	-	-	-	-	-	Terminate	
Unknown	32.98399	01/16/0117 09:19.09	00001979	19.088	Inter612t1-0	1.097	1	2	0.000	11.111	-1.1	0.203	0.000	D	F	1812.5	0.208	0.191	0.007	1504.691	869.763	0.026	-	-0.061	0.233	-	-	-	12	7.407	141.396	-	PAVEMENT_GENERAL	Urban	F	1011101000011101	0000000000010000	-	-	-	-	-	-	-	-	-	-	Terminate	
Unknown	33.98401	01/16/0117 09:19.10	00002039	19.280	Inter612t1-0	1.142	1	2	0.000	11.111	-0.3	0.187	0.000	D	F	1779.6	0.065	0.190	0.003	1504.735	888.953	0.026	-	-0.027	0.167	-	-	-	12	7.498	144.560	-	PAVEMENT_GENERAL	Urban	F	1011101000011101	0000000000010000	-	-	-	-	-	-	-	-	-	-	Terminate	
Unknown	34.98403	01/16/0117 09:19.11	00002099	19.408	Inter612t1-0	1.160	1	2	0.000	11.111	0.3	0.182	0.000	D	F	1764.9	0.069	0.190	-0.004	1504.754	908.300	0.026	-	0.023	0.122	-	-	-	12	7.603	147.567	-	PAVEMENT_GENERAL	Urban	F	1111101000011101	0000000000010000	-	-	-	-	-	-	-	-	-	-	Terminate	
Unknown	35.98405	01/16/0117 09:19.12	00002159	19.519	Inter612t1-0	1.187	1	2	0.000	11.111	-0.3	0.178	0.000	D	F	1760.8	0.069	0.189	0.003	1504.780	927.765	0.026	-	-0.017	0.106	-	-	-	11	7.582	147.993	90.340	PAVEMENT_GENERAL	Urban	F	1011101000011101	0000000000010000	-	-	-	-	-	-	-	-	-	-	Terminate	
Unknown	36.98407	01/16/0117 09:19.13	00002219	19.625	Inter612t1-0	1.202	1	2	0.000	11.111	-0.1	0.173	0.000	D	F	1747.2	0.008	0.189	0.002	1504.795	947.342	0.026	-	-0.017	0.076	-	-	-	11	7.454	146.294	83.861	PAVEMENT_GENERAL	Urban	F	1111101000011101	0000000000010000	-	-	-	-	-	-	-	-	-	-	Terminate	
Unknown	37.98409	01/16/0117 09:19.14	00002279	19.693	Inter612t1-0	1.206	1	2	0.000	11.111	-0.4	0.171	0.000	D	F	1746.8	0.025	0.188	0.002	1504.799	967.003	0.026	-	-0.007	0.064	-	-	-	11	7.338	144.512	79.756	PAVEMENT_GENERAL	Urban	F	1011101000011101	0000000000010000	-	-	-	-	-	-	-	-	-	-	Terminate	
Unknown	38.98411	01/16/0117 09:19.15	00002339	19.781	Inter612t1-0	1.215	1	2	0.000	11.111	0.2	0.175	0.000	D	F	1760.8	0.065	0.188	-0.003	1504.808	986.739	0.026	-	0.026	0.081	-	-	-	11	7.212	142.654	75.080	PAVEMENT_GENERAL	Urban	F	1011101000011101	0000000000010000	-	-	-	-	-	-	-	-	-	-	Terminate	
Unknown	39.98413	01/16/0117 09:19.16	00002399	19.850	Inter613t1-0	1.236	1	2	0.000	11.111	0.2	0.164	0.000	D	F	1738.8	0.059	0.188	-0.000	1504.829	1006.558	0.026	-	0.004	0.047	-	-	-	11	7.089	140.714	71.449	PAVEMENT_GENERAL	Urban	F	1011101000011101	0000000000010000	-	-	-	-	-	-	-	-	-	-	Terminate	
Unknown	40.98415	01/16/0117 09:19.17	00002459	19.895	Inter613t1-0	1.262	1	2	0.000	11.111	-1.0	0.164	0.000	D	F	1737.8	0.055	0.188	0.006	1504.855	1026.431	0.027	-	-0.048	0.038	-	-	-	11	6.973	138.719	68.893	PAVEMENT_GENERAL	Urban	F	1011101000011101	0000000000010000	-	-	-	-	-	-	-	-	-	-	Terminate	
Unknown	41.98417	01/16/0117 09:19.18	00002519	19.924	Inter613t1-0	1.246	1	2	0.000	11.111	-1.3	0.159	0.000	D	F	1722.1	359.802	0.188	0.012	1504.839	1046.340	0.027	-	-0.090	0.028	-	-	-	11	6.860	136.685	66.894	PAVEMENT_GENERAL	Urban	F	1011101000011101	0000000000010000	-	-	-	-	-	-	-	-	-	-	Terminate	
Unknown	42.98419	01/16/0117 09:19.19	00002579	19.952	Inter613t1-0	1.138	1	2	0.000	11.111	-2.6	0.157	0.000	D	F	1713.3	359.510	0.187	0.017	1504.731	1066.277	0.027	-	-0.135	0.012	-	-	-	11	6.747	134.623	64.993	PAVEMENT_GENERAL	Urban	F	1011101000011101	0000000000010000	-	-	-	-	-	-	-	-	-	-	Terminate	
Unknown	43.98421	01/16/0117 09:19.20	00002639	19.994	Inter613t1-0	0.866	1	2	0.000	11.111	4.9	0.171	0.000	D	F	1765.1	358.971	0.188	-0.022	1504.459	1086.243	0.026	-	0.112	0.072	-	-	-	12	8.543	170.806	-	PAVEMENT_GENERAL	Urban	F	1011101000011101	0000000000010000	-	-	-	-	-	-	-	-	-	-	Terminate	
Unknown	44.98423	01/16/0117 09:19.21	00002699	20.056	Inter613t1-0	0.694	1	2	0.000	11.111	4.0	0.111	0.000	D	F	1634.9	0.220	0.184	-0.045	1504.287	1106.272	0.026	-	0.366	-0.043	-	-	-	12	8.632	173.130	-	PAVEMENT_GENERAL	Urban	F	1011101000011101	0000000000010000	-	-	-	-	-	-	-	-	-	-	Terminate	
Unknown	45.98425	01/16/0117 09:19.22	00002759	19.565	Inter613t1-0	0.859	1	2	0.000	11.111	-0.0	0.000	0.000	D	F	1334.0	0.772	0.182	-0.006	1504.452	1126.122	0.029	-	0.075	-0.597	-	-	-	12	8.977	175.634	-	PAVEMENT_GENERAL	Urban	F	1011101000011101	0000000000010000	-	-	-	-	-	-	-	-	-	-	Terminate	
Unknown	46.98427	01/16/0117 09:19.23	00002819	18.973	Inter613t1-0	1.105	1	2	0.000	11.111	-0.9	0.000	0.000	D	F	1293.8	0.632	0.183	0.010	1504.698	1145.388	0.029	-	-0.081	-0.588	-	-	-	11	6.696	127.041	116.373	PAVEMENT_GENERAL	Urban	F	1011101000011101	0000000000010000	-	-	-	-	-	-	-	-	-	-	Terminate	
Unknown	47.98429	01/16/0117 09:19.24	00002879	18.389	Inter613t1-0	1.233	1	2	0.000	11.111	-4.1	0.000	0.000	D	F	1254.0	359.829	0.183	0.050	1504.826	1164.068	0.029	-	-0.377	-0.579	-	-	-	11	6.864	126.228	248.440	PAVEMENT_GENERAL	Urban	F	1011101000011101	0000000000010000	-	-	-	-	-	-	-	-	-	-	Terminate	
Unknown	48.98431	01/16/0117 09:19.25	00002939	17.814	Inter613t1-0	1.104	1	2	0.000	11.111	0.4	0.000	0.000	D	F	1214.9	359.496	0.185	-0.004	1504.698	1182.168	0.029	-	0.024	-0.570	-	-	-	11	7.073	126.002	-	PAVEMENT_GENERAL	Urban	F	1111101000011101	0000000000010000	-	-	-	-	-	-	-	-	-	-	Terminate	
Unknown	49.98433	01/16/0117 09:19.26	00002999	17.435	Inter613t1-0	0.970	1	2	0.000	11.111	1.1	0.123	0.000	D	F	1561.7	359.766	0.195	-0.011	1504.563	1199.747	0.027	-	0.111	-0.034	-	-	-	12	10.844	189.060	-	PAVEMENT_GENERAL	Urban	F	1011101000011101	0000000000010000	-	-	-	-	-	-	-	-	-	-	Terminate	
Unknown	50.98435	01/16/0117 09:19.27	00003059	17.341	Inter746t1-0	0.930	1	2	0.000	11.111	-0.3	0.146	0.000	D	F	1622.6	0.000	0.194	0.001	1504.523	1217.134	0.027	-	0.010	0.060	-	-	-	12	11.267	195.382	-	PAVEMENT_GENERAL	Urban	F	1011101000011101	0000000000010000	-	-	-	-	-	-	-	-	-	-	Terminate	
Unknown	51.98437	01/16/0117 09:19.28	00003119	17.242	Inter746t1-0	0.893	1	2	0.000	11.111	0.6	0.153	0.000	D	F	1609.7	359.810	0.194	-0.003	1504.486	1234.436	0.027	-	0.009	0.010	-	-	-	12	11.344	195.598	111.360	PAVEMENT_GENERAL	Urban	F	1011101000011101	0000000000010000	-	-	-	-	-	-	-	-	-	-	Terminate	
Unknown	52.98439	01/16/0117 09:19.29	00003179	17.425	Inter746t1-0	0.856	1	2	0.000	11.111	0.1	0.192	0.000	D	F	1729.0	0.000	0.195	-0.002	1504.449	1251.760	0.026	-	0.022	0.252	-	-	-	12	11.011	191.863	35.597	PAVEMENT_GENERAL	Urban	F	1011101000011101	0000000000010000	-	-	-	-	-	-	-	-	-	-	Terminate	
Unknown	53.98441	01/16/0117 09:19.30	00003239	17.563	Inter746t1-0	0.837	1	2	0.000	11.111	-1.2	0.182	0.000	D	F	1701.6	359.885	0.197	0.009	1504.430	1269.268	0.026	-	-0.060	0.164	-	-	-	12	10.585	185.912	28.959	PAVEMENT_GENERAL	Urban	F	1011101000011101	0000000000010000	-	-	-	-	-	-	-	-	-	-	Terminate	
Unknown	54.98443	01/16/0117 09:19.31	00003299	17.917	Inter746t1-0	0.772	1	2	0.000	11.111	-0.6	0.243	0.000	D	F	1842.9	359.682	0.195	0.006	1504.365	1286.995	0.025	-	-0.049	0.399	-	-	-	-	-	-	-	PAVEMENT_GENERAL	Urban	F	1011101000011101	0000000000010000	-	-	-	-	-	-	-	-	-	-	Terminate	
Unknown	55.98445	01/16/0117 09:19.32	00003359	18.320	Inter746t1-0	0.653	1	2	0.000	11.111	-1.0	0.268	0.000	D	F	1873.5	359.530	0.194	0.007	1504.246	1305.113	0.025	-	-0.057	0.412	-	-	-	-	-	-	-	PAVEMENT_GENERAL	Urban	F	1011101000011101	0000000000010000	-	-	-	-	-	-	-	-	-	-	Terminate	
Unknown	56.98447	01/16/0117 09:19.33	00003419	18.765	Inter746t1-0	0.469	1	2	0.000	11.111	-2.7	0.270	0.000	D	F	2147.8	359.262	0.194	0.020	1504.063	1323.646	0.024	-	-0.139	0.488	-	-	-	-	-	-	-	PAVEMENT_GENERAL	Urban	F	1011101000011101	0000000000010000	-	-	-	-	-	-	-	-	-	-	Terminate	
Unknown	57.98449	01/16/0117 09:19.34	00003479	19.295	Inter746t1-0	0.138	1	2	0.000	11.111	-0.8	0.280	0.000	D	F	2241.7	358.661	0.194	0.015	1503.731	1342.670	0.024	-	-0.129	0.536	-	-	-	-	-	-	-	PAVEMENT_GENERAL	Urban	F	1011101000011101	0000000000010000	-	-	-	-	-	-	-	-	-	-	Terminate	
Unknown	58.98451	01/16/0117 09:19.35	00003539	19.790	Inter746t1-0	-0.240	1	2	0.000	11.111	5.9	0.263	0.000	D	F	2266.1	359.476	0.192	-0.055	1503.353	1362.214	0.025	-	0.427	0.474	-	-	-	-	-	-	-	PAVEMENT_GENERAL	Urban	F	1011101000011101	0000000000010000	-	-	-	-	-	-	-	-	-	-	Terminate	
Unknown	59.98453	01/16/0117 09:19.36	00003599	20.249	Inter746t1-0	-0.307	1	2	0.000	11.111	-9.6	0.257	0.000	D	F	2295.6	359.849	0.191	0.057	1503.286	1382.234	0.025	L	-0.373	0.449	-	-	-	-	-	-	-	PAVEMENT_GENERAL	Urban	F	1011101000111101	0000000000010000	-	-	-	-	-	-	-	-	-	-	Terminate	
Unknown	60.98455	01/16/0117 09:19.37	00003659	20.615	Inter749t9-0	-0.851	1	2	0.000	11.111	-8.8	0.000	0.000	D	F	1804.1	356.313	0.176	0.142	1502.742	1402.676	0.025	L	-1.159	-0.071	-	-	-	-	-	-	-	PAVEMENT_GENERAL	Urban	F	1011101000111101	0000000000010000	-	-	-	-	-	-	-	-	-	-	Terminate	
Unknown	61.98457	01/16/0117 09:19.38	00003719	19.778	-	-	SH-	1	-	-	7.5	0.000	0.316	D	F	1302.6	355.694	0.104	-0.039	1501.283	1422.931	0.031	L	0.256	-3.366	-	-	-	-	-	-	-	PAVEMENT_GENERAL	Urban	F	1011101000111101	0000000000010000	-	-	-	-	-	-	-	-	-	-	Terminate	
Unknown	62.98459	01/16/0117 09:19.39	00003779	14.872	Inter749t31-0	-1.737	1	1	355.312	11.111	6.2	0.000	0.379	D	F	961.7	358.566	0.037	-0.113	1500.271	1440.293	0.040	L	0.748	-4.993	-	-	-	12	2.269	33.739	2.269	PAVEMENT_GENERAL	Urban	F	1011101000111101	0000000000010000	-	-	-	-	-	-	-	-	-	-	Terminate	
Unknown	63.98461	01/16/0117 09:19.40	00003839	8.095	Inter749t31-0	-0.911	1	1	356.903	11.111	-0.3	0.000	0.761	D	F	700.6	358.484	-0.304	0.009	1499.977	1452.249	0.044	L	-0.056	-8.720	-	-	-	12	2.700	21.854	2.700	PAVEMENT_GENERAL	Urban	F	1011101000111101	0000000000010000	-	-	-	-	-	-	-	-	-	-	Terminate	
Unknown	64.98463	01/16/0117 09:19.41	00003899	-0.013	Inter749t31-0	-0.800	1	1	356.903	11.111	6.4	0.000	0.845	D	F	477.5	358.690	-0.044	0.004	1499.888	1455.953	0.045	L	-0.008	-1.522	-	-	-	12	-1362.063	18.151	-	PAVEMENT_GENERAL	Urban	F	1111101000111101	0000000000010000	-	-	-	-	-	-	-	-	-	-	Terminate	
Unknown	65.98465	01/16/0117 09:19.42	00003959	-0.002	Inter749t31-0	-0.800	1	1	356.903	11.111	6.3	0.000	0.842	D	F	477.5	358.689	0.187	-0.001	1499.888	1455.952	0.034	L	0.000	-0.007	-	-	-	12	-	18.151	-	PAVEMENT_GENERAL	Urban	F	1011101000111101	0000000000010000	-	-	-	-	-	-	-	-	-	-	Terminate	
Unknown	66.98467	01/16/0117 09:19.43	00004019	-0.001	Inter749t31-0	-0.800	1	1	356.903	11.111	6.0	0.000	0.833	D	F	477.5	358.689	0.209	-0.000	1499.888	1455.952	0.030	L	-0.000	0.000	-	-	-	12	-	18.152	-	PAVEMENT_GENERAL	Urban	F	1011101000111101	0000000000010000	-	-	-	-	-	-	-	-	-	-	Terminate	
Unknown	67.98470	01/16/0117 09:19.44	00004079	-0.000	Inter749t31-0	-0.800	1	1	356.903	11.111	5.8	0.000	0.827	D	F	477.5	358.689	0.210	-0.000	1499.888	1455.951	0.028	L	0.000	0.000	-	-	-	12	-	18.152	-	PAVEMENT_GENERAL	Urban	F	1011101000111101	0000000000010000	-	-	-	-	-	-	-	-	-	-	Terminate	
Unknown	68.98471	01/16/0117 09:19.45	00004139	-0.000	Inter749t31-0	-0.800	1	1	356.903	11.111	5.3	0.000	0.830	D	F	477.5	358.689	0.209	-0.000	1499.888	1455.951	0.028	L	0.000	0.000	-	-	-	12	-	18.228	-	PAVEMENT_GENERAL	Urban	F	1011101000111101	0000000000010000	-	-	-	-	-	-	-	-	-	-	Terminate	
Unknown	69.98473	01/16/0117 09:19.46	00004199	-0.000	Inter749t31-0	-0.800	1	1	356.903	11.111	4.2	0.000	0.878	D	F	477.5	358.689	0.209	-0.000	1499.888	1455.951	0.028	L	0.000	0.000	-	-	-	12	-	19.777	-	PAVEMENT_GENERAL	Urban	F	1011101000111101	0000000000010000	-	-	-	-	-	-	-	-	-	-	Terminate	
Unknown	70.98476	01/16/0117 09:19.47	00004259	0.000	Inter749t31-0	-0.800	1	1	356.903	11.111	12.0	0.056	0.000	D	F	536.3	358.689	0.209	-0.000	1499.888	1455.951	0.028	L	0.000	0.003	-	-	-	12	-	23.342	-	PAVEMENT_GENERAL	Urban	F	1011101000111101	0000000000010000	-	-	-	-	-	-	-	-	-	-	Terminate	
Unknown	71.98477	01/16/0117 09:19.48	00004319	2.421	Inter749t31-0	-0.767	1	1	356.903	11.111	24.3	0.307	0.000	D	F	1690.9	359.070	0.193	-0.006	1499.885	1456.612	0.006	L	0.098	4.527	-	-	-	12	11.665	28.238	-	PAVEMENT_GENERAL	Urban	F	1011101000111101	0000000000010000	-	-	-	-	-	-	-	-	-	-	Terminate	
Unknown	72.98479	01/16/0117 09:19.49	00004379	6.117	Inter749t31-0	-0.489	1	1	356.903	11.111	5.7	0.413	0.000	D	F	2216.4	0.692	0.231	-0.004	1499.927	1460.985	0.011	L	0.046	3.197	-	-	-	12	5.136	31.417	-	PAVEMENT_GENERAL	Urban	F	1011101000111101	0000000000010000	-	-	-	-	-	-	-	-	-	-	Terminate	
Unknown	73.98481	01/16/0117 09:19.50	00004439	7.410	Inter749t11-0	-0.029	LT1	2	0.000	11.111	-1.8	0.000	0.000	D	F	874.2	0.785	0.181	0.007	1500.034	1468.165	0.027	L	-0.037	-0.432	-	-	-	12	4.473	33.144	-	PAVEMENT_GENERAL	Urban	F	1011101000111101	0000000000010000	-	-	-	-	-	-	-	-	-	-	Terminate	
Unknown	74.98483	01/16/0117 09:19.51	00004499	7.485	Inter749t11-0	0.028	LT1	2	0.000	11.111	-17.0	0.250	0.000	D	F	1769.2	0.072	0.214	0.044	1500.090	1475.421	0.019	L	-0.325	1.533	-	-	-	12	4.745	35.514	-	PAVEMENT_GENERAL	Urban	F	1011101000111101	0000000000010000	-	-	-	-	-	-	-	-	-	-	Terminate	
Unknown	75.98486	01/16/0117 09:19.52	00004559	9.188	Inter749t65-0	-0.359	1	1	351.876	11.111	-114.0	0.395	0.000	D	F	2031.2	352.567	0.222	0.382	1499.576	1483.728	0.019	L	-2.814	1.663	-	-	-	12	4.263	39.164	-	PAVEMENT_GENERAL	Urban	F	1011101000111101	0000000000010000	-	-	-	-	-	-	-	-	-	-	Terminate	
Unknown	76.98487	01/16/0117 09:19.53	00004619	10.764	Inter749t65-0	-0.443	1	1	327.816	11.111	-146.6	0.490	0.000	D	F	2200.7	328.635	0.230	0.614	1496.095	1493.019	0.025	L	-4.730	1.458	-	-	-	12	3.925	42.247	-	PAVEMENT_GENERAL	Urban	F	1011101000111101	0000000000010000	-	-	-	-	-	-	-	-	-	-	Terminate	
Unknown	77.98489	01/16/0117 09:19.54	00004679	12.154	Inter749t65-0	-0.519	1	1	298.867	11.111	-150.2	0.293	0.000	D	F	2265.5	303.863	0.237	0.690	1488.066	1501.118	0.027	L	-5.301	1.161	-	-	-	12	3.590	43.637	-	PAVEMENT_GENERAL	Urban	F	1011101000111101	0000000000010000	-	-	-	-	-	-	-	-	-	-	Terminate	
Unknown	78.98492	01/16/0117 09:19.55	00004739	12.408	Inter749t3-3	1.654	1	2	270.000	11.111	-141.5	0.259	0.000	D	F	1864.6	274.432	0.185	0.774	1476.625	1505.185	0.037	L	-6.083	0.553	-	-	-	12	4.110	50.999	-	PAVEMENT_GENERAL	Urban	F	1011101000111101	0000000000010000	-	-	-	-	-	-	-	-	-	-	Terminate	
Unknown	79.98493	01/16/0117 09:19.56	00004799	13.311	Inter749t19-0	0.712	1	1	270.072	11.111	27.9	0.296	0.000	D	F	2339.4	262.083	0.208	-0.120	1463.901	1504.246	0.021	-	0.671	1.186	-	-	-	Ambient271	4.168	55.475	28.219	PAVEMENT_GENERAL	Urban	F	1011101000011101	0000000000010000	-	-	-	-	-	-	-	-	-	-	Terminate	
Unknown	80.98495	01/16/0117 09:19.57	00004859	13.102	Inter749t19-0	-0.272	1	1	270.113	11.111	24.8	0.000	0.000	D	F	1308.4	270.046	0.176	-0.191	1450.601	1503.277	0.029	-	1.571	-0.554	-	-	-	12	4.967	65.075	-	PAVEMENT_GENERAL	Urban	F	1011101000011101	0000000000010000	-	-	-	-	-	-	-	-	-	-	Terminate	
Unknown	81.98497	01/16/0117 09:19.58	00004919	12.787	Inter749t19-0	0.089	1	1	270.074	11.111	-7.7	0.212	0.000	D	F	1794.3	272.276	0.223	0.031	1437.757	1503.663	0.025	-	-0.219	0.651	-	-	-	12	5.773	73.818	-	PAVEMENT_GENERAL	Urban	F	1011101000011101	0000000000010000	-	-	-	-	-	-	-	-	-	-	Terminate	
Unknown	82.98499	01/16/0117 09:19.59	00004979	13.554	Inter749t19-0	0.426	1	1	270.061	11.111	0.9	0.287	0.000	D	F	1928.5	271.054	0.205	0.008	1424.617	1504.018	0.022	-	-0.043	0.870	-	-	-	12	6.106	82.766	-	PAVEMENT_GENERAL	Urban	F	1011101000011101	0000000000010000	-	-	-	-	-	-	-	-	-	-	Terminate	
Unknown	83.98502	01/16/0117 09:20.00	00005039	14.486	Inter749t1-2	0.681	1	2	270.000	11.111	-6.2	0.330	0.000	D	F	2413.4	270.923	0.207	0.032	1410.621	1504.281	0.021	-	-0.232	1.107	-	-	-	12	6.291	91.124	-	PAVEMENT_GENERAL	Urban	F	1011101000011101	0000000000010000	-	-	-	-	-	-	-	-	-	-	Terminate	
Unknown	84.98503	01/16/0117 09:20.01	00005099	15.747	Inter747t1-2	0.794	1	2	270.000	11.111	-2.4	0.340	0.000	D	F	2721.5	270.091	0.207	0.018	1395.517	1504.401	0.021	-	-0.140	1.292	-	-	-	12	6.247	98.367	-	PAVEMENT_GENERAL	Urban	F	1011101000011101	0000000000010000	-	-	-	-	-	-	-	-	-	-	Terminate	
Unknown	85.98505	01/16/0117 09:20.02	00005159	16.926	Inter747t1-2	0.797	1	2	270.000	11.111	-2.2	0.275	0.000	D	F	2719.6	269.945	0.201	0.015	1379.150	1504.404	0.022	-	-0.082	1.096	-	-	-	12	6.165	104.353	-	PAVEMENT_GENERAL	Urban	F	1011101000011101	0000000000010000	-	-	-	-	-	-	-	-	-	-	Terminate	
Unknown	86.98507	01/16/0117 09:20.03	00005219	17.629	Inter747t1-2	0.733	1	2	270.000	11.111	2.9	0.240	0.000	D	F	2096.3	269.728	0.194	-0.017	1361.823	1504.339	0.024	-	0.096	0.497	-	-	-	12	6.205	109.380	-	PAVEMENT_GENERAL	Urban	F	1011101000011101	0000000000010000	-	-	-	-	-	-	-	-	-	-	Terminate	
Unknown	87.98509	01/16/0117 09:20.04	00005279	18.161	Inter747t1-2	0.714	1	2	270.000	11.111	-3.3	0.254	0.000	D	F	2128.6	270.026	0.195	0.026	1343.937	1504.321	0.024	-	-0.114	0.537	-	-	-	12	6.269	113.847	-	PAVEMENT_GENERAL	Urban	F	1011101000011101	0000000000010000	-	-	-	-	-	-	-	-	-	-	Terminate	
Unknown	88.98512	01/16/0117 09:20.05	00005339	18.677	Inter747t1-2	0.667	1	2	270.000	11.111	1.1	0.272	0.000	D	F	2188.1	269.810	0.195	-0.007	1325.524	1504.274	0.024	-	0.046	0.533	-	-	-	12	6.307	117.787	-	PAVEMENT_GENERAL	Urban	F	1011101000011101	0000000000010000	-	-	-	-	-	-	-	-	-	-	Terminate	
Unknown	89.98513	01/16/0117 09:20.06	00005399	19.134	Inter747t1-2	0.633	1	2	270.000	11.111	0.4	0.247	0.000	D	F	2202.6	269.979	0.193	-0.005	1306.612	1504.240	0.025	-	0.033	0.442	-	-	-	12	6.336	121.229	-	PAVEMENT_GENERAL	Urban	F	1011101000011101	0000000000010000	-	-	-	-	-	-	-	-	-	-	Terminate	
Unknown	90.98515	01/16/0117 09:20.07	00005459	19.584	Inter747t1-2	0.635	1	2	270.000	11.111	0.1	0.254	0.000	D	F	2242.7	270.040	0.193	-0.002	1287.252	1504.242	0.025	-	0.012	0.452	-	-	-	12	6.343	124.223	-	PAVEMENT_GENERAL	Urban	F	1011101000011101	0000000000010000	-	-	-	-	-	-	-	-	-	-	Terminate	
Unknown	91.98518	01/16/0117 09:20.08	00005519	20.007	Inter747t1-2	0.658	1	2	270.000	11.111	4.4	0.240	0.000	D	F	2259.6	270.234	0.191	-0.036	1267.450	1504.265	0.025	-	0.223	0.388	-	-	-	12	6.337	126.774	-	PAVEMENT_GENERAL	Urban	F	1011101000011101	0000000000010000	-	-	-	-	-	-	-	-	-	-	Terminate	
Unknown	92.98519	01/16/0117 09:20.09	00005579	20.395	Inter747t1-2	0.823	1	2	270.000	11.111	-2.2	0.226	0.000	D	F	2275.5	270.505	0.190	0.017	1247.248	1504.430	0.025	-	-0.116	0.366	-	-	-	12	6.321	128.926	-	PAVEMENT_GENERAL	Urban	F	1011101000011101	0000000000010000	-	-	-	-	-	-	-	-	-	-	Terminate	
Unknown	93.98521	01/16/0117 09:20.10	00005639	20.764	Inter747t1-2	0.932	1	2	270.000	11.111	-0.8	0.235	0.000	D	F	2312.9	270.123	0.190	0.006	1226.670	1504.539	0.025	-	-0.058	0.369	-	-	-	12	6.295	130.701	-	PAVEMENT_GENERAL	Urban	F	1011101000011101	0000000000010000	-	-	-	-	-	-	-	-	-	-	Terminate	
Unknown	94.98523	01/16/0117 09:20.11	00005699	21.121	Inter747t1-2	0.966	1	2	270.000	11.111	-0.2	0.229	0.000	D	F	2339.6	270.017	0.189	0.005	1205.726	1504.573	0.025	-	-0.039	0.346	-	-	-	12	6.255	132.111	-	PAVEMENT_GENERAL	Urban	F	1011101000011101	0000000000010000	-	-	-	-	-	-	-	-	-	-	Terminate	
Unknown	95.98525	01/16/0117 09:20.12	00005759	21.457	Inter748t1-2	0.968	1	2	270.000	11.111	-1.5	0.226	0.000	D	F	2368.2	269.926	0.188	0.014	1184.432	1504.574	0.025	-	-0.088	0.317	-	-	-	12	6.206	133.170	-	PAVEMENT_GENERAL	Urban	F	1011101000011101	0000000000010000	-	-	-	-	-	-	-	-	-	-	Terminate	
Unknown	96.98528	01/16/0117 09:20.13	00005819	21.779	Inter748t1-2	0.902	1	2	270.000	11.111	0.2	0.229	0.000	D	F	2400.7	269.781	0.187	-0.003	1162.813	1504.509	0.025	-	0.013	0.318	-	-	-	12	6.148	133.905	-	PAVEMENT_GENERAL	Urban	F	1011101000011101	0000000000010000	-	-	-	-	-	-	-	-	-	-	Terminate	
Unknown	97.98529	01/16/0117 09:20.14	00005879	22.080	Inter748t1-2	0.787	1	2	270.000	11.111	-4.8	0.219	0.000	D	F	2414.9	269.372	0.186	0.043	1140.878	1504.394	0.026	-	-0.313	0.262	-	-	-	12	6.083	134.324	-	PAVEMENT_GENERAL	Urban	F	1011101000011101	0000000000010000	-	-	-	-	-	-	-	-	-	-	Terminate	
Unknown	98.98531	01/16/0117 09:20.15	00005939	22.323	Inter748t1-2	0.402	1	2	270.000	11.111	-2.4	0.224	0.000	D	F	2445.4	268.561	0.186	0.023	1118.683	1504.009	0.026	-	-0.205	0.288	-	-	-	-	-	-	-	PAVEMENT_GENERAL	Urban	F	1011101000011101	0000000000010000	-	-	-	-	-	-	-	-	-	-	Terminate	
Unknown	99.98534	01/16/0117 09:20.16	00005999	22.569	Inter748t1-2	-0.212	1	2	270.000	11.111	-1.0	0.215	0.000	D	F	2455.3	268.243	0.184	0.012	1096.241	1503.395	0.026	-	-0.089	0.224	-	-	-	-	-	-	-	PAVEMENT_GENERAL	Urban	F	1011101000011101	0000000000010000	-	-	-	-	-	-	-	-	-	-	Terminate	
Unknown	100.98535	01/16/0117 09:20.17	00006059	22.827	Inter748t1-2	-0.904	1	2	270.000	11.111	3.3	0.215	0.000	D	F	2480.1	268.370	0.185	-0.028	1073.555	1502.703	0.026	-	0.176	0.252	-	-	-	-	-	-	-	PAVEMENT_GENERAL	Urban	F	1011101000011101	0000000000010000	-	-	-	-	-	-	-	-	-	-	Terminate	
Unknown	101.98537	01/16/0117 09:20.18	00006119	22.859	Inter748t1-2	-1.404	1	2	270.000	11.111	15.4	0.000	0.000	D	F	1580.4	269.632	0.149	-0.131	1050.655	1502.203	0.028	-	0.990	-0.734	-	-	-	-	-	-	-	PAVEMENT_GENERAL	Urban	F	1011101000011101	0000000000010000	-	-	-	-	-	-	-	-	-	-	Terminate	
Unknown	102.98539	01/16/0117 09:20.19	00006179	20.694	Inter748t1-2	-0.815	1	2	270.000	11.111	4.5	0.000	0.633	D	F	1280.3	274.949	-0.040	-0.179	1028.368	1502.792	0.041	-	1.350	-7.128	-	-	-	-	-	-	-	PAVEMENT_GENERAL	Urban	F	1011101000011101	0000000000010000	-	-	-	-	-	-	-	-	-	-	Terminate	
Unknown	103.98541	01/16/0117 09:20.20	00006239	12.133	Inter748t1-2	0.538	1	2	270.000	11.111	-24.0	0.000	1.000	D	F	935.5	275.002	-0.409	0.082	1011.828	1504.145	0.045	-	-0.352	-9.441	-	-	-	-	-	-	-	PAVEMENT_GENERAL	Urban	F	1011101000011101	0000000000010000	-	-	-	-	-	-	-	-	-	-	Terminate	
Unknown	104.98544	01/16/0117 09:20.21	00006299	2.737	Inter748t1-2	0.888	1	2	270.000	11.111	-66.5	0.000	1.000	D	F	477.5	269.693	-0.397	-0.020	1004.415	1504.495	0.045	-	-0.078	-9.294	12	354.1	-19.251	-	-	-	-	PAVEMENT_GENERAL	Urban	F	1011101000011101	0000000000010000	-	-	-	-	-	-	-	-	-	-	Terminate	
Unknown	105.98545	01/16/0117 09:20.22	00006359	-0.002	Inter748t1-2	0.870	1	2	270.000	11.111	-56.1	0.000	1.000	D	F	477.5	269.166	0.145	0.007	1003.985	1504.477	0.037	-	-0.009	-0.036	12	353.6	-21.876	-	-	-	-	PAVEMENT_GENERAL	Urban	F	1011101000011101	0000000000010000	-	-	-	-	-	-	-	-	-	-	Terminate	
Unknown	106.98547	01/16/0117 09:20.23	00006419	-0.001	Inter748t1-2	0.870	1	2	270.000	11.111	-40.5	0.000	0.304	D	F	477.5	269.165	0.205	0.002	1003.986	1504.477	0.031	-	0.000	0.001	12	353.6	-21.875	-	-	-	-	PAVEMENT_GENERAL	Urban	F	1011101000011101	0000000000010000	-	-	-	-	-	-	-	-	-	-	Terminate	
Unknown	107.98550	01/16/0117 09:20.24	00006479	0.159	Inter748t1-2	0.870	1	2	270.000	11.111	-17.7	0.206	0.000	D	F	1416.8	269.147	0.214	-0.008	1003.968	1504.476	0.017	-	-0.005	0.742	12	353.6	-21.715	-	-	-	-	PAVEMENT_GENERAL	Urban	F	1011101000011101	0000000000010000	-	-	-	-	-	-	-	-	-	-	Terminate	
Unknown	108.98551	01/16/0117 09:20.25	00006539	4.304	Inter748t1-2	0.802	1	2	270.000	11.111	-16.5	0.326	0.000	D	F	1914.5	268.394	0.225	0.019	1001.759	1504.409	0.007	-	-0.135	3.651	12	340.4	-16.610	-	-	-	-	PAVEMENT_GENERAL	Urban	F	1011101000011101	0000000000010000	-	-	-	-	-	-	-	-	-	-	Terminate	
Unknown	109.98553	01/16/0117 09:20.26	00006599	7.436	Inter752t1-2	-0.161	1	2	269.981	24.444	2.2	0.377	0.000	D	F	2462.5	267.270	0.658	-0.114	995.826	1504.137	0.031	-	0.046	2.819	12	185.5	14.841	-	-	-	-	FREEWAY_SMOOTH	Urban	F	1011101000011101	0000000000010000	-	-	-	-	-	-	-	-	-	-	Terminate	
Unknown	110.98555	01/16/0117 09:20.27	00006659	10.199	Inter752t1-2	-0.520	1	2	269.954	24.444	10.6	0.397	0.000	D	F	3173.2	268.020	-0.020	-0.316	987.014	1503.771	0.038	-	0.273	2.720	-	-	-	-	-	-	-	FREEWAY_SMOOTH	Urban	F	1011101000011101	0000000000010000	-	-	-	-	-	-	-	-	-	-	Terminate	
Unknown	111.98557	01/16/0117 09:20.28	00006719	12.199	Inter752t1-2	-0.699	1	2	269.554	24.444	1.6	0.392	0.000	D	F	2310.3	269.370	0.296	-0.577	975.681	1503.539	0.053	-	0.081	1.546	-	-	-	-	-	-	-	FREEWAY_SMOOTH	Urban	F	1011101000011101	0000000000010000	-	-	-	-	-	-	-	-	-	-	Terminate	
Unknown	112.98560	01/16/0117 09:20.29	00006779	13.695	Inter752t1-2	-0.697	1	2	268.879	24.444	-2.2	0.420	0.000	D	F	2472.6	269.097	0.305	-0.872	962.730	1503.364	0.073	-	-0.142	1.480	-	-	-	-	-	-	-	FREEWAY_SMOOTH	Urban	F	1011101000011101	0000000000010000	-	-	-	-	-	-	-	-	-	-	Terminate	
Unknown	113.98561	01/16/0117 09:20.30	00006839	15.161	Inter752t1-2	-0.607	1	2	267.776	24.444	-3.5	0.429	0.000	D	F	2653.9	268.383	0.312	-1.217	948.303	1503.031	0.097	-	-0.247	1.450	-	-	-	-	-	-	-	FREEWAY_SMOOTH	Urban	F	1011101000011101	0000000000010000	-	-	-	-	-	-	-	-	-	-	Terminate	
Unknown	114.98563	01/16/0117 09:20.31	00006899	16.588	Inter752t1-2	-0.381	1	2	266.133	24.444	-5.4	0.427	0.000	D	F	2861.8	267.244	0.331	-1.593	932.438	1502.409	0.129	-	-0.391	1.409	-	-	-	-	-	-	-	FREEWAY_SMOOTH	Urban	F	1011101000011101	0000000000010000	-	-	-	-	-	-	-	-	-	-	Terminate	
Unknown	115.98566	01/16/0117 09:20.32	00006959	17.972	Inter752t1-2	0.042	1	2	263.840	24.444	-4.2	0.422	0.000	D	F	3061.0	265.682	0.376	-2.011	915.188	1501.312	0.173	-	-0.437	1.361	-	-	-	-	-	-	-	FREEWAY_SMOOTH	Urban	F	1011101000011101	0000000000010000	-	-	-	-	-	-	-	-	-	-	Terminate	
Unknown	116.98567	01/16/0117 09:20.33	00007019	19.299	Inter752t1-2	0.838	1	2	260.785	24.444	-9.5	0.414	0.000	D	F	3244.6	263.561	0.441	-2.413	896.626	1499.596	0.241	-	-0.874	1.299	-	-	-	-	-	-	-	FREEWAY_SMOOTH	Urban	F	1011101000011101	0000000000010000	-	-	-	-	-	-	-	-	-	-	Terminate	
Unknown	117.98569	01/16/0117 09:20.34	00007079	20.566	Inter752t1-3	-1.542	2	2	256.876	24.444	-10.0	0.411	0.000	D	F	3417.2	261.001	0.553	-2.879	876.868	1496.917	0.347	-	-0.941	1.235	-	-	-	-	-	-	-	FREEWAY_SMOOTH	Urban	F	1011101000011101	0000000000010000	-	-	-	-	-	-	-	-	-	-	Terminate	
Unknown	118.98571	01/16/0117 09:20.35	00007139	21.779	Inter752t1-3	0.196	2	2	252.117	24.444	-36.6	0.432	0.000	D	F	3579.4	255.746	0.578	-3.116	856.077	1492.903	0.508	-	-2.887	1.183	-	-	-	-	-	-	-	FREEWAY_SMOOTH	Urban	F	1011101000011101	0000000000010000	-	-	-	-	-	-	-	-	-	-	Terminate	
Unknown	119.98573	01/16/0117 09:20.36	00007199	22.727	Inter752t1-3	1.427	2	2	246.618	24.444	-25.5	0.432	0.000	D	F	2624.8	248.297	0.289	-3.187	834.836	1486.125	0.584	-	-2.495	0.674	-	-	-	-	-	-	-	FREEWAY_GENERAL	Urban	F	1011101000011101	0000000000010000	-	-	-	-	-	-	-	-	-	-	Terminate	
Unknown	120.98576	01/16/0117 09:20.37	00007259	23.303	-	-	SH	2	-	-	-31.5	0.453	0.000	D	F	2625.5	239.190	0.069	-3.037	814.015	1476.345	0.616	-	-3.726	0.653	-	-	-	-	-	-	-	FREEWAY_GENERAL	Urban	F	1011101000011101	0000000000010000	-	-	-	-	-	-	-	-	-	-	Terminate	
Unknown	121.98577	01/16/0117 09:20.38	00007319	23.901	Inter752t1-3	1.161	2	2	235.201	24.444	-25.4	0.483	0.000	D	F	2674.6	231.331	-0.047	-3.111	794.452	1463.175	0.570	-	-3.003	0.678	-	-	-	-	-	-	-	FREEWAY_GENERAL	Urban	F	1011101000011101	0000000000010000	-	-	-	-	-	-	-	-	-	-	Terminate	
Unknown	122.98579	01/16/0117 09:20.39	00007379	24.543	Inter752t1-3	-0.191	2	2	229.322	24.444	-13.9	0.485	0.000	D	F	2731.3	225.472	-0.041	-3.245	776.217	1447.245	0.487	-	-2.031	0.673	-	-	-	-	-	-	-	FREEWAY_SMOOTH	Urban	F	1011101000011101	0000000000010000	-	-	-	-	-	-	-	-	-	-	Terminate	
Unknown	123.98581	01/16/0117 09:20.40	00007439	25.184	Inter752t1-3	-1.062	2	2	223.118	24.444	-19.7	0.485	0.000	D	F	2792.7	221.688	0.102	-3.248	758.939	1429.364	0.435	-	-1.978	0.642	-	-	-	-	-	-	-	FREEWAY_SMOOTH	Urban	F	1011101000011101	0000000000010000	-	-	-	-	-	-	-	-	-	-	Terminate	
Unknown	124.98583	01/16/0117 09:20.41	00007499	25.779	Inter752t1-3	-1.247	2	2	216.833	24.444	-21.4	0.487	0.000	D	F	2847.0	215.873	0.130	-3.172	742.770	1409.672	0.424	-	-2.592	0.618	-	-	-	-	-	-	-	FREEWAY_SMOOTH	Urban	F	1011101000011101	0000000000010000	-	-	-	-	-	-	-	-	-	-	Terminate	
Unknown	125.98586	01/16/0117 09:20.42	00007559	26.341	Inter752t1-3	-1.186	2	2	210.370	24.444	-29.1	0.483	0.000	D	F	2898.5	209.468	0.127	-3.084	728.364	1387.959	0.429	-	-3.239	0.596	-	-	-	-	-	-	-	FREEWAY_SMOOTH	Urban	F	1011101000011101	0000000000010000	-	-	-	-	-	-	-	-	-	-	Terminate	
Unknown	126.98587	01/16/0117 09:20.43	00007619	26.845	Inter752t1-3	-1.398	2	2	203.815	24.444	-31.0	0.464	0.000	D	F	2944.1	201.180	0.009	-3.009	716.520	1364.161	0.417	-	-3.816	0.590	-	-	-	-	-	-	-	FREEWAY_SMOOTH	Urban	F	1011101000011101	0000000000010000	-	-	-	-	-	-	-	-	-	-	Terminate	
Unknown	127.98589	01/16/0117 09:20.44	00007679	27.347	Inter752t1-2	1.336	1	2	197.060	24.444	-24.8	0.462	0.000	D	F	2992.5	193.593	-0.142	-3.016	707.953	1338.469	0.362	-	-3.274	0.558	-	-	-	-	-	-	-	FREEWAY_SMOOTH	Urban	F	1011101000011101	0000000000010000	-	-	-	-	-	-	-	-	-	-	Terminate	
