ZoneName	Time	SystemTime	Frame	Velocity	LaneName	LanePos	LaneIndex	LaneCount	LaneHeading	SpeedLimit	Steer	Accel	Brake	Gear	Horn	SubjectEngineRPM	SubjectHeading	SubjectPitch	SubjectRoll	SubjectX	SubjectY	SubjectZ	Signal	LatAccel	LongAccel	Collision	CollisionAngle	CollisionVelocity	VehAhead	HeadwayTime	HeadwayDist	TTC	TerrainType	CultureType	Slip	DigitalInputs	DigitalInputs2	ActiveTrigger	EntityName	DistToEntity	TimeToEntity	EntityVelocity	EntityAccel	EntityHeading	EntityX	EntityY	EntityZ	GrabData	
Unknown	0.98335	01/14/0117 10:38.39	00000059	0.002	Inter625t13-0	-0.088	1	2	0.000	11.111	1.2	0.000	0.000	D	F	0.0	0.000	0.153	-0.000	1503.500	523.206	0.019	-	-0.000	0.000	-	-	-	-	-	-	-	PAVEMENT_GENERAL	Urban	F	1011101000011101	0000000000000000	-	car	928.855	768863.438	0.000	0.000	180.000	696.000	987.000	-0.000	Terminate	
Unknown	1.98337	01/14/0117 10:38.40	00000119	0.001	Inter625t13-0	-0.088	1	2	0.000	11.111	1.2	0.000	0.499	D	F	0.0	0.000	0.196	0.000	1503.500	523.208	0.026	-	0.000	-0.003	-	-	-	-	-	-	-	PAVEMENT_GENERAL	Urban	F	1011101000011101	0000000000000000	-	car	928.854	2600122.250	0.000	0.000	180.000	696.000	987.000	-0.000	Terminate	
Unknown	2.98339	01/14/0117 10:38.41	00000179	0.000	Inter625t13-0	-0.088	1	2	0.000	11.111	1.2	0.000	0.478	D	F	0.0	0.000	0.204	0.000	1503.500	523.208	0.027	-	-0.000	-0.000	-	-	-	-	-	-	-	PAVEMENT_GENERAL	Urban	F	1011101000011101	0000000000000000	-	car	928.854	9830820.000	0.000	0.000	180.000	696.000	987.000	-0.000	Terminate	
Unknown	3.98341	01/14/0117 10:38.42	00000239	0.000	Inter625t13-0	-0.088	1	2	0.000	11.111	1.2	0.000	0.463	D	F	177.8	0.000	0.207	0.000	1503.500	523.208	0.027	-	0.000	-0.000	-	-	-	-	-	-	-	PAVEMENT_GENERAL	Urban	F	1011101000011101	0000000000000000	-	car	928.854	26039250.000	0.000	0.000	180.000	696.000	987.000	-0.000	Terminate	
Unknown	4.98343	01/14/0117 10:38.43	00000299	0.000	Inter625t13-0	-0.088	1	2	0.000	11.111	1.2	0.000	0.415	D	F	500.0	0.000	0.208	0.000	1503.500	523.208	0.028	-	-0.000	-0.000	-	-	-	-	-	-	-	PAVEMENT_GENERAL	Urban	F	1011101000011101	0000000000000000	-	car	928.854	66471328.000	0.000	0.000	180.000	696.000	987.000	-0.000	Terminate	
Unknown	5.98345	01/14/0117 10:38.44	00000359	0.151	Inter625t13-0	-0.088	1	2	0.000	11.111	3.4	0.173	0.000	D	F	1361.1	0.002	0.199	-0.000	1503.500	523.227	0.016	-	0.004	0.689	-	-	-	-	-	-	-	PAVEMENT_GENERAL	Urban	F	1011101000011101	0000000000000000	-	car	928.845	12312.770	0.000	0.000	180.000	696.000	987.000	-0.000	Terminate	
Unknown	6.98347	01/14/0117 10:38.45	00000419	3.950	Inter625t13-0	-0.079	1	2	0.000	11.111	3.0	0.247	0.000	D	F	1803.9	0.194	0.224	-0.001	1503.509	525.266	0.009	-	0.012	3.362	-	-	-	-	-	-	-	PAVEMENT_GENERAL	Urban	F	1011101000011101	0000000000000000	-	car	927.839	476.070	0.000	0.000	180.000	696.000	987.000	-0.000	Terminate	
Unknown	7.98349	01/14/0117 10:38.46	00000479	6.719	Inter625t13-0	-0.033	1	2	0.000	11.111	4.1	0.275	0.000	D	F	2227.2	0.613	0.220	-0.007	1503.555	530.679	0.015	-	0.061	2.381	-	-	-	-	-	-	-	PAVEMENT_GENERAL	Urban	F	1011101000011101	0000000000000000	-	car	925.204	285.342	0.000	0.000	180.000	696.000	987.000	-0.000	Terminate	
Unknown	8.98351	01/14/0117 10:38.47	00000539	9.143	Inter625t49-0	0.097	1	1	0.006	11.111	1.9	0.289	0.000	D	F	2281.0	1.118	0.219	-0.008	1503.686	538.613	0.015	-	0.057	2.150	-	-	-	-	-	-	-	PAVEMENT_GENERAL	Urban	F	1011101000011101	0000000000000000	-	car	921.441	215.235	0.000	0.000	180.000	696.000	987.000	-0.000	Terminate	
Unknown	9.98353	01/14/0117 10:38.48	00000599	10.703	Inter625t49-0	0.293	1	1	0.008	11.111	-1.2	0.287	0.000	D	F	2094.8	1.065	0.211	0.006	1503.882	548.580	0.020	-	-0.039	1.371	-	-	-	-	-	-	-	PAVEMENT_GENERAL	Urban	F	1011101000011101	0000000000000000	-	car	916.817	186.000	0.000	0.000	180.000	696.000	987.000	-0.000	Terminate	
Unknown	10.98355	01/14/0117 10:38.49	00000659	11.993	Inter625t49-0	0.481	1	1	0.006	11.111	-0.8	0.291	0.000	D	F	2201.3	0.865	0.210	0.005	1504.071	559.938	0.021	-	-0.036	1.224	-	-	-	-	-	-	-	PAVEMENT_GENERAL	Urban	F	1011101000011101	0000000000000000	-	car	911.621	167.481	0.000	0.000	180.000	696.000	987.000	-0.000	Terminate	
Unknown	11.98357	01/14/0117 10:38.50	00000719	13.200	Inter625t49-0	0.664	1	1	0.005	11.111	0.3	0.295	0.000	D	F	2352.8	0.861	0.209	-0.002	1504.257	572.537	0.021	-	0.017	1.184	-	-	-	-	-	-	-	PAVEMENT_GENERAL	Urban	F	1011101000011101	0000000000000000	-	car	905.968	154.979	0.000	0.000	180.000	696.000	987.000	-0.000	Terminate	
Unknown	12.98359	01/14/0117 10:38.51	00000779	14.364	Inter625t15-0	0.852	1	2	0.000	11.111	-2.8	0.293	0.000	D	F	2492.6	0.569	0.207	0.018	1504.445	586.321	0.021	-	-0.140	1.145	-	-	-	-	-	-	-	PAVEMENT_GENERAL	Urban	F	1011101000011101	0000000000000000	-	car	899.931	143.973	0.000	0.000	180.000	696.000	987.000	-0.000	Terminate	
Unknown	13.98361	01/14/0117 10:38.52	00000839	15.484	Inter614t1-0	0.941	1	2	0.000	11.111	-0.7	0.293	0.000	D	F	2653.9	0.113	0.205	0.010	1504.534	601.248	0.021	-	-0.077	1.095	-	-	-	-	-	-	-	PAVEMENT_GENERAL	Urban	F	1011101000011101	0000000000000000	-	car	893.482	134.564	0.000	0.000	180.000	696.000	987.000	-0.000	Terminate	
Unknown	14.98363	01/14/0117 10:38.54	00000899	16.553	Inter614t1-0	0.953	1	2	0.000	11.111	-0.7	0.287	0.000	D	F	2806.1	0.000	0.203	0.005	1504.547	617.270	0.022	-	-0.042	1.051	-	-	-	-	-	-	-	PAVEMENT_GENERAL	Urban	F	1011101000011101	0000000000000000	-	car	886.712	128.599	0.000	0.000	180.000	696.000	987.000	-0.000	Terminate	
Unknown	15.98365	01/14/0117 10:38.55	00000959	17.576	Inter614t1-0	0.922	1	2	0.000	11.111	-1.0	0.293	0.000	D	F	2946.1	359.803	0.201	0.009	1504.515	634.338	0.022	-	-0.058	1.006	-	-	-	-	-	-	-	PAVEMENT_GENERAL	Urban	F	1011101000011101	0000000000000000	-	car	879.722	124.217	0.000	0.000	180.000	696.000	987.000	-0.000	Terminate	
Unknown	16.98367	01/14/0117 10:38.56	00001019	18.382	Inter614t1-0	0.842	1	2	0.000	11.111	-0.5	0.293	0.000	D	F	2199.8	359.680	0.195	0.004	1504.435	652.367	0.024	-	-0.032	0.609	-	-	-	-	-	-	-	PAVEMENT_GENERAL	Urban	F	1011101000011101	0000000000000000	-	car	872.596	122.468	0.000	0.000	180.000	696.000	987.000	-0.000	Terminate	
Unknown	17.98369	01/14/0117 10:38.57	00001079	18.953	Inter614t1-0	0.723	1	2	0.000	11.111	0.2	0.279	0.000	D	F	2215.2	359.572	0.194	0.001	1504.316	671.040	0.024	-	-0.014	0.536	-	-	-	-	-	-	-	PAVEMENT_GENERAL	Urban	F	1011101000011101	0000000000000000	-	car	865.515	123.088	0.000	0.000	180.000	696.000	987.000	-0.000	Terminate	
Unknown	18.98371	01/14/0117 10:38.58	00001139	19.483	Inter614t1-0	0.599	1	2	0.000	11.111	1.6	0.284	0.000	D	F	2258.9	359.778	0.194	-0.014	1504.192	690.258	0.024	-	0.110	0.527	-	-	-	-	-	-	-	PAVEMENT_GENERAL	Urban	F	1011101000011101	0000000000000000	-	car	858.588	126.519	0.000	0.000	180.000	696.000	987.000	-0.000	Terminate	
Unknown	19.98373	01/14/0117 10:38.59	00001199	20.008	Inter614t1-0	0.563	1	2	0.000	11.111	-0.3	0.286	0.000	D	F	2302.2	0.006	0.193	0.003	1504.156	710.004	0.024	-	0.008	0.522	-	-	-	-	-	-	-	PAVEMENT_GENERAL	Urban	F	1011101000011101	0000000000000000	-	car	851.949	131.365	0.000	0.000	180.000	696.000	987.000	-0.000	Terminate	
Unknown	20.98375	01/14/0117 10:39.00	00001259	20.517	Inter614t1-0	0.523	1	2	0.000	11.111	-1.5	0.280	0.000	D	F	2338.1	359.658	0.191	0.019	1504.116	730.268	0.024	-	-0.138	0.496	-	-	-	-	-	-	-	PAVEMENT_GENERAL	Urban	F	1011101000011101	0000000000000000	-	car	845.558	133.603	0.000	0.000	180.000	696.000	987.000	-0.000	Terminate	
Unknown	21.98377	01/14/0117 10:39.01	00001319	21.007	Inter614t1-0	0.377	1	2	0.000	11.111	1.7	0.284	0.000	D	F	2375.6	359.604	0.190	-0.012	1503.970	751.031	0.025	-	0.083	0.485	-	-	-	-	-	-	-	PAVEMENT_GENERAL	Urban	F	1011101000011101	0000000000000000	-	car	839.363	139.233	0.000	0.000	180.000	696.000	987.000	-0.000	Terminate	
Unknown	22.98379	01/14/0117 10:39.02	00001379	21.485	Inter614t1-0	0.281	1	2	0.000	11.111	0.3	0.282	0.000	D	F	2413.4	359.880	0.190	-0.005	1503.874	772.278	0.025	-	0.043	0.476	-	-	-	-	-	-	-	PAVEMENT_GENERAL	Urban	F	1011101000011101	0000000000000000	-	car	833.563	149.860	0.000	0.000	180.000	696.000	987.000	-0.000	Terminate	
Unknown	23.98381	01/14/0117 10:39.03	00001439	21.947	Inter614t1-0	0.240	1	2	0.000	11.111	1.5	0.275	0.000	D	F	2441.3	0.000	0.189	-0.014	1503.833	793.997	0.025	-	0.099	0.448	-	-	-	-	-	-	-	PAVEMENT_GENERAL	Urban	F	1111101000011101	0000000000000000	-	car	828.209	162.244	0.000	0.000	180.000	696.000	987.000	-0.000	Terminate	
Unknown	24.98383	01/14/0117 10:39.04	00001499	22.392	Inter612t1-0	0.283	1	2	0.000	11.111	1.5	0.280	0.000	D	F	2485.1	0.302	0.187	-0.015	1503.876	816.168	0.025	-	0.117	0.441	-	-	-	-	-	-	-	PAVEMENT_GENERAL	Urban	F	1011101000011101	0000000000000000	-	car	823.381	182.284	0.000	0.000	180.000	696.000	987.000	-0.000	Terminate	
Unknown	25.98385	01/14/0117 10:39.05	00001559	22.828	Inter612t1-0	0.443	1	2	0.000	11.111	0.9	0.279	0.000	D	F	2526.0	0.563	0.186	-0.009	1504.036	838.778	0.025	-	0.081	0.429	-	-	-	-	-	-	-	PAVEMENT_GENERAL	Urban	F	1011101000011101	0000000000000000	-	car	819.159	210.148	0.000	0.000	180.000	696.000	987.000	-0.000	Terminate	
Unknown	26.98387	01/14/0117 10:39.06	00001619	23.257	Inter612t1-0	0.676	1	2	0.000	11.111	-2.1	0.270	0.000	D	F	2561.7	0.454	0.186	0.024	1504.270	861.819	0.025	-	-0.169	0.422	-	-	-	-	-	-	-	PAVEMENT_GENERAL	Urban	F	1011101000011101	0000000000000000	-	car	815.546	241.484	0.000	0.000	180.000	696.000	987.000	-0.000	Terminate	
Unknown	27.98389	01/14/0117 10:39.07	00001679	23.167	Inter612t1-0	0.859	1	2	0.000	11.111	0.9	0.023	0.000	D	F	1601.9	0.540	0.173	-0.011	1504.452	885.118	0.029	-	0.088	-0.536	-	-	-	-	-	-	-	PAVEMENT_GENERAL	Urban	F	1011101000011101	0000000000000000	-	car	812.487	303.181	0.000	0.000	180.000	696.000	987.000	-0.000	Terminate	
Unknown	28.98391	01/14/0117 10:39.08	00001739	22.256	Inter612t1-0	1.059	1	2	0.000	11.111	-4.8	0.049	0.104	D	F	1567.3	0.113	0.148	0.053	1504.652	907.930	0.031	-	-0.382	-1.684	-	-	-	11	1.917	42.666	9.752	PAVEMENT_GENERAL	Urban	F	1011101000011101	0000000000000000	-	car	810.149	381.727	0.000	0.000	180.000	696.000	987.000	-0.000	Terminate	
Unknown	29.98393	01/14/0117 10:39.09	00001799	19.643	Inter612t1-0	0.998	1	2	0.000	11.111	3.2	0.088	0.146	D	F	1511.3	359.590	0.163	-0.012	1504.591	929.034	0.035	-	0.064	-2.329	-	-	-	-	-	-	-	PAVEMENT_GENERAL	Urban	F	1011101000011101	0000000000000000	-	car	808.306	523.234	0.000	0.000	180.000	696.000	987.000	-0.000	Terminate	
Unknown	30.98395	01/14/0117 10:39.10	00001859	18.345	Inter612t1-0	0.979	1	2	0.000	11.111	3.0	0.115	0.000	D	F	1553.6	0.408	0.187	-0.027	1504.572	947.846	0.027	-	0.227	-0.119	-	-	-	-	-	-	-	PAVEMENT_GENERAL	Urban	F	1011101000011101	0000000000000000	-	car	807.160	1066.341	0.000	0.000	180.000	696.000	987.000	-0.000	Terminate	
Unknown	31.98397	01/14/0117 10:39.11	00001919	18.261	Inter612t1-0	1.152	1	2	0.000	11.111	-4.4	0.134	0.000	D	F	1601.6	0.521	0.190	0.027	1504.745	966.144	0.027	-	-0.182	-0.037	-	-	-	11	2.087	38.105	100.247	PAVEMENT_GENERAL	Urban	F	1011101000011101	0000000000000000	-	car	806.655	2648.215	0.000	0.000	180.000	696.000	987.000	-0.000	Terminate	
Unknown	32.98399	01/14/0117 10:39.12	00001979	18.267	Inter612t1-0	1.184	1	2	0.000	11.111	-3.8	0.146	0.000	D	F	1636.2	359.574	0.190	0.035	1504.778	984.404	0.027	-	-0.273	0.021	-	-	-	11	2.065	37.713	97.760	PAVEMENT_GENERAL	Urban	F	1011101000011101	0000000000000000	-	car	806.422	4146.892	0.000	0.000	180.000	696.000	987.000	-0.000	Terminate	
Unknown	33.98401	01/14/0117 10:39.13	00002039	18.313	Inter613t1-0	1.043	1	2	0.000	11.111	1.7	0.155	0.000	D	F	1668.8	359.800	0.191	-0.022	1504.636	1002.690	0.026	-	0.166	0.062	-	-	-	11	2.037	37.308	86.372	PAVEMENT_GENERAL	Urban	F	1011101000011101	0000000000000000	-	car	806.429	-2768.313	0.000	0.000	180.000	696.000	987.000	-0.000	Terminate	
Unknown	34.98403	01/14/0117 10:39.14	00002099	18.385	Inter613t1-0	1.023	1	2	0.000	11.111	0.7	0.160	0.000	D	F	1677.4	0.103	0.191	-0.008	1504.616	1021.038	0.026	-	0.063	0.073	-	-	-	11	2.004	36.842	73.097	PAVEMENT_GENERAL	Urban	F	1011101000011101	0000000000000000	-	car	806.973	-1000.806	0.000	0.000	180.000	696.000	987.000	-0.000	Terminate	
Unknown	35.98405	01/14/0117 10:39.15	00002159	18.464	Inter613t1-0	1.054	1	2	0.000	11.111	-0.9	0.160	0.000	D	F	1679.7	0.028	0.191	0.010	1504.647	1039.462	0.026	-	-0.064	0.076	-	-	-	11	1.966	36.296	62.296	PAVEMENT_GENERAL	Urban	F	1011101000011101	0000000000000000	-	car	807.987	-670.852	0.000	0.000	180.000	696.000	987.000	-0.000	Terminate	
Unknown	36.98407	01/14/0117 10:39.16	00002219	18.537	Inter613t1-0	1.052	1	2	0.000	11.111	-0.3	0.162	0.000	D	F	1691.5	0.000	0.191	0.003	1504.645	1057.960	0.026	-	-0.017	0.084	-	-	-	11	1.925	35.675	54.374	PAVEMENT_GENERAL	Urban	F	1011101000011101	0000000000000000	-	car	809.393	-503.624	0.000	0.000	180.000	696.000	987.000	-0.000	Terminate	
Unknown	37.98409	01/14/0117 10:39.17	00002279	18.625	Inter613t1-0	1.029	1	2	0.000	11.111	-0.8	0.166	0.000	D	F	1705.2	359.869	0.191	0.006	1504.622	1076.541	0.026	-	-0.046	0.093	-	-	-	11	1.878	34.971	46.986	PAVEMENT_GENERAL	Urban	F	1011101000011101	0000000000000000	-	car	811.205	-404.103	0.000	0.000	180.000	696.000	987.000	-0.000	Terminate	
Unknown	38.98411	01/14/0117 10:39.18	00002339	18.721	Inter613t1-0	0.965	1	2	0.000	11.111	-1.4	0.166	0.000	D	F	1711.1	359.698	0.191	0.012	1504.558	1095.214	0.026	-	-0.079	0.099	-	-	-	-	-	-	-	PAVEMENT_GENERAL	Urban	F	1111101000011101	0000000000000000	-	car	813.408	-340.951	0.000	0.000	180.000	696.000	987.000	-0.000	Terminate	
Unknown	39.98413	01/14/0117 10:39.19	00002399	18.821	Inter613t1-0	0.831	1	2	0.000	11.111	0.1	0.169	0.000	D	F	1718.6	359.477	0.190	0.002	1504.424	1113.984	0.026	-	-0.027	0.101	-	-	-	-	-	-	-	PAVEMENT_GENERAL	Urban	F	1011101000011101	0000000000000000	-	car	815.977	-296.629	0.000	0.000	180.000	696.000	987.000	-0.000	Terminate	
Unknown	40.98415	01/14/0117 10:39.20	00002459	18.908	Inter613t1-0	0.663	1	2	0.000	11.111	0.1	0.168	0.000	D	F	1716.1	359.500	0.190	-0.001	1504.256	1132.849	0.026	-	0.010	0.087	-	-	-	-	-	-	-	PAVEMENT_GENERAL	Urban	F	1011101000011101	0000000000000000	-	car	818.951	-256.305	0.000	0.000	180.000	696.000	987.000	-0.000	Terminate	
Unknown	41.98417	01/14/0117 10:39.21	00002519	19.002	Inter613t1-0	0.501	1	2	0.000	11.111	0.1	0.168	0.000	D	F	1726.0	359.524	0.190	-0.001	1504.094	1151.803	0.026	-	0.007	0.098	-	-	-	-	-	-	-	PAVEMENT_GENERAL	Urban	F	1011101000011101	0000000000000000	-	car	822.369	-225.774	0.000	0.000	180.000	696.000	987.000	-0.000	Terminate	
Unknown	42.98419	01/14/0117 10:39.22	00002579	18.852	Inter613t1-0	0.383	1	2	0.000	11.111	5.0	0.044	0.188	D	F	1370.7	0.102	0.149	-0.051	1503.976	1170.828	0.028	-	0.328	-1.983	-	-	-	-	-	-	-	PAVEMENT_GENERAL	Urban	F	1011101000011101	0000000000000000	-	car	826.265	-196.037	0.000	0.000	180.000	696.000	987.000	-0.000	Terminate	
Unknown	43.98421	01/14/0117 10:39.23	00002639	13.678	Inter613t1-0	0.501	1	2	0.000	11.111	-1.1	0.097	0.567	D	F	1404.5	0.812	-0.118	-0.006	1504.094	1187.386	0.041	-	0.061	-6.594	-	-	-	-	-	-	-	PAVEMENT_GENERAL	Urban	F	1011101000011101	0000000000000000	-	car	830.209	-238.580	0.000	0.000	180.000	696.000	987.000	-0.000	Terminate	
Unknown	44.98423	01/14/0117 10:39.24	00002699	8.483	Inter613t1-0	0.628	1	2	0.000	11.111	-2.2	0.108	0.334	D	F	1365.8	0.518	0.164	0.006	1504.222	1198.225	0.037	-	-0.058	-3.635	-	-	-	-	-	-	-	PAVEMENT_GENERAL	Urban	F	1011101000011101	0000000000000000	-	car	833.008	-375.389	0.000	0.000	180.000	696.000	987.000	-0.000	Terminate	
Unknown	45.98425	01/14/0117 10:39.25	00002759	8.293	Inter615t9-0	0.672	1	2	0.000	11.111	-4.5	0.189	0.000	D	F	1644.7	0.162	0.212	0.012	1504.266	1206.239	0.022	-	-0.096	0.993	-	-	-	-	-	-	-	PAVEMENT_GENERAL	Urban	F	1011101000011101	0000000000000000	-	car	835.112	-380.701	0.000	0.000	180.000	696.000	987.000	-0.000	Terminate	
Unknown	46.98427	01/14/0117 10:39.26	00002819	9.383	Inter615t9-0	0.509	1	2	0.000	11.111	-33.0	0.194	0.000	D	F	1845.5	357.532	0.209	0.117	1504.102	1215.079	0.021	-	-0.854	1.029	-	-	-	22	6.096	57.197	6.096	PAVEMENT_GENERAL	Urban	F	1011101000011101	0000000000000000	-	car	837.312	-388.075	0.000	0.000	180.000	696.000	987.000	-0.000	Terminate	
Unknown	47.98429	01/14/0117 10:39.27	00002879	10.339	Inter615t31-0	-0.058	1	1	355.635	11.111	-25.7	0.192	0.000	D	F	1915.9	351.666	0.205	0.108	1503.097	1224.896	0.022	-	-0.853	0.900	-	-	-	22	4.806	49.691	4.806	PAVEMENT_GENERAL	Urban	F	1011101000011101	0000000000000000	-	car	839.068	-576.728	0.000	0.000	180.000	696.000	987.000	-0.000	Terminate	
Unknown	48.98431	01/14/0117 10:39.28	00002939	11.187	Inter615t31-0	-0.969	1	1	354.556	11.111	32.3	0.189	0.000	D	F	1993.5	353.477	0.206	-0.137	1501.519	1235.554	0.023	-	1.153	0.779	-	-	-	22	3.479	38.916	3.479	PAVEMENT_GENERAL	Urban	F	1111101000011101	0000000000000000	-	car	840.635	-407.537	0.000	0.000	180.000	696.000	987.000	-0.000	Terminate	
Unknown	49.98433	01/14/0117 10:39.29	00002999	9.526	Inter615t31-0	-0.601	1	1	356.248	11.111	22.3	0.065	0.287	D	F	1197.3	358.337	0.141	-0.091	1500.801	1246.376	0.034	-	0.704	-3.461	-	-	-	22	2.954	28.137	2.954	PAVEMENT_GENERAL	Urban	F	1011101000011101	0000000000000000	-	car	843.205	-317.274	0.000	0.000	180.000	696.000	987.000	-0.000	Terminate	
Unknown	50.98435	01/14/0117 10:39.30	00003059	5.705	Inter615t31-0	-0.006	1	1	356.903	11.111	4.5	0.081	0.331	D	F	1168.7	0.804	0.147	-0.003	1500.794	1253.906	0.034	-	0.042	-3.440	-	-	-	22	3.618	20.640	3.618	PAVEMENT_GENERAL	Urban	F	1011101000011101	0000000000000000	-	car	845.539	-451.749	0.000	0.000	180.000	696.000	987.000	-0.000	Terminate	
Unknown	51.98437	01/14/0117 10:39.31	00003119	3.084	Inter615t31-0	0.275	1	1	356.903	11.111	-5.8	0.109	0.290	D	F	1318.1	0.720	0.177	0.002	1500.852	1258.031	0.027	-	-0.017	-1.677	-	-	-	22	5.359	16.524	5.359	PAVEMENT_GENERAL	Urban	F	1011101000011101	0000000000000000	-	car	846.902	-829.690	0.000	0.000	180.000	696.000	987.000	-0.000	Terminate	
Unknown	52.98439	01/14/0117 10:39.32	00003179	1.461	Inter615t31-0	0.412	1	1	356.903	11.111	-5.6	0.113	0.379	D	F	1292.0	0.444	0.174	-0.000	1500.868	1260.274	0.025	-	0.001	-1.410	-	-	-	22	9.780	14.285	9.780	PAVEMENT_GENERAL	Urban	F	1011101000011101	0000000000000000	-	car	847.635	-1764.826	0.000	0.000	180.000	696.000	987.000	-0.000	Terminate	
Unknown	53.98441	01/14/0117 10:39.33	00003239	0.056	Inter615t31-0	0.454	1	1	356.903	11.111	-5.5	0.097	0.570	D	F	1179.3	0.358	0.198	-0.000	1500.871	1261.001	0.026	-	0.002	-0.661	-	-	-	22	241.718	13.560	241.718	PAVEMENT_GENERAL	Urban	F	1111101000011101	0000000000000000	-	car	847.872	-46055.945	0.000	0.000	180.000	696.000	987.000	-0.000	Terminate	
Unknown	54.98443	01/14/0117 10:39.34	00003299	0.000	Inter615t31-0	0.454	1	1	356.903	11.111	-5.5	0.093	0.591	D	F	1133.9	0.357	0.213	-0.000	1500.871	1261.005	0.027	-	0.000	0.000	-	-	-	22	-	13.555	-	PAVEMENT_GENERAL	Urban	F	1011101000011101	0000000000000000	-	car	847.873	-18562632.000	0.000	0.000	180.000	696.000	987.000	-0.000	Terminate	
Unknown	55.98445	01/14/0117 10:39.35	00003359	0.000	Inter615t31-0	0.454	1	1	356.903	11.111	-5.4	0.097	0.472	D	F	1160.5	0.357	0.209	-0.000	1500.871	1261.005	0.027	-	0.000	-0.000	-	-	-	22	-	13.555	-	PAVEMENT_GENERAL	Urban	F	1011101000011101	0000000000000000	-	car	847.873	-54308572.000	0.000	0.000	180.000	696.000	987.000	-0.000	Terminate	
Unknown	56.98447	01/14/0117 10:39.36	00003419	0.000	Inter615t31-0	0.454	1	1	356.903	11.111	-3.6	0.102	0.433	D	F	1186.5	0.357	0.209	-0.000	1500.871	1261.005	0.028	-	0.000	0.000	-	-	-	22	-	13.696	-	PAVEMENT_GENERAL	Urban	F	1011101000011101	0000000000000000	-	car	847.873	-106760784.000	0.000	0.000	180.000	696.000	987.000	-0.000	Terminate	
Unknown	57.98449	01/14/0117 10:39.37	00003479	0.000	Inter615t31-0	0.454	1	1	356.903	11.111	-3.5	0.102	0.355	D	F	1183.7	0.357	0.208	0.000	1500.871	1261.005	0.028	-	-0.000	0.002	-	-	-	22	-	15.445	-	PAVEMENT_GENERAL	Urban	F	1011101000011101	0000000000000000	-	car	847.873	-9607865.000	0.000	0.000	180.000	696.000	987.000	-0.000	Terminate	
Unknown	58.98451	01/14/0117 10:39.38	00003539	1.931	Inter615t31-0	0.486	1	1	356.903	11.111	-3.5	0.173	0.000	D	F	1450.0	0.310	0.235	0.001	1500.872	1261.560	0.010	-	-0.010	3.475	-	-	-	22	9.660	18.652	-	PAVEMENT_GENERAL	Urban	F	1011101000011101	0000000000000000	-	car	848.054	-1339.173	0.000	0.000	180.000	696.000	987.000	-0.000	Terminate	
Unknown	59.98453	01/14/0117 10:39.39	00003599	4.828	Inter615t31-0	0.680	1	1	356.903	11.111	-1.6	0.183	0.000	D	F	1772.3	0.122	0.211	0.002	1500.880	1265.018	0.014	-	-0.014	2.194	-	-	-	22	4.340	20.956	-	PAVEMENT_GENERAL	Urban	F	1011101000011101	0000000000000000	-	car	849.183	-535.409	0.000	0.000	180.000	696.000	987.000	-0.000	Terminate	
Unknown	60.98455	01/14/0117 10:39.40	00003659	6.530	Inter615t11-0	0.819	LT1	2	0.000	11.111	-1.4	0.085	0.000	D	F	1442.2	0.000	0.175	0.003	1500.881	1270.801	0.020	-	-0.021	0.522	-	-	-	22	3.505	22.885	-	PAVEMENT_GENERAL	Urban	F	1011101000011101	0000000000000000	-	car	851.090	-392.504	0.000	0.000	180.000	696.000	987.000	-0.000	Terminate	
Unknown	61.98457	01/14/0117 10:39.41	00003719	6.948	Inter615t11-0	0.791	LT1	2	0.000	11.111	-13.8	0.037	0.000	D	F	1174.2	359.555	0.202	0.039	1500.854	1277.598	0.026	-	-0.256	-0.085	-	-	-	22	3.681	25.574	-	PAVEMENT_GENERAL	Urban	F	1011101000011101	0000000000000000	-	car	853.349	-369.638	0.000	0.000	180.000	696.000	987.000	-0.000	Terminate	
Unknown	62.98459	01/14/0117 10:39.42	00003779	6.490	Inter615t65-0	0.663	1	1	350.464	11.111	-52.9	0.000	0.000	D	F	984.5	355.369	0.194	0.113	1500.523	1284.328	0.029	-	-0.819	-0.518	-	-	-	22	4.671	30.312	-	PAVEMENT_GENERAL	Urban	F	1011101000011101	0000000000000000	-	car	855.348	-488.528	0.000	0.000	180.000	696.000	987.000	-0.000	Terminate	
Unknown	63.98461	01/14/0117 10:39.43	00003839	5.997	Inter615t65-0	1.396	1	1	335.710	11.111	-71.9	0.046	0.000	D	F	1047.3	347.986	0.195	0.129	1499.478	1290.477	0.029	-	-0.976	-0.413	-	-	-	22	6.147	36.862	-	PAVEMENT_GENERAL	Urban	F	1011101000011101	0000000000000000	-	car	856.521	-946.601	0.000	0.000	180.000	696.000	987.000	-0.000	Terminate	
Unknown	64.98463	01/14/0117 10:39.44	00003899	6.685	-Inter615t59-0	0.015	-1	1	89.733	11.111	-110.7	0.141	0.000	D	F	1521.3	337.035	0.203	0.229	1497.402	1296.389	0.022	-	-1.740	0.835	-	-	-	22	7.120	47.599	-	PAVEMENT_GENERAL	Urban	F	1011101000011101	0000000000000000	-	car	856.690	3957.534	0.000	0.000	180.000	696.000	987.000	-0.000	Terminate	
Unknown	65.98465	01/14/0117 10:39.45	00003959	7.641	Inter615t75-0	-1.389	1	1	269.734	11.111	-163.5	0.171	0.000	D	F	1672.9	317.220	0.193	0.419	1493.280	1302.196	0.023	-	-3.151	0.844	-	-	-	22	7.449	56.914	-	PAVEMENT_GENERAL	Urban	F	1011101000011101	0000000000000000	-	car	854.964	309.297	0.000	0.000	180.000	696.000	987.000	-0.000	Terminate	
Unknown	66.98467	01/14/0117 10:39.46	00004019	8.639	Inter615t77-0	-0.714	1	1	269.734	11.111	-112.3	0.185	0.000	D	F	1781.5	292.708	0.181	0.340	1486.396	1306.439	0.023	-	-2.698	0.960	-	-	-	22	8.124	70.183	-	PAVEMENT_GENERAL	Urban	F	1011101000011101	0000000000000000	-	car	850.147	138.480	0.000	0.000	180.000	696.000	987.000	-0.000	Terminate	
Unknown	67.98470	01/14/0117 10:39.47	00004079	9.614	Inter615t3-4	1.414	2	2	270.000	11.111	-98.2	0.190	0.000	D	F	1859.8	277.444	0.200	0.368	1477.521	1308.545	0.023	-	-2.758	0.865	-	-	-	-	-	-	-	PAVEMENT_GENERAL	Urban	F	1011101000011101	0000000000000000	-	car	842.724	101.026	0.000	0.000	180.000	696.000	987.000	-0.000	Terminate	
Unknown	68.98471	01/14/0117 10:39.48	00004139	10.537	Inter615t3-4	1.320	2	2	270.000	11.111	0.3	0.210	0.000	D	F	1968.5	266.105	0.210	0.009	1467.456	1308.451	0.022	-	-0.167	0.966	-	-	-	-	-	-	-	PAVEMENT_GENERAL	Urban	F	1011101000011101	0000000000000000	-	car	833.389	83.508	0.000	0.000	180.000	696.000	987.000	-0.000	Terminate	
Unknown	69.98473	01/14/0117 10:39.49	00004199	11.521	Inter615t17-0	0.670	1	1	270.095	11.111	11.4	0.215	0.000	D	F	2075.3	267.316	0.208	-0.055	1456.435	1307.813	0.022	-	0.370	0.935	-	-	-	-	-	-	-	PAVEMENT_GENERAL	Urban	F	1011101000011101	0000000000000000	-	car	822.978	76.111	0.000	0.000	180.000	696.000	987.000	-0.000	Terminate	
Unknown	70.98476	01/14/0117 10:39.50	00004259	12.292	Inter615t17-0	0.260	1	1	270.095	11.111	3.1	0.182	0.000	D	F	1770.9	268.521	0.204	-0.016	1444.498	1307.421	0.024	-	0.119	0.591	-	-	-	-	-	-	-	PAVEMENT_GENERAL	Urban	F	1011101000011101	0000000000000000	-	car	811.839	71.079	0.000	0.000	180.000	696.000	987.000	-0.000	Terminate	
Unknown	71.98477	01/14/0117 10:39.51	00004319	12.868	Inter615t17-0	-0.009	1	1	270.061	11.111	4.8	0.185	0.000	D	F	1762.3	269.250	0.203	-0.027	1431.918	1307.175	0.024	-	0.193	0.570	-	-	-	-	-	-	-	PAVEMENT_GENERAL	Urban	F	1011101000011101	0000000000000000	-	car	800.191	67.435	0.000	0.000	180.000	696.000	987.000	-0.000	Terminate	
Unknown	72.98479	01/14/0117 10:39.52	00004379	13.418	Inter615t17-0	-0.104	1	1	270.061	11.111	-0.1	0.190	0.000	D	F	1788.9	269.974	0.202	-0.002	1418.770	1307.094	0.024	-	0.054	0.532	-	-	-	-	-	-	-	PAVEMENT_GENERAL	Urban	F	1011101000011101	0000000000000000	-	car	788.120	64.225	0.000	0.000	180.000	696.000	987.000	-0.000	Terminate	
Unknown	73.98481	01/14/0117 10:39.53	00004439	13.954	Inter615t1-3	-0.110	2	2	270.000	11.111	0.1	0.194	0.000	D	F	1827.4	269.996	0.202	-0.001	1405.083	1307.090	0.024	-	0.004	0.532	-	-	-	-	-	-	-	PAVEMENT_GENERAL	Urban	F	1011101000011101	0000000000000000	-	car	775.623	60.982	0.000	0.000	180.000	696.000	987.000	-0.000	Terminate	
Unknown	74.98483	01/14/0117 10:39.54	00004499	14.460	Inter616t1-3	-0.107	2	2	270.000	11.111	0.5	0.194	0.000	D	F	1846.8	270.119	0.201	-0.005	1390.874	1307.099	0.024	-	0.037	0.495	-	-	-	-	-	-	-	PAVEMENT_GENERAL	Urban	F	1011101000011101	0000000000000000	-	car	762.698	58.127	0.000	0.000	180.000	696.000	987.000	-0.000	Terminate	
Unknown	75.98486	01/14/0117 10:39.55	00004559	14.846	Inter616t1-3	-0.066	2	2	270.000	11.111	0.5	0.141	0.000	D	F	1731.7	270.216	0.194	-0.004	1376.188	1307.141	0.026	-	0.028	0.158	-	-	-	-	-	-	-	PAVEMENT_GENERAL	Urban	F	1011101000011101	0000000000000000	-	car	749.402	55.890	0.000	0.000	180.000	696.000	987.000	-0.000	Terminate	
Unknown	76.98487	01/14/0117 10:39.56	00004619	15.132	Inter616t1-3	0.003	2	2	270.000	11.111	0.6	0.175	0.000	D	F	1830.3	270.329	0.199	-0.005	1361.214	1307.210	0.025	-	0.034	0.345	-	-	-	-	-	-	-	PAVEMENT_GENERAL	Urban	F	1011101000011101	0000000000000000	-	car	735.912	54.124	0.000	0.000	180.000	696.000	987.000	-0.000	Terminate	
Unknown	77.98489	01/14/0117 10:39.57	00004679	15.450	Inter616t1-3	0.106	2	2	270.000	11.111	0.5	0.175	0.000	D	F	1845.1	270.445	0.198	-0.004	1345.922	1307.312	0.025	-	0.029	0.322	-	-	-	-	-	-	-	PAVEMENT_GENERAL	Urban	F	1011101000011101	0000000000000000	-	car	722.209	52.317	0.000	0.000	180.000	696.000	987.000	-0.000	Terminate	
Unknown	78.98492	01/14/0117 10:39.58	00004739	15.776	Inter616t1-3	0.228	2	2	270.000	11.111	-0.1	0.180	0.000	D	F	1872.1	270.435	0.197	0.001	1330.311	1307.435	0.025	-	-0.009	0.328	-	-	-	-	-	-	-	PAVEMENT_GENERAL	Urban	F	1011101000011101	0000000000000000	-	car	708.294	50.495	0.000	0.000	180.000	696.000	987.000	-0.000	Terminate	
Unknown	79.98493	01/14/0117 10:39.59	00004799	16.099	Inter616t1-3	0.346	2	2	270.000	11.111	-0.1	0.182	0.000	D	F	1890.6	270.416	0.196	0.001	1314.373	1307.553	0.025	-	-0.004	0.315	-	-	-	-	-	-	-	PAVEMENT_GENERAL	Urban	F	1011101000011101	0000000000000000	-	car	694.160	48.751	0.000	0.000	180.000	696.000	987.000	-0.000	Terminate	
Unknown	80.98495	01/14/0117 10:40.00	00004859	16.409	Inter616t1-3	0.438	2	2	270.000	11.111	-4.2	0.183	0.000	D	F	1912.5	269.957	0.196	0.041	1298.118	1307.645	0.025	-	-0.283	0.299	-	-	-	-	-	-	-	PAVEMENT_GENERAL	Urban	F	1011101000011101	0000000000000000	-	car	679.813	46.918	0.000	0.000	180.000	696.000	987.000	-0.000	Terminate	
Unknown	81.98497	01/14/0117 10:40.01	00004919	16.707	Inter616t1-3	0.368	2	2	270.000	11.111	-0.9	0.182	0.000	D	F	1938.6	269.621	0.196	0.007	1281.559	1307.575	0.025	-	-0.051	0.299	-	-	-	-	-	-	-	PAVEMENT_GENERAL	Urban	F	1011101000011101	0000000000000000	-	car	665.209	45.230	0.000	0.000	180.000	696.000	987.000	-0.000	Terminate	
Unknown	82.98499	01/14/0117 10:40.02	00004979	16.961	Inter616t1-3	0.232	2	2	270.000	11.111	1.1	0.182	0.000	D	F	1957.7	269.425	0.196	0.001	1264.717	1307.439	0.026	-	-0.006	0.265	-	-	-	-	-	-	-	PAVEMENT_GENERAL	Urban	F	1011101000011101	0000000000000000	-	car	650.419	43.770	0.000	0.000	180.000	696.000	987.000	-0.000	Terminate	
Unknown	83.98502	01/14/0117 10:40.03	00005039	17.245	Inter616t1-3	0.121	2	2	270.000	11.111	2.0	0.185	0.000	D	F	1980.9	269.922	0.194	-0.020	1247.614	1307.328	0.025	-	0.153	0.276	-	-	-	-	-	-	-	PAVEMENT_GENERAL	Urban	F	1011101000011101	0000000000000000	-	car	635.518	42.582	0.000	0.000	180.000	696.000	987.000	-0.000	Terminate	
Unknown	84.98503	01/14/0117 10:40.04	00005099	17.553	Inter616t1-3	0.074	2	2	270.000	11.111	-0.1	0.194	0.000	D	F	2019.7	269.617	0.194	0.009	1230.218	1307.281	0.025	-	-0.083	0.318	-	-	-	-	-	-	-	PAVEMENT_GENERAL	Urban	F	1011101000011101	0000000000000000	-	car	620.512	41.054	0.000	0.000	180.000	696.000	987.000	-0.000	Terminate	
Unknown	85.98505	01/14/0117 10:40.05	00005159	17.873	Inter616t1-3	-0.039	2	2	270.000	11.111	0.7	0.201	0.000	D	F	2055.7	269.681	0.194	-0.006	1212.507	1307.168	0.025	-	0.042	0.335	-	-	-	-	-	-	-	PAVEMENT_GENERAL	Urban	F	1011101000011101	0000000000000000	-	car	605.330	39.710	0.000	0.000	180.000	696.000	987.000	-0.000	Terminate	
Unknown	86.98507	01/14/0117 10:40.06	00005219	18.223	Inter617t1-3	-0.125	2	2	270.000	11.111	-0.5	0.206	0.000	D	F	2090.1	269.771	0.194	0.002	1194.460	1307.082	0.025	-	-0.005	0.353	-	-	-	-	-	-	-	PAVEMENT_GENERAL	Urban	F	1011101000011101	0000000000000000	-	car	590.021	38.380	0.000	0.000	180.000	696.000	987.000	-0.000	Terminate	
Unknown	87.98509	01/14/0117 10:40.07	00005279	18.563	Inter617t1-3	-0.229	2	2	270.000	11.111	-0.8	0.208	0.000	D	F	2112.0	269.539	0.193	0.008	1176.065	1306.978	0.025	-	-0.067	0.328	-	-	-	-	-	-	-	PAVEMENT_GENERAL	Urban	F	1011101000011101	0000000000000000	-	car	574.571	37.001	0.000	0.000	180.000	696.000	987.000	-0.000	Terminate	
Unknown	88.98512	01/14/0117 10:40.08	00005339	18.883	Inter617t1-3	-0.397	2	2	270.000	11.111	-0.1	0.203	0.000	D	F	2129.5	269.416	0.192	0.003	1157.341	1306.809	0.025	-	-0.022	0.308	-	-	-	-	-	-	-	PAVEMENT_GENERAL	Urban	F	1111101000011101	0000000000000000	-	car	558.990	35.769	0.000	0.000	180.000	696.000	987.000	-0.000	Terminate	
Unknown	89.98513	01/14/0117 10:40.09	00005399	19.155	Inter617t1-3	-0.567	2	2	270.000	11.111	-1.6	0.198	0.000	D	F	2139.0	269.533	0.191	0.008	1138.320	1306.640	0.025	-	-0.049	0.267	-	-	-	-	-	-	-	PAVEMENT_GENERAL	Urban	F	1011101000011101	0000000000000000	-	car	543.366	34.794	0.000	0.000	180.000	696.000	987.000	-0.000	Terminate	
Unknown	90.98515	01/14/0117 10:40.10	00005459	19.422	Inter617t1-3	-0.742	2	2	270.000	11.111	4.6	0.198	0.000	D	F	2157.5	269.670	0.191	-0.038	1119.032	1306.464	0.025	-	0.260	0.263	-	-	-	-	-	-	-	PAVEMENT_GENERAL	Urban	F	1011101000011101	0000000000000000	-	car	527.747	33.904	0.000	0.000	180.000	696.000	987.000	-0.000	Terminate	
Unknown	91.98518	01/14/0117 10:40.11	00005519	19.679	Inter617t1-3	-0.766	2	2	270.000	11.111	1.4	0.203	0.000	D	F	2180.1	270.135	0.191	-0.010	1099.481	1306.440	0.026	-	0.088	0.261	-	-	-	-	-	-	-	PAVEMENT_GENERAL	Urban	F	1011101000011101	0000000000000000	-	car	512.266	33.263	0.000	0.000	180.000	696.000	987.000	-0.000	Terminate	
Unknown	92.98519	01/14/0117 10:40.12	00005579	19.937	Inter617t1-3	-0.701	2	2	270.000	11.111	-1.0	0.199	0.000	D	F	2204.8	270.122	0.190	0.011	1079.673	1306.506	0.026	-	-0.088	0.253	-	-	-	-	-	-	-	PAVEMENT_GENERAL	Urban	F	1011101000011101	0000000000000000	-	car	496.929	32.493	0.000	0.000	180.000	696.000	987.000	-0.000	Terminate	
Unknown	93.98521	01/14/0117 10:40.13	00005639	17.015	Inter617t1-3	-0.692	2	2	270.000	11.111	-2.7	0.127	0.525	D	F	1775.2	269.780	-0.039	0.032	1060.480	1306.515	0.040	-	-0.160	-5.856	-	-	-	-	-	-	-	PAVEMENT_GENERAL	Urban	F	1011101000011101	0000000000000000	-	car	482.342	37.571	0.000	0.000	180.000	696.000	987.000	-0.000	Terminate	
Unknown	94.98523	01/14/0117 10:40.14	00005699	10.374	Inter617t1-3	-0.864	2	2	270.000	11.111	-26.8	0.148	0.627	D	F	1531.7	267.823	-0.075	0.146	1046.794	1306.343	0.041	-	-0.829	-6.385	-	-	-	-	-	-	-	PAVEMENT_GENERAL	Urban	F	1011101000011101	0000000000000000	-	car	472.020	59.513	0.000	0.000	180.000	696.000	987.000	-0.000	Terminate	
Unknown	95.98525	01/14/0117 10:40.15	00005759	4.779	Inter617t1-3	-1.458	2	2	270.000	11.111	-31.2	0.155	0.349	D	F	1437.6	263.042	0.171	0.007	1039.490	1305.749	0.036	-	-0.187	-3.090	-	-	-	-	-	-	-	PAVEMENT_GENERAL	Urban	F	1011101000011101	0000000000000000	-	car	466.241	120.435	0.000	0.000	180.000	696.000	987.000	-0.000	Terminate	
Unknown	96.98528	01/14/0117 10:40.16	00005819	5.812	Inter617t1-2	1.481	1	2	270.000	11.111	17.4	0.229	0.000	D	F	1715.0	262.732	0.218	-0.028	1034.576	1305.088	0.017	-	0.224	1.964	-	-	-	-	-	-	-	PAVEMENT_GENERAL	Urban	F	1011101000011101	0000000000000000	-	car	462.198	98.234	0.000	0.000	180.000	696.000	987.000	-0.000	Terminate	
Unknown	97.98529	01/14/0117 10:40.17	00005879	7.616	Inter617t1-2	0.821	1	2	270.000	11.111	20.7	0.238	0.000	D	F	1822.8	265.211	0.217	-0.052	1027.872	1304.428	0.018	-	0.386	1.661	-	-	-	-	-	-	-	PAVEMENT_GENERAL	Urban	F	1111101000011101	0000000000000000	-	car	456.879	77.125	0.000	0.000	180.000	696.000	987.000	-0.000	Terminate	
Unknown	98.98531	01/14/0117 10:40.18	00005939	7.666	Inter617t1-2	0.383	1	2	270.000	11.111	16.7	0.166	0.493	D	F	1647.1	267.891	0.051	-0.041	1019.729	1303.990	0.030	-	0.329	-4.311	-	-	-	-	-	-	-	PAVEMENT_GENERAL	Urban	F	1011101000011101	0000000000000000	-	car	450.722	79.480	0.000	0.000	180.000	696.000	987.000	-0.000	Terminate	
Unknown	99.98534	01/14/0117 10:40.19	00005999	2.615	Inter617t1-2	0.299	1	2	270.000	11.111	15.4	0.173	0.707	D	F	1460.6	269.617	0.103	0.003	1014.488	1303.906	0.039	-	0.009	-4.823	-	-	-	-	-	-	-	PAVEMENT_GENERAL	Urban	F	1011101000011101	0000000000000000	-	car	446.934	239.547	0.000	0.000	180.000	696.000	987.000	-0.000	Terminate	
Unknown	100.98535	01/14/0117 10:40.20	00006059	0.020	Inter617t1-2	0.303	1	2	270.000	11.111	14.2	0.176	0.651	D	F	1354.9	269.901	0.259	0.001	1013.576	1303.910	0.030	-	-0.002	-0.252	-	-	-	-	-	-	-	PAVEMENT_GENERAL	Urban	F	1011101000011101	0000000000000000	-	car	446.290	30776.219	0.000	0.000	180.000	696.000	987.000	-0.000	Terminate	
Unknown	101.98537	01/14/0117 10:40.21	00006119	0.016	Inter617t1-2	0.303	1	2	270.000	11.111	-0.5	0.183	0.466	D	F	1370.6	269.902	0.207	-0.000	1013.568	1303.910	0.024	-	0.000	0.019	-	-	-	-	-	-	-	PAVEMENT_GENERAL	Urban	F	1011101000011101	0000000000000000	-	car	446.285	39239.426	0.000	0.000	180.000	696.000	987.000	-0.000	Terminate	
Unknown	102.98539	01/14/0117 10:40.22	00006179	1.908	Inter617t1-2	0.302	1	2	270.000	11.111	-0.2	0.293	0.000	D	F	1645.8	269.900	0.251	0.000	1013.144	1303.909	0.005	-	-0.001	4.764	-	-	-	-	-	-	-	PAVEMENT_GENERAL	Urban	F	1011101000011101	0000000000000000	-	car	445.984	329.894	0.000	0.000	180.000	696.000	987.000	-0.000	Terminate	
Unknown	103.98541	01/14/0117 10:40.23	00006239	5.656	Inter617t1-2	0.315	1	2	270.000	11.111	7.6	0.316	0.000	D	F	2096.3	270.344	0.227	-0.009	1009.221	1303.922	0.011	-	0.072	3.049	-	-	-	-	-	-	-	PAVEMENT_GENERAL	Urban	F	1011101000011101	0000000000000000	-	car	443.227	112.172	0.000	0.000	180.000	696.000	987.000	-0.000	Terminate	
Unknown	104.98544	01/14/0117 10:40.24	00006299	8.416	Inter617t1-2	0.385	1	2	270.000	11.111	-4.2	0.330	0.000	D	F	2688.9	270.446	0.226	0.013	1002.159	1303.991	0.014	-	-0.094	2.646	14	358.4	-11.571	32	10.051	84.587	-	PAVEMENT_GENERAL	Urban	F	1011101000011101	0000000000000000	-	car	438.341	75.584	0.000	0.000	180.000	696.000	987.000	-0.000	Terminate	
Unknown	105.98545	01/14/0117 10:40.25	00006359	10.705	Inter618t1-0	-0.276	1	2	269.992	24.444	5.0	0.333	0.000	D	F	2201.8	270.232	0.276	-0.056	992.492	1304.024	0.020	-	0.134	1.676	-	-	-	32	8.963	95.947	-	FREEWAY_SMOOTH	Urban	F	1011101000011101	0000000000000000	-	car	431.704	59.297	0.000	0.000	180.000	696.000	987.000	-0.000	Terminate	
Unknown	106.98547	01/14/0117 10:40.26	00006419	12.222	Inter618t1-0	-0.125	1	2	269.792	24.444	3.9	0.335	0.000	D	F	2276.1	271.018	0.272	-0.217	981.011	1304.159	0.033	-	0.141	1.431	-	-	-	32	8.489	103.752	-	FREEWAY_SMOOTH	Urban	F	1011101000011101	0000000000000000	-	car	424.045	52.963	0.000	0.000	180.000	696.000	987.000	-0.000	Terminate	
Unknown	107.98550	01/14/0117 10:40.27	00006479	13.580	Inter618t1-0	0.204	1	2	269.252	24.444	-10.0	0.328	0.000	D	F	2433.6	270.674	0.280	-0.322	968.103	1304.390	0.049	-	-0.405	1.326	-	-	-	32	8.145	110.605	-	FREEWAY_SMOOTH	Urban	F	1011101000011101	0000000000000000	-	car	415.703	47.689	0.000	0.000	180.000	696.000	987.000	-0.000	Terminate	
Unknown	108.98551	01/14/0117 10:40.28	00006539	14.892	Inter618t1-0	0.380	1	2	268.282	24.444	-12.6	0.330	0.000	D	F	2591.5	268.293	0.271	-0.489	953.866	1304.273	0.066	-	-0.683	1.295	-	-	-	32	7.786	115.948	-	FREEWAY_SMOOTH	Urban	F	1011101000011101	0000000000000000	-	car	406.489	41.764	0.000	0.000	180.000	696.000	987.000	-0.000	Terminate	
Unknown	109.98553	01/14/0117 10:40.29	00006599	16.154	Inter618t1-0	0.284	1	2	266.780	24.444	-7.1	0.325	0.000	D	F	2776.5	266.460	0.263	-0.739	938.358	1303.527	0.082	-	-0.424	1.251	-	-	-	32	7.454	120.412	-	FREEWAY_SMOOTH	Urban	F	1011101000011101	0000000000000000	-	car	396.296	37.409	0.000	0.000	180.000	696.000	987.000	-0.000	Terminate	
Unknown	110.98555	01/14/0117 10:40.30	00006659	17.377	Inter618t1-0	0.237	1	2	264.634	24.444	-7.8	0.323	0.000	D	F	2948.5	264.725	0.266	-0.955	921.636	1302.247	0.100	-	-0.555	1.195	-	-	-	32	7.115	123.641	-	FREEWAY_SMOOTH	Urban	F	1011101000011101	0000000000000000	-	car	385.316	33.889	0.000	0.000	180.000	696.000	987.000	-0.000	Terminate	
Unknown	111.98557	01/14/0117 10:40.31	00006719	18.327	Inter618t1-0	0.387	1	2	261.707	24.444	-12.5	0.298	0.000	D	F	2240.6	262.572	0.273	-1.163	903.834	1300.298	0.125	-	-0.839	0.666	-	-	-	32	6.860	125.712	-	FREEWAY_SMOOTH	Urban	F	1011101000011101	0000000000000000	-	car	373.607	31.081	0.000	0.000	180.000	696.000	987.000	-0.000	Terminate	
Unknown	112.98560	01/14/0117 10:40.32	00006779	18.805	Inter618t1-0	0.699	1	2	258.062	24.444	-28.2	0.205	0.000	D	F	2128.8	258.455	0.259	-1.258	885.466	1297.378	0.156	-	-1.992	0.311	-	-	-	32	6.770	127.317	-	FREEWAY_SMOOTH	Urban	F	1011101000011101	0000000000000000	-	car	361.277	28.198	0.000	0.000	180.000	696.000	987.000	-0.000	Terminate	
Unknown	113.98561	01/14/0117 10:40.33	00006839	19.152	Inter618t1-0	0.511	1	2	253.671	24.444	-13.8	0.222	0.000	D	F	2180.7	251.977	0.128	-1.558	867.114	1292.607	0.171	-	-1.617	0.382	-	-	-	32	6.697	128.260	-	FREEWAY_SMOOTH	Urban	F	1011101000011101	0000000000000000	-	car	347.891	24.729	0.000	0.000	180.000	696.000	987.000	-0.000	Terminate	
Unknown	114.98563	01/14/0117 10:40.34	00006899	19.534	Inter618t1-0	0.290	1	2	248.943	24.444	-6.6	0.228	0.000	D	F	2214.4	249.446	0.202	-1.673	848.855	1286.224	0.163	-	-0.665	0.383	-	-	-	32	6.610	129.109	-	FREEWAY_SMOOTH	Urban	F	1011101000011101	0000000000000000	-	car	333.646	23.125	0.000	0.000	180.000	696.000	987.000	-0.000	Terminate	
Unknown	115.98566	01/14/0117 10:40.35	00006959	19.905	Inter618t1-0	0.891	1	2	244.136	24.444	-30.8	0.231	0.000	D	F	2240.1	246.534	0.259	-1.486	830.522	1278.953	0.181	-	-1.904	0.355	-	-	-	32	6.515	129.670	-	FREEWAY_SMOOTH	Urban	F	1011101000011101	0000000000000000	-	car	319.095	21.503	0.000	0.000	180.000	696.000	987.000	-0.000	Terminate	
Unknown	116.98567	01/14/0117 10:40.36	00007019	20.226	Inter618t1-0	1.347	1	2	239.261	24.444	-20.5	0.233	0.000	D	F	2263.4	239.138	0.174	-1.497	812.643	1269.874	0.195	-	-2.046	0.364	-	-	-	31	4.855	98.191	41.867	FREEWAY_SMOOTH	Urban	F	1011101000011101	0000000000000000	-	car	303.620	18.729	0.000	0.000	180.000	696.000	987.000	-0.000	Terminate	
Unknown	117.98569	01/14/0117 10:40.37	00007079	20.564	Inter618t1-0	1.320	1	2	234.297	24.444	-18.8	0.229	0.000	D	F	2288.2	233.342	0.150	-1.489	795.586	1258.704	0.194	-	-2.034	0.356	-	-	-	31	4.649	95.605	35.635	FREEWAY_SMOOTH	Urban	F	1011101000011101	0000000000000000	-	car	287.020	16.683	0.000	0.000	180.000	696.000	987.000	-0.000	Terminate	
Unknown	118.98571	01/14/0117 10:40.38	00007139	20.899	Inter618t1-0	1.106	1	2	229.258	24.444	-18.0	0.229	0.000	D	F	2313.5	228.277	0.149	-1.523	779.418	1245.734	0.188	-	-1.813	0.348	-	-	-	31	4.420	92.373	30.604	FREEWAY_SMOOTH	Urban	F	1111101000011101	0000000000000000	-	car	269.489	14.951	0.000	0.000	180.000	696.000	987.000	-0.000	Terminate	
Unknown	119.98573	01/14/0117 10:40.39	00007199	21.227	Inter618t1-0	0.951	1	2	224.126	24.444	-18.4	0.229	0.000	D	F	2343.5	223.737	0.166	-1.541	764.180	1231.196	0.183	-	-1.673	0.335	-	-	-	32	6.049	128.405	115.536	FREEWAY_SMOOTH	Urban	F	1011101000011101	0000000000000000	-	car	251.176	13.418	0.000	0.000	180.000	696.000	987.000	-0.000	Terminate	
Unknown	120.98576	01/14/0117 10:40.40	00007259	21.472	Inter618t1-0	0.965	1	2	218.915	24.444	-19.1	0.097	0.000	D	F	1919.9	218.544	0.149	-1.496	749.980	1215.223	0.185	-	-2.017	-0.147	-	-	-	32	5.931	127.355	93.903	FREEWAY_SMOOTH	Urban	F	1011101000011101	0000000000000000	-	car	232.160	11.953	0.000	0.000	180.000	696.000	987.000	-0.000	Terminate	
Unknown	121.98577	01/14/0117 10:40.41	00007319	21.322	Inter618t1-0	0.936	1	2	213.692	24.444	-17.6	0.157	0.000	D	F	1764.5	213.118	0.155	-1.509	737.320	1197.999	0.185	-	-1.928	-0.059	-	-	-	-	-	-	-	FREEWAY_SMOOTH	Urban	F	1011101000011101	0000000000000000	-	car	212.647	10.759	0.000	0.000	180.000	696.000	987.000	-0.000	Terminate	
Unknown	122.98579	01/14/0117 10:40.42	00007379	21.295	Inter618t1-0	0.857	1	2	208.527	24.444	-19.0	0.176	0.000	D	F	1813.6	207.835	0.154	-1.503	726.357	1179.740	0.182	-	-1.976	0.024	-	-	-	-	-	-	-	FREEWAY_SMOOTH	Urban	F	1011101000011101	0000000000000000	-	car	192.757	9.567	0.000	0.000	180.000	696.000	987.000	-0.000	Terminate	
Unknown	123.98581	01/14/0117 10:40.43	00007439	21.315	Inter618t1-0	0.736	1	2	203.316	24.444	-19.2	0.180	0.000	D	F	1826.7	202.560	0.151	-1.500	717.129	1160.546	0.178	-	-1.967	0.045	-	-	-	-	-	-	-	FREEWAY_SMOOTH	Urban	F	1011101000011101	0000000000000000	-	car	172.468	8.401	0.000	0.000	180.000	696.000	987.000	-0.000	Terminate	
Unknown	124.98583	01/14/0117 10:40.44	00007499	21.353	Inter618t1-0	0.593	1	2	198.128	24.444	-17.5	0.187	0.000	D	F	1837.2	197.392	0.151	-1.515	709.686	1140.558	0.174	-	-1.860	0.061	-	-	-	-	-	-	-	FREEWAY_SMOOTH	Urban	F	1011101000011101	0000000000000000	-	car	151.807	7.276	0.000	0.000	180.000	696.000	987.000	-0.000	Terminate	
Unknown	125.98586	01/14/0117 10:40.45	00007559	21.392	Inter618t1-0	0.518	1	2	193.025	24.444	-17.3	0.185	0.000	D	F	1836.5	192.586	0.094	-1.382	704.007	1119.957	0.160	-	-1.767	0.045	-	-	-	-	-	-	-	FREEWAY_SMOOTH	Urban	F	1011101000011101	0000000000000000	-	car	130.839	6.195	0.000	0.000	180.000	696.000	987.000	-0.000	Terminate	
Unknown	126.98587	01/14/0117 10:40.46	00007619	20.702	Inter618t1-0	0.452	1	2	188.701	24.444	-17.3	0.152	0.191	D	F	1716.2	187.741	0.026	-1.086	700.067	1099.050	0.139	-	-1.786	-2.276	-	-	-	-	-	-	-	FREEWAY_SMOOTH	Urban	F	1111101000011101	0000000000000000	-	car	109.765	5.328	0.000	0.000	180.000	696.000	987.000	-0.000	Terminate	
Unknown	127.98589	01/14/0117 10:40.47	00007679	18.560	Inter618t1-0	0.038	1	2	185.476	24.444	-7.1	0.153	0.140	D	F	1661.6	183.093	0.052	-0.888	698.069	1079.581	0.109	-	-1.188	-1.700	-	-	-	-	-	-	-	FREEWAY_SMOOTH	Urban	F	1011101000011101	0000000000000000	-	car	90.245	4.865	0.000	0.000	180.000	696.000	987.000	-0.000	Terminate	
Unknown	128.98592	01/14/0117 10:40.48	00007739	16.738	Inter618t1-0	-0.319	1	2	183.197	24.444	11.3	0.166	0.137	D	F	1636.2	184.490	0.125	-0.940	697.094	1061.956	0.085	-	1.015	-1.608	-	-	-	-	-	-	-	FREEWAY_SMOOTH	Urban	F	1011101000011101	0000000000000000	-	car	72.604	4.347	0.000	0.000	180.000	696.000	987.000	-0.000	Terminate	
Unknown	129.98593	01/14/0117 10:40.49	00007799	15.275	Inter618t1-0	0.363	1	2	181.660	24.444	-20.0	0.175	0.131	D	F	1770.4	184.486	0.136	-0.446	695.740	1046.016	0.075	-	-0.933	-1.356	-	-	-	-	-	-	-	FREEWAY_SMOOTH	Urban	F	1011101000011101	0000000000000000	-	car	56.657	3.722	0.000	0.000	180.000	696.000	987.000	-0.000	Terminate	
Unknown	130.98595	01/14/0117 10:40.50	00007859	13.400	Inter618t1-0	0.683	1	2	180.684	24.444	-8.5	0.176	0.281	D	F	1737.6	180.636	0.063	-0.307	695.126	1031.528	0.064	-	-0.554	-2.846	-	-	-	-	-	-	-	FREEWAY_SMOOTH	Urban	F	1011101000011101	0000000000000000	-	car	42.177	3.149	0.000	0.000	180.000	696.000	987.000	-0.000	Terminate	
Unknown	131.98598	01/14/0117 10:40.51	00007919	10.142	Inter618t1-0	0.550	1	2	180.212	24.444	-8.1	0.180	0.349	D	F	1615.6	178.844	0.072	-0.168	695.169	1019.739	0.051	-	-0.300	-3.312	-	-	-	-	-	-	-	FREEWAY_SMOOTH	Urban	F	1011101000011101	0000000000000000	-	car	30.781	3.468	1.267	2.000	178.491	696.012	986.610	-0.000	Terminate	
Unknown	132.98599	01/14/0117 10:40.52	00007979	7.218	Inter618t1-0	0.257	1	2	180.017	24.444	-5.3	0.176	0.281	D	F	1566.2	177.659	0.090	-0.070	695.445	1011.179	0.038	-	-0.099	-2.370	-	-	-	-	-	-	-	FREEWAY_SMOOTH	Urban	F	1011101000011101	0000000000000000	-	car	24.465	6.190	3.267	2.000	176.562	696.150	984.364	-0.000	Terminate	
Unknown	133.98601	01/14/0117 10:40.53	00008039	7.194	Inter618t1-0	-0.021	1	2	180.000	24.444	5.6	0.226	0.000	D	F	1787.9	177.893	0.184	-0.012	695.721	1004.372	0.019	-	0.091	1.694	-	-	-	-	-	-	-	FREEWAY_SMOOTH	Urban	F	1011101000011101	0000000000000000	-	car	21.902	11.365	5.267	2.000	178.023	696.328	980.117	-0.000	Terminate	
Unknown	134.98604	01/14/0117 10:40.54	00008099	8.711	Inter686t1-0	0.451	1	1	180.000	11.111	4.5	0.215	0.000	D	F	1866.6	178.674	0.213	-0.013	695.945	996.400	0.020	-	0.106	1.385	-	-	-	car	2.045	17.813	12.337	PAVEMENT_GENERAL	Urban	F	1011101000011101	0000000000000000	-	car	20.178	13.965	7.267	2.000	179.775	696.397	973.867	-0.000	Terminate	
Unknown	135.98605	01/14/0117 10:40.55	00008159	9.967	Inter686t1-0	0.303	1	1	180.000	11.111	3.9	0.215	0.000	D	F	1947.7	179.381	0.211	-0.015	696.093	987.044	0.021	-	0.116	1.163	-	-	-	car	1.676	16.708	23.871	PAVEMENT_GENERAL	Urban	F	1011101000011101	0000000000000000	-	car	19.070	27.209	9.267	2.000	180.023	696.398	965.617	-0.000	Terminate	
Unknown	136.98607	01/14/0117 10:40.56	00008219	10.747	Inter686t1-0	0.259	1	1	180.000	11.111	3.2	0.187	0.000	D	F	1947.9	180.051	0.209	-0.015	696.138	976.633	0.023	-	0.117	0.818	-	-	-	car	1.540	16.547	-	PAVEMENT_GENERAL	Urban	F	1011101000011101	0000000000000000	-	car	18.908	-36.350	11.267	2.000	180.003	696.397	955.367	-0.000	Terminate	
Unknown	137.98610	01/14/0117 10:40.57	00008279	11.573	Inter686t1-0	0.310	1	1	180.000	11.111	1.5	0.196	0.000	D	F	2053.4	180.405	0.207	-0.007	696.086	965.471	0.023	-	0.056	0.811	-	-	-	car	1.524	17.636	-	PAVEMENT_GENERAL	Urban	F	1011101000011101	0000000000000000	-	car	19.997	-11.796	13.267	2.000	180.003	696.397	943.116	-0.000	Terminate	
Unknown	138.98611	01/14/0117 10:40.58	00008339	12.356	Inter686t1-0	0.416	1	1	180.000	11.111	0.6	0.196	0.000	D	F	2137.1	180.567	0.205	-0.004	695.980	953.502	0.023	-	0.023	0.759	-	-	-	car	1.612	19.918	-	PAVEMENT_GENERAL	Urban	F	1011101000011101	0000000000000000	-	car	22.281	-7.649	15.267	2.000	180.003	696.397	928.866	-0.000	Terminate	
Unknown	139.98613	01/14/0117 10:40.59	00008399	13.107	Inter686t1-0	0.556	1	1	180.000	11.111	0.8	0.199	0.000	D	F	1852.4	180.706	0.203	-0.005	695.840	940.765	0.023	-	0.036	0.659	-	-	-	car	1.788	23.431	-	PAVEMENT_GENERAL	Urban	F	1011101000011101	0000000000000000	-	car	25.796	-6.195	17.267	2.000	180.002	696.397	912.615	-0.000	Terminate	
Unknown	140.98616	01/14/0117 10:41.00	00008459	13.721	Inter686t1-0	0.739	1	1	180.000	11.111	0.7	0.203	0.000	D	F	1834.9	180.860	0.202	-0.005	695.657	927.348	0.024	-	0.036	0.593	-	-	-	car	2.049	28.109	-	PAVEMENT_GENERAL	Urban	F	1011101000011101	0000000000000000	-	car	30.476	-6.115	18.700	1.000	180.002	696.397	894.520	-0.000	Terminate	
Unknown	141.98618	01/14/0117 10:41.01	00008519	14.300	Inter686t1-0	0.966	1	1	180.000	11.111	-1.6	0.201	0.000	D	F	1867.1	181.007	0.201	-0.002	695.430	913.337	0.024	-	-0.008	0.565	-	-	-	car	2.322	33.207	-	PAVEMENT_GENERAL	Urban	F	1011101000011101	0000000000000000	-	car	35.579	-6.955	19.409	0.500	180.002	696.397	875.411	-0.000	Terminate	
Unknown	142.98619	01/14/0117 10:41.02	00008579	14.838	Inter686t1-0	1.059	1	1	180.000	11.111	-9.1	0.205	0.000	D	F	1888.7	179.357	0.200	0.065	695.338	898.765	0.024	-	-0.517	0.519	-	-	-	car	2.581	38.291	-	PAVEMENT_GENERAL	Urban	F	1011101000011101	0000000000000000	-	car	40.663	-8.026	19.909	0.500	180.002	696.397	855.756	-0.000	Terminate	
Unknown	143.98621	01/14/0117 10:41.03	00008639	15.328	Inter686t1-0	0.699	1	1	180.000	11.111	-4.6	0.201	0.000	D	F	1900.8	177.944	0.199	0.037	695.697	883.682	0.024	-	-0.283	0.471	-	-	-	car	2.824	43.279	-	PAVEMENT_GENERAL	Urban	F	1011101000011101	0000000000000000	-	car	45.644	-9.530	20.116	0.000	180.002	696.397	835.684	-0.000	Terminate	
Unknown	144.98624	01/14/0117 10:41.04	00008699	15.785	Inter686t1-0	0.102	1	1	180.000	11.111	2.8	0.198	0.000	D	F	1923.3	177.875	0.198	-0.016	696.294	868.136	0.024	-	0.124	0.442	-	-	-	car	3.031	47.848	-	PAVEMENT_GENERAL	Urban	F	1011101000011101	0000000000000000	-	car	50.208	-11.567	20.116	0.000	179.997	696.397	815.568	-0.000	Terminate	
Unknown	145.98625	01/14/0117 10:41.05	00008759	15.549	Inter686t1-0	-0.264	1	1	180.000	11.111	12.1	0.194	0.042	D	F	1903.6	180.260	0.196	-0.100	696.660	852.409	0.026	-	0.858	-0.029	-	-	-	car	3.360	52.237	-	PAVEMENT_GENERAL	Urban	F	1011101000011101	0000000000000000	-	car	54.597	-11.955	20.116	0.000	179.998	696.402	795.452	-0.000	Terminate	
Unknown	146.98627	01/14/0117 10:41.06	00008819	15.738	Inter686t1-0	0.090	1	1	180.000	11.111	-1.5	0.199	0.003	D	F	1918.5	182.190	0.197	-0.019	696.306	836.820	0.025	-	0.135	0.430	-	-	-	car	3.607	56.764	-	PAVEMENT_GENERAL	Urban	F	1011101000011101	0000000000000000	-	car	59.124	-13.465	20.116	0.000	179.997	696.403	775.336	-0.000	Terminate	
Unknown	147.98630	01/14/0117 10:41.07	00008879	16.166	Inter686t1-0	0.488	1	1	180.000	11.111	-8.6	0.201	0.000	D	F	1946.3	180.178	0.196	0.078	695.908	820.872	0.025	-	-0.621	0.421	-	-	-	car	3.769	60.932	-	PAVEMENT_GENERAL	Urban	F	1011101000011101	0000000000000000	-	car	63.294	-16.022	20.116	0.000	179.996	696.403	755.220	-0.000	Terminate	
Unknown	148.98631	01/14/0117 10:41.08	00008939	16.589	Inter686t1-0	0.343	1	1	180.000	11.111	0.4	0.205	0.000	D	F	1979.8	178.958	0.197	0.006	696.053	804.496	0.025	-	-0.071	0.428	-	-	-	car	3.899	64.673	-	PAVEMENT_GENERAL	Urban	F	1011101000011101	0000000000000000	-	car	67.033	-18.997	20.116	0.000	179.996	696.403	735.104	-0.000	Terminate	
Unknown	149.98633	01/14/0117 10:41.09	00008999	16.949	Inter682t1-1	0.088	1	1	180.000	11.111	1.4	0.180	0.000	D	F	1952.0	179.267	0.194	-0.011	696.316	787.712	0.025	-	0.086	0.268	-	-	-	car	4.012	68.004	-	PAVEMENT_GENERAL	Urban	F	1011101000011101	0000000000000000	-	car	70.364	-22.207	20.116	0.000	179.996	696.403	714.988	-0.000	Terminate	
