ZoneName	Time	SystemTime	Frame	Velocity	LaneName	LanePos	LaneIndex	LaneCount	LaneHeading	SpeedLimit	Steer	Accel	Brake	Gear	Horn	SubjectEngineRPM	SubjectHeading	SubjectPitch	SubjectRoll	SubjectX	SubjectY	SubjectZ	Signal	LatAccel	LongAccel	Collision	CollisionAngle	CollisionVelocity	VehAhead	HeadwayTime	HeadwayDist	TTC	TerrainType	CultureType	Slip	DigitalInputs	DigitalInputs2	ActiveTrigger	EntityName	DistToEntity	TimeToEntity	EntityVelocity	EntityAccel	EntityHeading	EntityX	EntityY	EntityZ	GrabData	
Unknown	0.98335	01/14/0117 09:48.54	00000059	0.002	Inter625t13-0	-0.088	1	2	0.000	11.111	8.1	0.028	0.000	D	F	0.0	0.003	0.153	-0.003	1503.500	523.206	0.019	-	-0.000	0.000	-	-	-	-	-	-	-	PAVEMENT_GENERAL	Urban	F	1011101000011101	0000000000000000	-	car	928.855	774577.812	0.000	0.000	180.000	696.000	987.000	-0.000	Terminate	
Unknown	1.98337	01/14/0117 09:48.55	00000119	0.000	Inter625t13-0	-0.088	1	2	0.000	11.111	1.3	0.023	0.000	D	F	0.0	0.002	0.197	0.000	1503.500	523.208	0.026	-	0.000	-0.001	-	-	-	-	-	-	-	PAVEMENT_GENERAL	Urban	F	1011101000011101	0000000000000000	-	car	928.855	4211104.000	0.000	0.000	180.000	696.000	987.000	-0.000	Terminate	
Unknown	2.98339	01/14/0117 09:48.56	00000179	-0.000	Inter625t13-0	-0.088	1	2	0.000	11.111	1.1	0.686	0.000	D	F	0.0	0.002	0.207	-0.000	1503.500	523.208	0.028	-	-0.000	-0.000	-	-	-	-	-	-	-	PAVEMENT_GENERAL	Urban	F	1011101000011101	0000000000000000	-	car	928.854	-116972344.000	0.000	0.000	180.000	696.000	987.000	-0.000	Terminate	
Unknown	3.98341	01/14/0117 09:48.57	00000239	-0.000	Inter625t13-0	-0.088	1	2	0.000	11.111	1.1	0.000	0.000	D	F	0.0	0.002	0.210	-0.000	1503.500	523.208	0.028	-	-0.000	-0.000	-	-	-	-	-	-	-	PAVEMENT_GENERAL	Urban	F	1011101000011101	0000000000000000	-	car	928.854	-22325866.000	0.000	0.000	180.000	696.000	987.000	-0.000	Terminate	
Unknown	4.98343	01/14/0117 09:48.58	00000299	-0.000	Inter625t13-0	-0.088	1	2	0.000	11.111	-4.0	0.000	0.000	D	F	0.0	0.002	0.210	-0.000	1503.500	523.208	0.028	-	0.000	0.000	-	-	-	-	-	-	-	PAVEMENT_GENERAL	Urban	F	1011101000011101	0000000000000000	-	car	928.854	-24876732.000	0.000	0.000	180.000	696.000	987.000	-0.000	Terminate	
Unknown	5.98345	01/14/0117 09:48.59	00000359	0.000	Inter625t13-0	-0.088	1	2	0.000	11.111	-1.2	0.065	0.000	D	F	261.1	0.002	0.209	0.000	1503.500	523.208	0.028	-	-0.000	0.000	-	-	-	-	-	-	-	PAVEMENT_GENERAL	Urban	F	1011101000011101	0000000000000000	-	car	928.854	14391030.000	0.000	0.000	180.000	696.000	987.000	-0.000	Terminate	
Unknown	6.98347	01/14/0117 09:49.00	00000419	3.155	Inter625t13-0	-0.088	1	2	0.000	11.111	0.6	0.303	0.000	D	F	1764.2	0.010	0.188	0.002	1503.500	524.305	0.005	-	0.002	4.206	-	-	-	-	-	-	-	PAVEMENT_GENERAL	Urban	F	1011101000011101	0000000000000000	-	car	928.309	592.034	0.000	0.000	180.000	696.000	987.000	-0.000	Terminate	
Unknown	7.98349	01/14/0117 09:49.01	00000479	5.641	Inter625t13-0	-0.084	1	2	0.000	11.111	0.5	0.162	0.000	D	F	1868.3	0.057	0.250	-0.000	1503.504	528.977	0.019	-	0.005	1.909	-	-	-	-	-	-	-	PAVEMENT_GENERAL	Urban	F	1011101000011101	0000000000000000	-	car	925.998	333.283	0.000	0.000	180.000	696.000	987.000	-0.000	Terminate	
Unknown	8.98351	01/14/0117 09:49.02	00000539	6.592	Inter625t49-0	-0.069	1	1	0.005	11.111	2.2	0.169	0.000	D	F	1655.4	0.207	0.224	-0.002	1503.519	535.138	0.022	-	0.032	1.350	-	-	-	-	-	-	-	PAVEMENT_GENERAL	Urban	F	1011101000011101	0000000000000000	-	car	922.987	288.584	0.000	0.000	180.000	696.000	987.000	-0.000	Terminate	
Unknown	9.98353	01/14/0117 09:49.03	00000599	7.753	Inter625t49-0	-0.022	1	1	0.007	11.111	1.9	0.272	0.000	D	F	1854.8	0.480	0.217	-0.005	1503.567	542.192	0.018	-	0.036	1.692	-	-	-	-	-	-	-	PAVEMENT_GENERAL	Urban	F	1011101000011101	0000000000000000	-	car	919.605	249.665	0.000	0.000	180.000	696.000	987.000	-0.000	Terminate	
Unknown	10.98355	01/14/0117 09:49.04	00000659	9.458	Inter625t49-0	0.076	1	1	0.008	11.111	-0.1	0.317	0.000	D	F	2022.8	0.758	0.215	0.000	1503.665	550.798	0.019	-	0.006	1.649	-	-	-	-	-	-	-	PAVEMENT_GENERAL	Urban	F	1011101000011101	0000000000000000	-	car	915.570	208.852	0.000	0.000	180.000	696.000	987.000	-0.000	Terminate	
Unknown	11.98357	01/14/0117 09:49.05	00000719	10.974	Inter625t49-0	0.209	1	1	0.006	11.111	-2.0	0.316	0.000	D	F	2139.2	0.727	0.213	0.011	1503.800	561.040	0.020	-	-0.055	1.412	-	-	-	-	-	-	-	PAVEMENT_GENERAL	Urban	F	1011101000011101	0000000000000000	-	car	910.867	182.354	0.000	0.000	180.000	696.000	987.000	-0.000	Terminate	
Unknown	12.98359	01/14/0117 09:49.06	00000779	12.448	Inter625t49-0	0.324	1	1	0.005	11.111	-1.1	0.376	0.000	D	F	2306.7	0.441	0.212	0.008	1503.916	572.754	0.020	-	-0.051	1.438	-	-	-	-	-	-	-	PAVEMENT_GENERAL	Urban	F	1011101000011101	0000000000000000	-	car	905.566	161.877	0.000	0.000	180.000	696.000	987.000	-0.000	Terminate	
Unknown	13.98361	01/14/0117 09:49.07	00000839	13.887	Inter625t15-0	0.401	1	2	0.000	11.111	-1.3	0.430	0.000	D	F	2498.6	0.226	0.210	0.008	1503.994	585.920	0.020	-	-0.060	1.435	-	-	-	-	-	-	-	PAVEMENT_GENERAL	Urban	F	1011101000011101	0000000000000000	-	car	899.704	146.884	0.000	0.000	180.000	696.000	987.000	-0.000	Terminate	
Unknown	14.98363	01/14/0117 09:49.08	00000899	15.269	Inter614t1-0	0.434	1	2	0.000	11.111	-1.1	0.481	0.000	D	F	2678.2	0.000	0.212	0.009	1504.027	600.499	0.020	-	-0.067	1.458	-	-	-	-	-	-	-	PAVEMENT_GENERAL	Urban	F	1011101000011101	0000000000000000	-	car	893.347	135.582	0.000	0.000	180.000	696.000	987.000	-0.000	Terminate	
Unknown	15.98365	01/14/0117 09:49.09	00000959	16.224	Inter614t1-0	0.403	1	2	0.000	11.111	-1.0	0.132	0.000	D	F	1906.6	359.760	0.195	0.008	1503.996	616.371	0.024	-	-0.060	0.224	-	-	-	-	-	-	-	PAVEMENT_GENERAL	Urban	F	1011101000011101	0000000000000000	-	car	886.586	129.880	0.000	0.000	180.000	696.000	987.000	-0.000	Terminate	
Unknown	16.98367	01/14/0117 09:49.10	00001019	16.141	Inter614t1-0	0.308	1	2	0.000	11.111	-1.4	0.139	0.000	D	F	1822.1	359.536	0.193	0.009	1503.901	632.527	0.026	-	-0.072	0.100	-	-	-	-	-	-	-	PAVEMENT_GENERAL	Urban	F	1011101000011101	0000000000000000	-	car	879.884	133.220	0.000	0.000	180.000	696.000	987.000	-0.000	Terminate	
Unknown	17.98369	01/14/0117 09:49.11	00001079	16.251	Inter614t1-0	0.139	1	2	0.000	11.111	-1.2	0.138	0.000	D	F	1817.6	359.266	0.196	0.007	1503.732	648.722	0.026	-	-0.062	0.131	-	-	-	-	-	-	-	PAVEMENT_GENERAL	Urban	F	1011101000011101	0000000000000000	-	car	873.348	135.008	0.000	0.000	180.000	696.000	987.000	-0.000	Terminate	
Unknown	18.98371	01/14/0117 09:49.12	00001139	16.325	Inter614t1-0	-0.096	1	2	0.000	11.111	-0.8	0.160	0.000	D	F	1874.7	359.072	0.195	0.006	1503.497	665.001	0.026	-	-0.047	0.158	-	-	-	-	-	-	-	PAVEMENT_GENERAL	Urban	F	1011101000011101	0000000000000000	-	car	866.970	137.798	0.000	0.000	180.000	696.000	987.000	-0.000	Terminate	
Unknown	19.98373	01/14/0117 09:49.13	00001199	16.804	Inter614t1-0	-0.362	1	2	0.000	11.111	2.1	0.242	0.000	D	F	2048.0	359.223	0.198	-0.017	1503.231	681.538	0.024	-	0.124	0.549	-	-	-	-	-	-	-	PAVEMENT_GENERAL	Urban	F	1011101000011101	0000000000000000	-	car	860.733	139.736	0.000	0.000	180.000	696.000	987.000	-0.000	Terminate	
Unknown	20.98375	01/14/0117 09:49.14	00001259	17.329	Inter614t1-0	-0.550	1	2	0.000	11.111	1.6	0.236	0.000	D	F	2068.9	359.526	0.197	-0.013	1503.043	698.607	0.024	-	0.090	0.507	-	-	-	-	-	-	-	PAVEMENT_GENERAL	Urban	F	1011101000011101	0000000000000000	-	car	854.664	143.249	0.000	0.000	180.000	696.000	987.000	-0.000	Terminate	
Unknown	21.98377	01/14/0117 09:49.15	00001319	17.730	Inter614t1-0	-0.660	1	2	0.000	11.111	1.8	0.180	0.000	D	F	2005.5	359.793	0.186	-0.013	1502.933	716.170	0.026	-	0.098	0.154	-	-	-	-	-	-	-	PAVEMENT_GENERAL	Urban	F	1011101000011101	0000000000000000	-	car	848.810	148.860	0.000	0.000	180.000	696.000	987.000	-0.000	Terminate	
Unknown	22.98379	01/14/0117 09:49.16	00001379	18.088	Inter614t1-0	-0.686	1	2	0.000	11.111	2.2	0.226	0.000	D	F	2108.5	0.032	0.195	-0.012	1502.907	734.053	0.025	-	0.089	0.442	-	-	-	-	-	-	-	PAVEMENT_GENERAL	Urban	F	1011101000011101	0000000000000000	-	car	843.265	156.138	0.000	0.000	180.000	696.000	987.000	-0.000	Terminate	
Unknown	23.98381	01/14/0117 09:49.17	00001439	18.519	Inter614t1-0	-0.612	1	2	0.000	11.111	1.0	0.224	0.000	D	F	2139.8	0.448	0.194	-0.009	1502.981	752.358	0.025	-	0.083	0.422	-	-	-	-	-	-	-	PAVEMENT_GENERAL	Urban	F	1011101000011101	0000000000000000	-	car	838.042	166.559	0.000	0.000	180.000	696.000	987.000	-0.000	Terminate	
Unknown	24.98383	01/14/0117 09:49.18	00001499	18.930	Inter614t1-0	-0.444	1	2	0.000	11.111	1.0	0.220	0.000	D	F	2166.1	0.651	0.193	-0.010	1503.149	771.083	0.025	-	0.078	0.402	-	-	-	-	-	-	-	PAVEMENT_GENERAL	Urban	F	1011101000011101	0000000000000000	-	car	833.170	177.882	0.000	0.000	180.000	696.000	987.000	-0.000	Terminate	
Unknown	25.98385	01/14/0117 09:49.19	00001559	19.262	Inter614t1-0	-0.205	1	2	0.000	11.111	0.4	0.222	0.000	D	F	2192.6	0.814	0.192	-0.006	1503.388	790.163	0.025	-	0.044	0.386	-	-	-	-	-	-	-	PAVEMENT_GENERAL	Urban	F	1111101000011101	0000000000000000	-	car	828.676	192.900	0.000	0.000	180.000	696.000	987.000	-0.000	Terminate	
Unknown	26.98387	01/14/0117 09:49.20	00001619	19.637	Inter612t1-0	0.087	1	2	0.000	11.111	0.5	0.219	0.000	D	F	2216.8	0.951	0.191	-0.005	1503.681	809.613	0.025	-	0.044	0.362	-	-	-	-	-	-	-	PAVEMENT_GENERAL	Urban	F	1011101000011101	0000000000000000	-	car	824.571	211.773	0.000	0.000	180.000	696.000	987.000	-0.000	Terminate	
Unknown	27.98389	01/14/0117 09:49.21	00001679	20.000	Inter612t1-0	0.425	1	2	0.000	11.111	0.2	0.220	0.000	D	F	2242.8	1.013	0.191	-0.002	1504.018	829.428	0.025	-	0.019	0.357	-	-	-	-	-	-	-	PAVEMENT_GENERAL	Urban	F	1011101000011101	0000000000000000	-	car	820.879	235.858	0.000	0.000	180.000	696.000	987.000	-0.000	Terminate	
Unknown	28.98391	01/14/0117 09:49.22	00001739	20.327	Inter612t1-0	0.789	1	2	0.000	11.111	0.2	0.215	0.000	D	F	2256.0	1.075	0.190	-0.003	1504.382	849.592	0.025	-	0.021	0.314	-	-	-	-	-	-	-	PAVEMENT_GENERAL	Urban	F	1011101000011101	0000000000000000	-	car	817.617	269.873	0.000	0.000	180.000	696.000	987.000	-0.000	Terminate	
Unknown	29.98393	01/14/0117 09:49.23	00001799	20.618	Inter612t1-0	1.137	1	2	0.000	11.111	-2.1	0.206	0.000	D	F	2268.5	0.736	0.188	0.022	1504.731	870.067	0.025	-	-0.170	0.251	-	-	-	11	4.774	98.421	35.961	PAVEMENT_GENERAL	Urban	F	1011101000011101	0000000000000000	-	car	814.781	303.090	0.000	0.000	180.000	696.000	987.000	-0.000	Terminate	
Unknown	30.98395	01/14/0117 09:49.24	00001859	20.828	Inter612t1-0	1.344	1	2	0.000	11.111	-2.3	0.205	0.000	D	F	2291.0	0.300	0.189	0.021	1504.937	890.788	0.026	-	-0.167	0.248	-	-	-	11	4.589	95.576	32.434	PAVEMENT_GENERAL	Urban	F	1011101000011101	0000000000000000	-	car	812.279	345.435	0.000	0.000	180.000	696.000	987.000	-0.000	Terminate	
Unknown	31.98397	01/14/0117 09:49.25	00001919	21.083	Inter612t1-0	1.391	1	2	0.000	11.111	-1.8	0.219	0.000	D	F	2327.3	359.878	0.188	0.019	1504.984	911.742	0.026	-	-0.141	0.276	-	-	-	11	4.387	92.498	28.889	PAVEMENT_GENERAL	Urban	F	1011101000011101	0000000000000000	-	car	810.118	405.542	0.000	0.000	180.000	696.000	987.000	-0.000	Terminate	
Unknown	32.98399	01/14/0117 09:49.26	00001979	21.663	Inter612t1-0	1.310	1	2	0.000	11.111	-1.1	0.411	0.000	D	F	2492.9	359.639	0.193	0.011	1504.904	933.076	0.023	-	-0.085	0.707	-	-	-	11	4.110	89.041	23.543	PAVEMENT_GENERAL	Urban	F	1011101000011101	0000000000000000	-	car	808.340	512.544	0.000	0.000	180.000	696.000	987.000	-0.000	Terminate	
Unknown	33.98401	01/14/0117 09:49.27	00002039	21.628	Inter612t1-0	1.139	1	2	0.000	11.111	-1.1	0.014	0.000	D	F	1515.0	359.390	0.170	0.014	1504.732	954.844	0.029	-	-0.104	-0.584	-	-	-	11	3.937	85.148	22.727	PAVEMENT_GENERAL	Urban	F	1011101000011101	0000000000000000	-	car	807.012	740.878	0.000	0.000	180.000	696.000	987.000	-0.000	Terminate	
Unknown	34.98403	01/14/0117 09:49.28	00002099	21.563	Inter612t1-0	0.883	1	2	0.000	11.111	-0.2	0.192	0.000	D	F	1868.5	359.240	0.186	0.004	1504.476	976.376	0.026	-	-0.029	0.112	-	-	-	-	-	-	-	PAVEMENT_GENERAL	Urban	F	1011101000011101	0000000000000000	-	car	806.187	1415.898	0.000	0.000	180.000	696.000	987.000	-0.000	Terminate	
Unknown	35.98405	01/14/0117 09:49.29	00002159	21.570	Inter612t1-0	0.591	1	2	0.000	11.111	-0.1	0.185	0.000	D	F	1843.0	359.213	0.185	0.000	1504.185	997.942	0.027	-	-0.003	0.023	-	-	-	-	-	-	-	PAVEMENT_GENERAL	Urban	F	1011101000011101	0000000000000000	-	car	805.899	188207.406	0.000	0.000	180.000	696.000	987.000	-0.000	Terminate	
Unknown	36.98407	01/14/0117 09:49.30	00002219	21.742	Inter613t1-0	0.288	1	2	0.000	11.111	-0.4	0.226	0.000	D	F	1950.6	359.163	0.188	0.003	1503.881	1019.590	0.026	-	-0.026	0.212	-	-	-	-	-	-	-	PAVEMENT_GENERAL	Urban	F	1011101000011101	0000000000000000	-	car	806.179	-1442.904	0.000	0.000	180.000	696.000	987.000	-0.000	Terminate	
Unknown	37.98409	01/14/0117 09:49.31	00002279	21.935	Inter613t1-0	-0.042	1	2	0.000	11.111	-0.5	0.217	0.000	D	F	1938.1	359.081	0.186	0.005	1503.551	1041.429	0.026	-	-0.036	0.176	-	-	-	-	-	-	-	PAVEMENT_GENERAL	Urban	F	1011101000011101	0000000000000000	-	car	807.024	-718.031	0.000	0.000	180.000	696.000	987.000	-0.000	Terminate	
Unknown	38.98411	01/14/0117 09:49.32	00002339	22.086	Inter613t1-0	-0.392	1	2	0.000	11.111	2.4	0.212	0.000	D	F	1930.1	359.232	0.185	-0.021	1503.201	1063.439	0.026	-	0.160	0.146	-	-	-	-	-	-	-	PAVEMENT_GENERAL	Urban	F	1011101000011101	0000000000000000	-	car	808.453	-452.314	0.000	0.000	180.000	696.000	987.000	-0.000	Terminate	
Unknown	39.98413	01/14/0117 09:49.33	00002399	22.234	Inter613t1-0	-0.616	1	2	0.000	11.111	0.9	0.215	0.000	D	F	1935.2	359.672	0.185	-0.014	1502.977	1085.598	0.026	-	0.108	0.141	-	-	-	-	-	-	-	PAVEMENT_GENERAL	Urban	F	1011101000011101	0000000000000000	-	car	810.619	-315.407	0.000	0.000	180.000	696.000	987.000	-0.000	Terminate	
Unknown	40.98415	01/14/0117 09:49.34	00002459	22.376	Inter613t1-0	-0.723	1	2	0.000	11.111	0.7	0.215	0.000	D	F	1944.1	359.834	0.185	-0.009	1502.870	1107.903	0.026	-	0.063	0.144	-	-	-	-	-	-	-	PAVEMENT_GENERAL	Urban	F	1011101000011101	0000000000000000	-	car	813.519	-250.174	0.000	0.000	180.000	696.000	987.000	-0.000	Terminate	
Unknown	41.98417	01/14/0117 09:49.35	00002519	22.497	Inter613t1-0	-0.770	1	2	0.000	11.111	0.6	0.162	0.000	D	F	1818.0	0.000	0.180	-0.007	1502.823	1130.346	0.026	-	0.054	-0.004	-	-	-	-	-	-	-	PAVEMENT_GENERAL	Urban	F	1011101000011101	0000000000000000	-	car	817.099	-208.165	0.000	0.000	180.000	696.000	987.000	-0.000	Terminate	
Unknown	42.98419	01/14/0117 09:49.36	00002579	22.080	Inter613t1-0	-0.765	1	2	0.000	11.111	0.5	0.000	0.000	D	F	1505.1	0.102	0.175	-0.008	1502.829	1152.688	0.030	-	0.059	-0.637	-	-	-	-	-	-	-	PAVEMENT_GENERAL	Urban	F	1011101000011101	0000000000000000	-	car	821.306	-183.318	0.000	0.000	180.000	696.000	987.000	-0.000	Terminate	
Unknown	43.98421	01/14/0117 09:49.37	00002639	21.672	Inter613t1-0	-0.713	1	2	0.000	11.111	-3.4	0.074	0.000	D	F	1612.4	0.074	0.180	0.028	1502.881	1174.511	0.028	-	-0.170	-0.269	-	-	-	-	-	-	-	PAVEMENT_GENERAL	Urban	F	1011101000011101	0000000000000000	-	car	826.023	-167.450	0.000	0.000	180.000	696.000	987.000	-0.000	Terminate	
Unknown	44.98423	01/14/0117 09:49.38	00002699	21.101	Inter613t1-0	-0.798	1	2	0.000	11.111	-1.2	0.000	0.000	D	F	1438.5	359.415	0.179	0.021	1502.796	1195.918	0.030	-	-0.158	-0.621	-	-	-	-	-	-	-	PAVEMENT_GENERAL	Urban	F	1011101000011101	0000000000000000	-	car	831.047	-163.567	0.000	0.000	180.000	696.000	987.000	-0.000	Terminate	
Unknown	45.98425	01/14/0117 09:49.39	00002759	17.382	Inter615t9-0	-1.026	1	2	0.000	11.111	-1.0	0.069	0.000	D	F	1388.5	359.132	0.299	0.015	1502.567	1215.353	0.034	-	-0.115	-0.374	-	-	-	22	3.271	56.864	3.271	PAVEMENT_GENERAL	Urban	F	1011101000011101	0000000000000000	-	car	835.910	-186.548	0.000	0.000	180.000	696.000	987.000	-0.000	Terminate	
Unknown	46.98427	01/14/0117 09:49.40	00002819	17.345	Inter615t33-0	-1.333	1	1	0.110	11.111	-1.3	0.000	0.000	D	F	1182.2	358.919	0.177	0.011	1502.277	1232.755	0.028	-	-0.081	-0.561	-	-	-	22	2.410	41.800	2.410	PAVEMENT_GENERAL	Urban	F	1011101000011101	0000000000000000	-	car	840.539	-177.208	0.000	0.000	180.000	696.000	987.000	-0.000	Terminate	
Unknown	47.98429	01/14/0117 09:49.41	00002879	11.422	Inter615t33-0	-1.686	1	1	0.069	11.111	-1.5	0.000	0.913	D	F	903.0	358.511	-0.346	0.012	1501.953	1247.874	0.045	-	-0.086	-9.258	-	-	-	22	2.343	26.761	2.343	PAVEMENT_GENERAL	Urban	F	1011101000011101	0000000000000000	-	car	844.762	-261.224	0.000	0.000	180.000	696.000	987.000	-0.000	Terminate	
Unknown	48.98431	01/14/0117 09:49.42	00002939	2.140	Inter615t31-0	1.007	1	1	356.903	11.111	-1.4	0.000	0.997	D	F	477.5	358.318	-0.380	-0.001	1501.768	1254.647	0.045	-	0.001	-9.240	-	-	-	22	9.322	19.953	9.322	PAVEMENT_GENERAL	Urban	F	1011101000011101	0000000000000000	-	car	846.697	-1377.195	0.000	0.000	180.000	696.000	987.000	-0.000	Terminate	
Unknown	49.98433	01/14/0117 09:49.43	00002999	-0.003	Inter615t31-0	1.013	1	1	356.903	11.111	0.3	0.000	0.000	D	F	477.5	358.312	0.157	0.000	1501.760	1254.922	0.036	-	0.000	-0.015	-	-	-	22	-	19.678	-	PAVEMENT_GENERAL	Urban	F	1011101000011101	0000000000000000	-	car	846.776	889802.375	0.000	0.000	180.000	696.000	987.000	-0.000	Terminate	
Unknown	50.98435	01/14/0117 09:49.44	00003059	0.011	Inter615t31-0	1.014	1	1	356.903	11.111	1.6	0.000	0.000	D	F	477.5	358.312	0.191	0.000	1501.760	1254.928	0.027	-	0.000	-0.003	-	-	-	22	1719.392	19.672	1719.392	PAVEMENT_GENERAL	Urban	F	1011101000011101	0000000000000000	-	car	846.778	-257483.609	0.000	0.000	180.000	696.000	987.000	-0.000	Terminate	
Unknown	51.98437	01/14/0117 09:49.45	00003119	1.604	Inter615t31-0	1.027	1	1	356.903	11.111	18.7	0.402	0.000	D	F	1679.9	358.492	0.149	-0.056	1501.755	1255.255	0.009	R	0.139	4.845	-	-	-	22	12.058	19.345	12.058	PAVEMENT_GENERAL	Urban	F	1011101001011101	0000000000000000	-	car	846.877	-1815.257	0.000	0.000	180.000	696.000	987.000	-0.000	Terminate	
Unknown	52.98439	01/14/0117 09:49.46	00003179	5.669	Inter615t31-0	1.221	1	1	356.903	11.111	14.4	0.342	0.000	D	F	2127.9	359.915	0.227	-0.024	1501.743	1259.066	0.010	L	0.166	3.252	-	-	-	22	2.741	15.539	2.741	PAVEMENT_GENERAL	Urban	F	1011101000111101	0000000000000000	-	car	848.077	-469.690	0.000	0.000	180.000	696.000	987.000	-0.000	Terminate	
Unknown	53.98441	01/14/0117 09:49.47	00003239	7.320	Inter615t33-0	-1.752	1	1	0.061	11.111	18.1	0.049	0.000	D	F	1387.4	2.228	0.193	-0.040	1501.909	1265.848	0.024	L	0.314	0.009	-	-	-	22	0.859	6.290	0.859	PAVEMENT_GENERAL	Urban	F	1011101000111101	0000000000000000	-	car	850.427	-319.612	0.000	0.000	180.000	696.000	987.000	-0.000	Terminate	
Unknown	54.98443	01/14/0117 09:49.48	00003299	7.656	Inter615t11-1	-1.267	2	2	0.000	11.111	16.8	0.095	0.000	D	F	1412.6	4.603	0.177	-0.040	1502.396	1273.210	0.023	L	0.313	0.176	-	-	-	22	0.471	3.606	0.471	PAVEMENT_GENERAL	Urban	F	1011101000111101	0000000000000000	-	car	853.321	-272.499	0.000	0.000	180.000	696.000	987.000	-0.000	Terminate	
Unknown	55.98445	01/14/0117 09:49.49	00003359	7.743	Inter615t11-1	-0.573	2	2	0.000	11.111	-35.8	0.067	0.000	D	F	1173.6	4.655	0.203	0.111	1503.090	1280.901	0.026	L	-0.769	0.103	-	-	-	-	-	-	-	PAVEMENT_GENERAL	Urban	F	1011101000111101	0000000000000000	-	car	856.577	-265.085	0.000	0.000	180.000	696.000	987.000	-0.000	Terminate	
Unknown	56.98447	01/14/0117 09:49.50	00003419	7.905	Inter615t67-0	-0.614	1	1	359.884	11.111	-73.7	0.063	0.000	D	F	1174.2	355.795	0.194	0.198	1503.034	1288.716	0.026	L	-1.539	0.079	-	-	-	-	-	-	-	PAVEMENT_GENERAL	Urban	F	1011101000111101	0000000000000000	-	car	859.230	-387.443	0.000	0.000	180.000	696.000	987.000	-0.000	Terminate	
Unknown	57.98449	01/14/0117 09:49.51	00003479	7.760	-Inter615t59-0	-0.000	-1	1	89.733	11.111	-110.0	0.000	0.000	D	F	763.9	342.150	0.179	0.299	1501.356	1296.423	0.029	L	-2.269	-0.592	-	-	-	-	-	-	-	PAVEMENT_GENERAL	Urban	F	1011101000111101	0000000000000000	-	car	860.392	-2007.116	0.000	0.000	180.000	696.000	987.000	-0.000	Terminate	
Unknown	58.98451	01/14/0117 09:49.52	00003539	7.260	Inter615t75-0	-0.618	1	1	269.734	11.111	-126.2	0.000	0.000	D	F	711.7	325.009	0.177	0.301	1497.775	1302.988	0.029	L	-2.298	-0.563	-	-	-	25	16.912	122.781	-	PAVEMENT_GENERAL	Urban	F	1011101000111101	0000000000000000	-	car	859.436	507.798	0.000	0.000	180.000	696.000	987.000	-0.000	Terminate	
Unknown	59.98453	01/14/0117 09:49.53	00003599	6.727	Inter615t77-0	0.535	1	1	269.734	11.111	-158.6	0.000	0.000	D	F	665.3	305.801	0.172	0.337	1492.658	1307.718	0.030	L	-2.526	-0.667	-	-	-	-	-	-	-	PAVEMENT_GENERAL	Urban	F	1011101000111101	0000000000000000	-	car	856.432	238.456	0.000	0.000	180.000	696.000	987.000	-0.000	Terminate	
Unknown	60.98455	01/14/0117 09:49.54	00003659	6.180	Inter615t87-0	1.070	1	1	236.495	11.111	-210.2	0.000	0.000	D	F	614.2	283.437	0.165	0.388	1486.660	1310.033	0.030	L	-2.893	-0.776	-	-	-	-	-	-	-	PAVEMENT_GENERAL	Urban	F	1011101000111101	0000000000000000	-	car	851.745	169.640	0.000	0.000	180.000	696.000	987.000	-0.000	Terminate	
Unknown	61.98457	01/14/0117 09:49.55	00003719	5.670	-	-	SH	2	-	-	-155.8	0.000	0.000	D	F	562.5	257.753	0.179	0.147	1480.802	1309.526	0.029	L	-1.455	-0.552	-	-	-	-	-	-	-	PAVEMENT_GENERAL	Urban	F	1011101000111101	0000000000000000	-	car	846.131	151.581	0.000	0.000	180.000	696.000	987.000	-0.000	Terminate	
Unknown	62.98459	01/14/0117 09:49.56	00003779	5.720	Inter615t3-4	0.505	2	2	270.000	11.111	-2.1	0.307	0.000	D	F	1737.2	249.407	0.238	-0.024	1475.577	1307.635	0.023	-	0.118	1.758	-	-	-	-	-	-	-	PAVEMENT_GENERAL	Urban	F	1011101000011101	0000000000000000	-	car	840.580	147.035	0.000	0.000	180.000	696.000	987.000	-0.000	Terminate	
Unknown	63.98461	01/14/0117 09:49.57	00003839	8.297	Inter615t3-4	-1.723	2	2	270.000	11.111	39.9	0.321	0.000	D	F	2631.9	253.089	0.227	-0.105	1468.979	1305.407	0.014	-	0.832	2.647	-	-	-	22	-0.047	-0.388	-	PAVEMENT_GENERAL	Urban	F	1011101000011101	0000000000000000	-	car	833.631	100.936	0.000	0.000	180.000	696.000	987.000	-0.000	Terminate	
Unknown	64.98463	01/14/0117 09:49.58	00003899	9.957	Inter615t19-0	-0.212	1	1	270.084	11.111	28.7	0.243	0.000	D	F	2002.5	259.300	0.210	-0.105	1459.966	1303.327	0.020	-	0.834	1.302	-	-	-	22	0.715	7.123	-	PAVEMENT_GENERAL	Urban	F	1011101000011101	0000000000000000	-	car	824.506	84.591	0.000	0.000	180.000	696.000	987.000	-0.000	Terminate	
Unknown	65.98465	01/14/0117 09:49.59	00003959	10.880	Inter615t19-0	-1.587	1	1	270.110	11.111	29.2	0.125	0.000	D	F	1582.7	265.327	0.197	-0.141	1449.544	1301.964	0.024	-	1.084	0.391	-	-	-	22	1.213	13.196	-	PAVEMENT_GENERAL	Urban	F	1011101000011101	0000000000000000	-	car	814.360	78.705	0.000	0.000	180.000	696.000	987.000	-0.000	Terminate	
Unknown	66.98467	01/14/0117 09:50.00	00004019	11.077	-	-	SH	1	-	-	7.3	0.131	0.000	D	F	1527.0	267.830	0.202	-0.036	1438.561	1301.408	0.026	-	0.235	0.239	-	-	-	-	-	-	-	PAVEMENT_GENERAL	Urban	F	1011101000011101	0000000000000000	-	car	804.020	77.636	0.000	0.000	180.000	696.000	987.000	-0.000	Terminate	
Unknown	67.98470	01/14/0117 09:50.01	00004079	11.581	-	-	SH	1	-	-	12.2	0.171	0.000	D	F	1653.4	269.544	0.202	-0.059	1427.267	1301.150	0.024	-	0.431	0.545	-	-	-	-	-	-	-	PAVEMENT_GENERAL	Urban	F	1011101000011101	0000000000000000	-	car	793.531	74.322	0.000	0.000	180.000	696.000	987.000	-0.000	Terminate	
Unknown	68.98471	01/14/0117 09:50.02	00004139	11.997	-	-	CL	0	-	-	-1.3	0.131	0.000	D	F	1550.9	271.222	0.197	0.003	1415.452	1301.281	0.025	-	0.004	0.222	-	-	-	-	-	-	-	PAVEMENT_GENERAL	Urban	F	1011101000011101	0000000000000000	-	car	782.741	71.883	0.000	0.000	180.000	696.000	987.000	-0.000	Terminate	
Unknown	69.98473	01/14/0117 09:50.03	00004199	12.270	-	-	CL	0	-	-	12.6	0.113	0.000	D	F	1530.1	272.275	0.190	-0.066	1403.303	1301.599	0.026	-	0.504	0.069	-	-	-	-	-	-	-	PAVEMENT_GENERAL	Urban	F	1011101000011101	0000000000000000	-	car	771.753	70.132	0.000	0.000	180.000	696.000	987.000	-0.000	Terminate	
Unknown	70.98476	01/14/0117 09:50.04	00004259	12.573	Inter616t1-2	-1.317	1	2	270.000	11.111	-1.4	0.139	0.000	D	F	1616.8	273.580	0.201	-0.001	1390.908	1302.289	0.025	-	-0.008	0.299	-	-	-	22	4.132	51.958	-	PAVEMENT_GENERAL	Urban	F	1011101000011101	0000000000000000	-	car	760.729	68.516	0.000	0.000	180.000	696.000	987.000	-0.000	Terminate	
Unknown	71.98477	01/14/0117 09:50.05	00004319	12.886	Inter616t1-2	-0.547	1	2	270.000	11.111	0.0	0.145	0.000	D	F	1648.9	273.407	0.201	-0.002	1378.204	1303.060	0.025	-	-0.005	0.311	-	-	-	22	4.608	59.374	-	PAVEMENT_GENERAL	Urban	F	1011101000011101	0000000000000000	-	car	749.503	66.040	0.000	0.000	180.000	696.000	987.000	-0.000	Terminate	
Unknown	72.98479	01/14/0117 09:50.06	00004379	13.260	Inter616t1-2	0.231	1	2	270.000	11.111	-4.8	0.213	0.000	D	F	1846.4	273.381	0.203	0.022	1365.180	1303.838	0.024	-	-0.140	0.641	-	-	-	22	5.013	66.469	-	PAVEMENT_GENERAL	Urban	F	1011101000011101	0000000000000000	-	car	738.038	63.465	0.000	0.000	180.000	696.000	987.000	-0.000	Terminate	
Unknown	73.98481	01/14/0117 09:50.07	00004439	13.940	Inter616t1-2	0.841	1	2	270.000	11.111	-5.4	0.219	0.000	D	F	1886.4	271.726	0.204	0.039	1351.587	1304.448	0.023	-	-0.309	0.665	-	-	-	22	5.237	72.996	-	PAVEMENT_GENERAL	Urban	F	1011101000011101	0000000000000000	-	car	726.041	58.754	0.000	0.000	180.000	696.000	987.000	-0.000	Terminate	
Unknown	74.98483	01/14/0117 09:50.08	00004499	14.660	Inter616t1-2	1.176	1	2	270.000	11.111	-4.1	0.256	0.000	D	F	1958.7	270.961	0.202	0.026	1337.294	1304.783	0.023	-	-0.195	0.724	-	-	-	22	5.377	78.823	-	PAVEMENT_GENERAL	Urban	F	1011101000011101	0000000000000000	-	car	713.353	54.769	0.000	0.000	180.000	696.000	987.000	-0.000	Terminate	
Unknown	75.98486	01/14/0117 09:50.09	00004559	15.376	Inter616t1-2	1.313	1	2	270.000	11.111	-4.3	0.280	0.000	D	F	2014.2	270.050	0.202	0.030	1322.277	1304.920	0.023	-	-0.225	0.731	-	-	-	22	5.458	83.925	-	PAVEMENT_GENERAL	Urban	F	1011101000011101	0000000000000000	-	car	699.990	51.079	0.000	0.000	180.000	696.000	987.000	-0.000	Terminate	
Unknown	76.98487	01/14/0117 09:50.10	00004619	16.105	Inter616t1-2	1.218	1	2	270.000	11.111	-4.3	0.295	0.000	D	F	2066.9	269.199	0.200	0.031	1306.539	1304.825	0.023	-	-0.237	0.727	-	-	-	22	5.483	88.306	-	PAVEMENT_GENERAL	Urban	F	1011101000011101	0000000000000000	-	car	685.950	47.676	0.000	0.000	180.000	696.000	987.000	-0.000	Terminate	
Unknown	77.98489	01/14/0117 09:50.11	00004679	16.756	Inter616t1-2	0.876	1	2	270.000	11.111	-4.3	0.196	0.000	D	F	1974.4	268.334	0.196	0.032	1290.095	1304.482	0.024	-	-0.251	0.495	-	-	-	22	5.489	91.982	-	PAVEMENT_GENERAL	Urban	F	1011101000011101	0000000000000000	-	car	671.245	44.744	0.000	0.000	180.000	696.000	987.000	-0.000	Terminate	
Unknown	78.98492	01/14/0117 09:50.12	00004739	17.184	Inter616t1-2	0.435	1	2	270.000	11.111	3.5	0.245	0.000	D	F	2069.1	269.153	0.196	-0.042	1273.143	1304.042	0.024	-	0.329	0.505	-	-	-	22	5.536	95.140	-	PAVEMENT_GENERAL	Urban	F	1011101000011101	0000000000000000	-	car	656.131	43.217	0.000	0.000	180.000	696.000	987.000	-0.000	Terminate	
Unknown	79.98493	01/14/0117 09:50.13	00004799	17.750	Inter616t1-2	0.225	1	2	270.000	11.111	1.7	0.249	0.000	D	F	2105.8	269.490	0.195	-0.013	1255.684	1303.832	0.024	-	0.094	0.547	-	-	-	22	5.487	97.405	-	PAVEMENT_GENERAL	Urban	F	1111101000011101	0000000000000000	-	car	640.780	41.276	0.000	0.000	180.000	696.000	987.000	-0.000	Terminate	
Unknown	80.98495	01/14/0117 09:50.14	00004859	18.095	Inter616t1-2	0.108	1	2	270.000	11.111	3.0	0.171	0.000	D	F	2011.1	269.848	0.191	-0.024	1237.735	1303.714	0.025	-	0.167	0.198	-	-	-	22	5.435	98.344	-	PAVEMENT_GENERAL	Urban	F	1011101000011101	0000000000000000	-	car	625.164	39.957	0.000	0.000	180.000	696.000	987.000	-0.000	Terminate	
Unknown	81.98497	01/14/0117 09:50.15	00004919	18.156	Inter616t1-2	0.137	1	2	270.000	11.111	0.6	0.134	0.000	D	F	1969.6	270.321	0.190	-0.006	1219.594	1303.744	0.027	-	0.062	0.000	-	-	-	22	5.414	98.288	214.849	PAVEMENT_GENERAL	Urban	F	1011101000011101	0000000000000000	-	car	609.586	39.374	0.000	0.000	180.000	696.000	987.000	-0.000	Terminate	
Unknown	82.98499	01/14/0117 09:50.16	00004979	18.180	Inter616t1-2	0.248	1	2	270.000	11.111	0.5	0.145	0.000	D	F	1986.7	270.407	0.191	-0.004	1201.431	1303.855	0.026	-	0.032	0.060	-	-	-	22	5.234	95.155	86.621	PAVEMENT_GENERAL	Urban	F	1011101000011101	0000000000000000	-	car	594.179	38.748	0.000	0.000	180.000	696.000	987.000	-0.000	Terminate	
Unknown	83.98502	01/14/0117 09:50.17	00005039	18.232	Inter617t1-2	0.400	1	2	270.000	11.111	3.1	0.146	0.000	D	F	1992.7	270.680	0.191	-0.027	1183.225	1304.007	0.026	-	0.182	0.059	-	-	-	22	5.269	96.070	54.371	PAVEMENT_GENERAL	Urban	F	1011101000011101	0000000000000000	-	car	578.917	38.180	0.000	0.000	180.000	696.000	987.000	-0.000	Terminate	
Unknown	84.98503	01/14/0117 09:50.18	00005099	18.324	Inter617t1-2	0.665	1	2	270.000	11.111	-0.4	0.157	0.000	D	F	2015.6	270.864	0.191	0.003	1164.956	1304.272	0.026	-	-0.035	0.123	-	-	-	22	5.131	94.021	39.853	PAVEMENT_GENERAL	Urban	F	1011101000011101	0000000000000000	-	car	563.840	37.538	0.000	0.000	180.000	696.000	987.000	-0.000	Terminate	
Unknown	85.98505	01/14/0117 09:50.19	00005159	18.423	Inter617t1-2	0.909	1	2	270.000	11.111	-1.9	0.152	0.000	D	F	2014.7	270.571	0.191	0.015	1146.581	1304.516	0.026	-	-0.118	0.083	-	-	-	22	4.959	91.365	30.890	PAVEMENT_GENERAL	Urban	F	1011101000011101	0000000000000000	-	car	548.857	36.706	0.000	0.000	180.000	696.000	987.000	-0.000	Terminate	
Unknown	86.98507	01/14/0117 09:50.20	00005219	18.529	Inter617t1-2	1.043	1	2	270.000	11.111	-1.7	0.160	0.000	D	F	2037.5	270.209	0.191	0.015	1128.107	1304.650	0.026	-	-0.114	0.122	-	-	-	22	4.766	88.302	34.434	PAVEMENT_GENERAL	Urban	F	1011101000011101	0000000000000000	-	car	533.941	35.861	0.000	0.000	180.000	696.000	987.000	-0.000	Terminate	
Unknown	87.98509	01/14/0117 09:50.21	00005279	18.598	Inter617t1-2	1.064	1	2	270.000	11.111	-1.8	0.155	0.000	D	F	2034.6	269.864	0.191	0.015	1109.544	1304.671	0.026	-	-0.114	0.086	-	-	-	22	4.661	86.688	137.020	PAVEMENT_GENERAL	Urban	F	1111101000011101	0000000000000000	-	car	519.113	35.133	0.000	0.000	180.000	696.000	987.000	-0.000	Terminate	
Unknown	88.98512	01/14/0117 09:50.22	00005339	18.640	Inter617t1-2	0.972	1	2	270.000	11.111	-1.7	0.138	0.000	D	F	2015.6	269.514	0.189	0.014	1090.917	1304.579	0.027	-	-0.112	0.005	-	-	-	-	-	-	-	PAVEMENT_GENERAL	Urban	F	1011101000011101	0000000000000000	-	car	504.411	34.491	0.000	0.000	180.000	696.000	987.000	-0.000	Terminate	
Unknown	89.98513	01/14/0117 09:50.23	00005399	18.571	Inter617t1-2	0.789	1	2	270.000	11.111	-2.0	0.000	0.000	D	F	1527.9	269.321	0.173	0.014	1072.281	1304.396	0.028	-	-0.110	-0.536	-	-	-	-	-	-	-	PAVEMENT_GENERAL	Urban	F	1011101000011101	0000000000000000	-	car	489.908	34.172	0.000	0.000	180.000	696.000	987.000	-0.000	Terminate	
Unknown	90.98515	01/14/0117 09:50.24	00005459	12.104	Inter617t1-2	0.544	1	2	270.000	11.111	-2.7	0.002	0.439	D	F	1031.5	268.638	-0.078	0.031	1056.450	1304.151	0.040	-	-0.205	-5.902	-	-	-	-	-	-	-	PAVEMENT_GENERAL	Urban	F	1011101000011101	0000000000000000	-	car	477.753	51.512	0.000	0.000	180.000	696.000	987.000	-0.000	Terminate	
Unknown	91.98518	01/14/0117 09:50.25	00005519	8.577	Inter617t1-2	0.250	1	2	270.000	11.111	-6.6	0.000	0.316	D	F	804.2	267.997	0.134	0.019	1046.188	1303.856	0.037	-	-0.154	-4.147	-	-	-	-	-	-	-	PAVEMENT_GENERAL	Urban	F	1011101000011101	0000000000000000	-	car	469.901	71.666	0.000	0.000	180.000	696.000	987.000	-0.000	Terminate	
Unknown	92.98519	01/14/0117 09:50.26	00005579	4.805	Inter617t1-2	0.030	1	2	270.000	11.111	11.3	0.000	0.191	D	F	477.5	268.534	0.161	-0.014	1039.628	1303.637	0.035	-	0.073	-2.950	-	-	-	-	-	-	-	PAVEMENT_GENERAL	Urban	F	1011101000011101	0000000000000000	-	car	464.909	128.584	0.000	0.000	180.000	696.000	987.000	-0.000	Terminate	
Unknown	93.98521	01/14/0117 09:50.27	00005639	4.058	Inter617t1-2	-0.040	1	2	270.000	11.111	6.1	0.257	0.000	D	F	1706.7	269.040	0.273	-0.014	1035.529	1303.567	0.025	-	0.064	2.320	-	-	-	-	-	-	-	PAVEMENT_GENERAL	Urban	F	1011101000011101	0000000000000000	-	car	461.854	153.220	0.000	0.000	180.000	696.000	987.000	-0.000	Terminate	
Unknown	94.98523	01/14/0117 09:50.28	00005699	6.370	Inter617t1-2	-0.069	1	2	270.000	11.111	7.1	0.134	0.000	D	F	1570.9	269.909	0.173	-0.011	1030.073	1303.538	0.020	-	0.093	0.602	-	-	-	-	-	-	-	PAVEMENT_GENERAL	Urban	F	1011101000011101	0000000000000000	-	car	457.859	98.869	0.000	0.000	180.000	696.000	987.000	-0.000	Terminate	
Unknown	95.98525	01/14/0117 09:50.29	00005759	8.052	Inter617t1-2	0.016	1	2	270.000	11.111	8.7	0.254	0.000	D	F	1864.1	271.159	0.215	-0.022	1022.897	1303.623	0.018	-	0.178	1.661	-	-	-	-	-	-	-	PAVEMENT_GENERAL	Urban	F	1011101000011101	0000000000000000	-	car	452.735	79.861	0.000	0.000	180.000	696.000	987.000	-0.000	Terminate	
Unknown	96.98528	01/14/0117 09:50.30	00005819	9.567	Inter617t1-2	0.281	1	2	270.000	11.111	0.7	0.273	0.000	D	F	1986.7	271.925	0.215	-0.002	1014.079	1303.888	0.019	-	0.026	1.462	-	-	-	-	-	-	-	PAVEMENT_GENERAL	Urban	F	1011101000011101	0000000000000000	-	car	446.631	68.218	0.000	0.000	180.000	696.000	987.000	-0.000	Terminate	
Unknown	97.98529	01/14/0117 09:50.31	00005879	10.967	Inter617t1-2	0.640	1	2	270.000	11.111	0.6	0.289	0.000	D	F	2110.2	272.069	0.212	-0.004	1003.808	1304.247	0.020	-	0.026	1.338	-	-	-	-	-	-	-	PAVEMENT_GENERAL	Urban	F	1011101000011101	0000000000000000	-	car	439.671	59.838	0.000	0.000	180.000	696.000	987.000	-0.000	Terminate	
Unknown	98.98531	01/14/0117 09:50.32	00005939	12.231	Inter618t1-0	0.342	1	2	269.999	24.444	-3.1	0.284	0.000	D	F	2227.0	271.740	0.288	-0.021	992.205	1304.642	0.023	-	-0.132	1.212	-	-	-	32	2.492	30.478	-	FREEWAY_SMOOTH	Urban	F	1011101000011101	0000000000000000	-	car	431.961	53.554	0.000	0.000	180.000	696.000	987.000	-0.000	Terminate	
Unknown	99.98534	01/14/0117 09:50.33	00005999	13.489	Inter618t1-0	0.679	1	2	269.744	24.444	-3.2	0.369	0.000	D	F	2434.3	271.070	0.282	-0.199	979.369	1304.956	0.038	-	-0.167	1.391	-	-	-	32	2.317	31.253	-	FREEWAY_SMOOTH	Urban	F	1011101000011101	0000000000000000	-	car	423.544	48.212	0.000	0.000	180.000	696.000	987.000	-0.000	Terminate	
Unknown	100.98535	01/14/0117 09:50.34	00006059	14.837	Inter618t1-0	0.963	1	2	269.096	24.444	-5.2	0.337	0.000	D	F	2591.6	270.023	0.286	-0.381	965.202	1305.108	0.057	-	-0.326	1.326	-	-	-	32	2.197	32.596	-	FREEWAY_SMOOTH	Urban	F	1011101000011101	0000000000000000	-	car	414.369	43.255	0.000	0.000	180.000	696.000	987.000	-0.000	Terminate	
Unknown	101.98537	01/14/0117 09:50.35	00006119	16.024	Inter618t1-0	1.177	1	2	267.935	24.444	-14.1	0.312	0.000	D	F	2742.7	268.410	0.284	-0.529	949.765	1304.938	0.080	-	-0.752	1.161	-	-	-	31	1.939	31.070	-	FREEWAY_SMOOTH	Urban	F	1011101000011101	0000000000000000	-	car	404.434	39.114	0.000	0.000	180.000	696.000	987.000	-0.000	Terminate	
Unknown	102.98539	01/14/0117 09:50.36	00006179	17.164	Inter618t1-0	1.236	1	2	266.178	24.444	-12.7	0.305	0.000	D	F	2900.7	266.434	0.281	-0.771	933.184	1304.166	0.103	-	-0.664	1.104	-	-	-	31	1.843	31.640	-	FREEWAY_SMOOTH	Urban	F	1011101000011101	0000000000000000	-	car	393.685	35.420	0.000	0.000	180.000	696.000	987.000	-0.000	Terminate	
Unknown	103.98541	01/14/0117 09:50.37	00006239	18.243	Inter618t1-0	1.273	1	2	263.719	24.444	-10.9	0.300	0.000	D	F	2763.2	263.966	0.286	-1.007	915.547	1302.672	0.127	-	-0.718	1.271	-	-	-	31	1.730	31.562	87.297	FREEWAY_SMOOTH	Urban	F	1011101000011101	0000000000000000	-	car	382.153	32.026	0.000	0.000	180.000	696.000	987.000	-0.000	Terminate	
Unknown	104.98544	01/14/0117 09:50.38	00006299	18.978	Inter618t1-0	1.414	1	2	260.476	24.444	-16.2	0.303	0.000	D	F	2245.6	260.941	0.277	-1.217	897.052	1300.283	0.157	-	-1.167	0.610	-	-	-	31	1.617	30.683	27.968	FREEWAY_SMOOTH	Urban	F	1011101000011101	0000000000000000	-	car	369.888	29.270	0.000	0.000	180.000	696.000	987.000	-0.000	Terminate	
Unknown	105.98545	01/14/0117 09:50.39	00006359	19.559	Inter618t1-0	1.613	1	2	256.450	24.444	-16.8	0.298	0.000	D	F	2274.6	257.032	0.278	-1.453	878.126	1296.665	0.188	-	-1.339	0.574	-	-	-	31	1.469	28.731	17.122	FREEWAY_SMOOTH	Urban	F	1011101000011101	0000000000000000	-	car	356.893	26.542	0.000	0.000	180.000	696.000	987.000	-0.000	Terminate	
Unknown	106.98547	01/14/0117 09:50.40	00006419	20.097	Inter618t1-1	-1.620	2	2	251.687	24.444	-18.9	0.287	0.000	D	F	2309.2	252.882	0.223	-1.544	858.951	1291.612	0.213	-	-1.558	0.527	-	-	-	31	1.444	29.018	13.097	FREEWAY_SMOOTH	Urban	F	1011101000011101	0000000000000000	-	car	343.099	24.034	0.000	0.000	180.000	696.000	987.000	-0.000	Terminate	
Unknown	107.98550	01/14/0117 09:50.41	00006479	20.407	Inter618t1-1	-1.140	2	2	246.780	24.444	-23.2	0.215	0.000	D	F	2255.4	247.498	0.206	-1.482	839.820	1284.905	0.229	-	-2.103	0.312	-	-	-	31	1.312	26.765	10.597	FREEWAY_SMOOTH	Urban	F	1011101000011101	0000000000000000	-	car	328.445	21.566	0.000	0.000	180.000	696.000	987.000	-0.000	Terminate	
Unknown	108.98551	01/14/0117 09:50.42	00006539	20.707	Inter618t1-1	-0.985	2	2	241.804	24.444	-24.3	0.224	0.000	D	F	2292.2	241.018	0.150	-1.459	821.227	1276.162	0.233	-	-2.331	0.329	-	-	-	31	1.167	24.164	8.551	FREEWAY_SMOOTH	Urban	F	1011101000011101	0000000000000000	-	car	312.754	19.064	0.000	0.000	180.000	696.000	987.000	-0.000	Terminate	
Unknown	109.98553	01/14/0117 09:50.43	00006599	21.008	Inter618t1-1	-1.385	2	2	236.768	24.444	-21.1	0.212	0.000	D	F	2305.7	234.354	0.096	-1.462	803.493	1265.200	0.222	-	-2.282	0.323	-	-	-	31	1.017	21.370	6.835	FREEWAY_SMOOTH	Urban	F	1011101000011101	0000000000000000	-	car	295.885	16.838	0.000	0.000	180.000	696.000	987.000	-0.000	Terminate	
Unknown	110.98555	01/14/0117 09:50.44	00006659	20.910	Inter618t1-0	1.495	1	2	231.672	24.444	-22.0	0.139	0.000	D	F	1705.9	229.514	0.101	-1.496	786.866	1252.369	0.202	-	-1.939	-0.339	-	-	-	31	0.738	15.439	5.097	FREEWAY_SMOOTH	Urban	F	1011101000011101	0000000000000000	-	car	278.135	15.455	0.000	0.000	180.000	696.000	987.000	-0.000	Terminate	
Unknown	111.98557	01/14/0117 09:50.45	00006719	20.954	Inter618t1-0	0.695	1	2	226.575	24.444	-14.8	0.173	0.000	D	F	1776.9	224.103	0.095	-1.566	771.578	1238.124	0.175	-	-1.537	0.098	-	-	-	32	1.876	39.312	46.897	FREEWAY_SMOOTH	Urban	F	1011101000011101	0000000000000000	-	car	259.891	13.964	0.000	0.000	180.000	696.000	987.000	-0.000	Terminate	
Unknown	112.98560	01/14/0117 09:50.46	00006779	21.159	Inter618t1-0	0.032	1	2	221.449	24.444	-14.4	0.242	0.000	D	F	1941.0	219.685	0.122	-1.555	757.421	1222.565	0.156	-	-1.581	0.257	-	-	-	32	1.823	38.578	36.983	FREEWAY_SMOOTH	Urban	F	1011101000011101	0000000000000000	-	car	241.082	12.579	0.000	0.000	180.000	696.000	987.000	-0.000	Terminate	
Unknown	113.98561	01/14/0117 09:50.47	00006839	21.387	Inter618t1-0	-0.263	1	2	216.257	24.444	-15.5	0.228	0.000	D	F	1937.8	215.533	0.155	-1.518	744.283	1205.834	0.147	-	-1.772	0.228	-	-	-	32	1.757	37.582	29.558	FREEWAY_SMOOTH	Urban	F	1011101000011101	0000000000000000	-	car	221.738	11.271	0.000	0.000	180.000	696.000	987.000	-0.000	Terminate	
Unknown	114.98563	01/14/0117 09:50.48	00006899	21.571	Inter618t1-0	-0.108	1	2	211.001	24.444	-19.6	0.213	0.000	D	F	1919.1	211.928	0.205	-1.537	732.234	1188.049	0.152	-	-1.691	0.168	-	-	-	32	1.683	36.304	24.952	FREEWAY_SMOOTH	Urban	F	1011101000011101	0000000000000000	-	car	201.929	10.076	0.000	0.000	180.000	696.000	987.000	-0.000	Terminate	
Unknown	115.98566	01/14/0117 09:50.49	00006959	21.696	Inter618t1-0	0.381	1	2	205.695	24.444	-24.8	0.206	0.000	D	F	1900.5	206.348	0.193	-1.443	721.510	1169.264	0.167	-	-2.372	0.122	-	-	-	32	1.593	34.562	21.869	FREEWAY_SMOOTH	Urban	F	1011101000011101	0000000000000000	-	car	181.681	8.824	0.000	0.000	180.000	696.000	987.000	-0.000	Terminate	
Unknown	116.98567	01/14/0117 09:50.51	00007019	21.782	Inter618t1-0	0.579	1	2	200.404	24.444	-18.1	0.213	0.000	D	F	1920.0	199.571	0.144	-1.444	712.792	1149.362	0.173	-	-2.384	0.156	-	-	-	32	1.523	33.173	19.910	FREEWAY_SMOOTH	Urban	F	1011101000011101	0000000000000000	-	car	160.869	7.601	0.000	0.000	180.000	696.000	987.000	-0.000	Terminate	
Unknown	117.98569	01/14/0117 09:50.52	00007079	21.924	Inter618t1-0	0.807	1	2	195.074	24.444	-30.2	0.203	0.000	D	F	1897.6	196.585	0.198	-1.471	705.888	1128.625	0.179	-	-1.919	0.101	-	-	-	32	1.442	31.622	17.494	FREEWAY_SMOOTH	Urban	F	1011101000011101	0000000000000000	-	car	139.610	6.525	0.000	0.000	180.000	696.000	987.000	-0.000	Terminate	
Unknown	118.98571	01/14/0117 09:50.53	00007139	21.875	Inter618t1-0	0.982	1	2	190.260	24.444	-26.8	0.102	0.000	D	F	1673.8	188.471	0.035	-1.071	700.912	1107.282	0.159	-	-2.804	-0.278	-	-	-	32	1.476	32.293	18.362	FREEWAY_SMOOTH	Urban	F	1011101000011101	0000000000000000	-	car	118.023	5.426	0.000	0.000	180.000	696.000	987.000	-0.000	Terminate	
Unknown	119.98573	01/14/0117 09:50.54	00007199	21.342	Inter618t1-0	0.078	1	2	186.421	24.444	-2.0	0.000	0.000	D	F	1455.3	182.965	0.039	-1.005	698.676	1085.764	0.115	-	-1.029	-0.630	-	-	-	-	-	-	-	FREEWAY_SMOOTH	Urban	F	1011101000011101	0000000000000000	-	car	96.441	4.520	0.000	0.000	180.000	696.000	987.000	-0.000	Terminate	
Unknown	120.98576	01/14/0117 09:50.55	00007259	20.970	Inter618t1-0	-0.712	1	2	183.514	24.444	-0.1	0.072	0.000	D	F	1561.6	182.602	0.117	-0.827	697.649	1064.679	0.080	-	-0.063	-0.299	-	-	-	-	-	-	-	FREEWAY_SMOOTH	Urban	F	1011101000011101	0000000000000000	-	car	75.337	3.594	0.000	0.000	180.000	696.000	987.000	-0.000	Terminate	
Unknown	121.98577	01/14/0117 09:50.56	00007319	19.999	Inter618t1-0	-0.777	1	2	181.505	24.444	-11.3	0.000	0.412	D	F	1292.6	181.363	-0.017	-0.453	696.823	1043.973	0.066	-	-0.733	-4.782	-	-	-	-	-	-	-	FREEWAY_SMOOTH	Urban	F	1011101000011101	0000000000000000	-	car	54.620	2.731	0.000	0.000	180.000	696.000	987.000	-0.000	Terminate	
Unknown	122.98579	01/14/0117 09:50.57	00007379	12.411	Inter618t1-0	-0.880	1	2	180.496	24.444	-2.9	0.000	0.806	D	F	938.7	179.401	-0.378	-0.267	696.648	1027.573	0.063	-	-0.322	-9.047	-	-	-	-	-	-	-	FREEWAY_SMOOTH	Urban	F	1011101000011101	0000000000000000	-	car	38.219	3.081	0.000	0.000	180.000	696.000	987.000	-0.000	Terminate	
Unknown	123.98581	01/14/0117 09:50.58	00007439	3.960	Inter618t1-0	-1.040	1	2	180.210	24.444	-3.8	0.000	0.439	D	F	477.5	178.909	-0.108	-0.200	696.759	1019.659	0.053	-	-0.020	-5.548	-	-	-	-	-	-	-	FREEWAY_SMOOTH	Urban	F	1011101000011101	0000000000000000	-	car	31.194	15.130	1.900	2.000	177.244	696.041	986.114	-0.000	Terminate	
Unknown	124.98583	01/14/0117 09:50.59	00007499	3.720	Inter618t1-0	-1.122	1	2	180.130	24.444	-2.4	0.242	0.000	D	F	1724.9	178.687	0.149	-0.159	696.832	1016.542	0.023	-	-0.010	3.174	-	-	-	-	-	-	-	FREEWAY_SMOOTH	Urban	F	1011101000011101	0000000000000000	-	car	30.953	-178.976	3.900	2.000	176.816	696.211	983.236	-0.000	Terminate	
Unknown	125.98586	01/14/0117 09:51.00	00007559	6.468	Inter618t1-0	-1.257	1	2	180.018	24.444	1.4	0.250	0.000	D	F	2147.7	178.597	0.174	-0.097	696.960	1011.361	0.020	-	0.034	2.299	-	-	-	-	-	-	-	FREEWAY_SMOOTH	Urban	F	1011101000011101	0000000000000000	-	car	30.652	54.042	5.900	2.000	178.727	696.364	978.355	-0.000	Terminate	
Unknown	126.98587	01/14/0117 09:51.01	00007619	8.583	Inter618t1-0	-1.448	1	2	180.000	24.444	-3.6	0.256	0.000	D	F	2027.1	178.505	0.194	0.014	697.148	1003.806	0.017	-	-0.083	1.724	-	-	-	-	-	-	-	FREEWAY_SMOOTH	Urban	F	1011101000011101	0000000000000000	-	car	29.984	44.445	7.900	2.000	179.957	696.400	971.471	-0.000	Terminate	
Unknown	127.98589	01/14/0117 09:51.02	00007679	10.044	Inter686t1-0	-1.125	1	1	180.000	11.111	-5.6	0.259	0.000	D	F	2012.2	176.973	0.212	0.024	697.521	994.472	0.020	-	-0.195	1.340	-	-	-	car	2.705	27.165	188.672	PAVEMENT_GENERAL	Urban	F	1011101000011101	0000000000000000	-	car	29.545	265.883	9.900	2.000	180.013	696.397	962.588	-0.000	Terminate	
Unknown	128.98592	01/14/0117 09:51.03	00007739	11.303	Inter686t1-0	-1.734	1	1	180.000	11.111	5.7	0.250	0.000	D	F	2096.0	176.835	0.208	-0.022	698.130	983.800	0.021	-	0.171	1.141	-	-	-	car	2.422	27.377	-	PAVEMENT_GENERAL	Urban	F	1011101000011101	0000000000000000	-	car	29.784	-45.983	11.900	2.000	180.003	696.397	951.704	-0.000	Terminate	
Unknown	129.98593	01/14/0117 09:51.04	00007799	12.378	-	-	CL	0	-	-	1.4	0.259	0.000	D	F	2223.2	177.766	0.208	-0.000	698.674	971.970	0.021	-	0.082	1.084	-	-	-	-	-	-	-	PAVEMENT_GENERAL	Urban	F	1011101000011101	0000000000000000	-	car	30.869	-19.771	13.900	2.000	180.003	696.397	938.820	-0.000	Terminate	
Unknown	130.98595	01/14/0117 09:51.05	00007859	13.416	-	-	CL	0	-	-	11.2	0.245	0.000	D	F	2328.8	179.059	0.206	-0.062	699.069	959.068	0.022	-	0.488	0.974	-	-	-	-	-	-	-	PAVEMENT_GENERAL	Urban	F	1011101000011101	0000000000000000	-	car	32.874	-13.172	15.900	2.000	180.002	696.397	923.936	-0.000	Terminate	
Unknown	131.98598	01/14/0117 09:51.06	00007919	14.405	-	-	CL	0	-	-	3.3	0.261	0.000	D	F	2477.4	180.084	0.206	-0.016	699.134	945.161	0.022	-	0.138	0.999	-	-	-	-	-	-	-	PAVEMENT_GENERAL	Urban	F	1011101000011101	0000000000000000	-	car	35.848	-10.285	17.900	2.000	180.002	696.397	907.052	-0.000	Terminate	
Unknown	132.98599	01/14/0117 09:51.07	00007979	15.395	-	-	CL	0	-	-	0.2	0.252	0.000	D	F	2611.6	180.689	0.202	-0.005	699.019	930.258	0.022	-	0.037	0.928	-	-	-	-	-	-	-	PAVEMENT_GENERAL	Urban	F	1011101000011101	0000000000000000	-	car	39.430	-10.939	19.017	1.000	180.002	696.397	888.551	-0.000	Terminate	
Unknown	133.98601	01/14/0117 09:51.08	00008039	15.855	-	-	CL	0	-	-	-2.8	0.104	0.000	D	F	1749.2	180.411	0.186	0.020	698.852	914.526	0.026	-	-0.143	-0.106	-	-	-	-	-	-	-	PAVEMENT_GENERAL	Urban	F	1011101000011101	0000000000000000	-	car	42.993	-11.618	19.567	0.500	180.002	696.397	869.241	-0.000	Terminate	
Unknown	134.98604	01/14/0117 09:51.09	00008099	16.363	-	-	CL	0	-	-	-1.4	0.305	0.000	D	F	2096.2	179.995	0.202	0.011	698.797	898.480	0.023	-	-0.085	0.785	-	-	-	-	-	-	-	PAVEMENT_GENERAL	Urban	F	1011101000011101	0000000000000000	-	car	46.752	-12.638	20.067	0.500	180.002	696.397	849.427	-0.000	Terminate	
Unknown	135.98605	01/14/0117 09:51.10	00008159	17.120	-	-	CL	0	-	-	-1.9	0.337	0.000	D	F	2167.0	179.662	0.198	0.015	698.838	881.737	0.023	-	-0.119	0.732	-	-	-	-	-	-	-	PAVEMENT_GENERAL	Urban	F	1011101000011101	0000000000000000	-	car	50.120	-16.718	20.116	0.000	180.002	696.397	829.314	-0.000	Terminate	
Unknown	136.98607	01/14/0117 09:51.11	00008219	17.891	-	-	CL	0	-	-	-0.5	0.344	0.000	D	F	2213.7	179.229	0.198	0.015	698.999	864.229	0.023	-	-0.100	0.756	-	-	-	-	-	-	-	PAVEMENT_GENERAL	Urban	F	1011101000011101	0000000000000000	-	car	52.733	-23.593	20.116	0.000	179.973	696.398	809.198	-0.000	Terminate	
Unknown	137.98610	01/14/0117 09:51.12	00008279	18.630	-	-	CL	0	-	-	4.1	0.358	0.000	D	F	2259.2	179.868	0.197	-0.036	699.174	845.967	0.023	-	0.270	0.731	-	-	-	-	-	-	-	PAVEMENT_GENERAL	Urban	F	1011101000011101	0000000000000000	-	car	54.593	-36.738	20.116	0.000	179.997	696.403	789.082	-0.000	Terminate	
Unknown	138.98611	01/14/0117 09:51.13	00008339	19.347	-	-	CL	0	-	-	2.9	0.362	0.000	D	F	2300.1	180.563	0.195	-0.026	699.117	826.976	0.023	-	0.206	0.699	-	-	-	-	-	-	-	PAVEMENT_GENERAL	Urban	F	1011101000011101	0000000000000000	-	car	55.713	-73.252	20.116	0.000	179.997	696.403	768.966	-0.000	Terminate	
Unknown	139.98613	01/14/0117 09:51.14	00008399	20.030	-	-	CL	0	-	-	2.2	0.374	0.000	D	F	2353.3	180.967	0.194	-0.019	698.867	807.287	0.024	-	0.149	0.679	-	-	-	-	-	-	-	PAVEMENT_GENERAL	Urban	F	1011101000011101	0000000000000000	-	car	56.129	-756.004	20.116	0.000	179.996	696.403	748.850	-0.000	Terminate	
Unknown	140.98616	01/14/0117 09:51.15	00008459	20.698	-	-	CL	0	-	-	0.0	0.369	0.000	D	F	2406.6	181.313	0.193	-0.008	698.468	786.926	0.024	-	0.062	0.658	-	-	-	-	-	-	-	PAVEMENT_GENERAL	Urban	F	1011101000011101	0000000000000000	-	car	55.868	94.276	20.116	0.000	179.996	696.403	728.734	-0.000	Terminate	
Unknown	141.98618	01/14/0117 09:51.16	00008519	21.345	Inter682t1-1	-1.593	1	1	180.000	11.111	-0.8	0.342	0.000	D	F	2453.5	181.196	0.191	0.013	697.997	765.906	0.024	-	-0.073	0.629	-	-	-	car	2.463	52.569	42.783	PAVEMENT_GENERAL	Urban	F	1111101000011101	0000000000000000	-	car	54.951	44.457	20.116	0.000	179.996	696.403	708.618	-0.000	Terminate	
Unknown	142.98619	01/14/0117 09:51.17	00008579	21.967	Inter682t1-1	-1.204	1	1	180.000	11.111	-4.8	0.349	0.000	D	F	2503.8	180.631	0.190	0.044	697.608	744.254	0.024	-	-0.328	0.619	-	-	-	car	2.323	51.032	27.577	PAVEMENT_GENERAL	Urban	F	1011101000011101	0000000000000000	-	car	53.405	28.805	20.116	0.000	179.996	696.403	688.502	-0.000	Terminate	
Unknown	143.98621	01/14/0117 09:51.18	00008639	22.577	Inter682t1-1	-1.100	1	1	180.000	11.111	-2.8	0.351	0.000	D	F	2551.6	179.714	0.188	0.039	697.504	721.981	0.024	-	-0.297	0.603	-	-	-	car	2.165	48.875	19.861	PAVEMENT_GENERAL	Urban	F	1011101000011101	0000000000000000	-	car	51.246	20.851	20.116	0.000	179.996	696.403	668.386	-0.000	Terminate	
Unknown	144.98624	01/14/0117 09:51.19	00008699	23.177	Inter682t1-1	-1.276	1	1	180.000	11.111	-2.9	0.353	0.000	D	F	2598.8	179.239	0.188	0.029	697.679	699.104	0.024	-	-0.221	0.596	-	-	-	car	1.990	46.114	15.064	PAVEMENT_GENERAL	Urban	F	1011101000011101	0000000000000000	-	car	48.490	15.896	20.116	0.000	179.996	696.403	648.270	-0.000	Terminate	
Unknown	145.98625	01/14/0117 09:51.20	00008759	23.733	Inter682t1-1	-1.658	1	1	180.000	11.111	-0.5	0.277	0.000	D	F	2607.7	178.834	0.182	0.009	698.062	675.638	0.025	-	-0.093	0.416	-	-	-	car	1.802	42.764	11.822	PAVEMENT_GENERAL	Urban	F	1011101000011101	0000000000000000	-	car	45.153	12.566	20.116	0.000	179.996	696.403	628.154	-0.000	Terminate	
Unknown	146.98627	01/14/0117 09:51.21	00008819	24.230	-	-	CL	0	-	-	1.0	0.243	0.000	D	F	2631.2	178.787	0.180	-0.009	698.564	651.656	0.025	-	0.050	0.342	-	-	-	-	-	-	-	PAVEMENT_GENERAL	Urban	F	1011101000011101	0000000000000000	-	car	41.312	10.132	20.116	0.000	180.028	696.401	608.039	-0.000	Terminate	
Unknown	147.98630	01/14/0117 09:51.22	00008879	24.218	-	-	CL	0	-	-	3.0	0.159	0.000	D	F	1907.2	179.339	0.178	-0.041	699.013	627.399	0.027	-	0.308	-0.123	-	-	-	-	-	-	-	PAVEMENT_GENERAL	Urban	F	1011101000011101	0000000000000000	-	car	37.178	8.198	19.716	-4.000	177.830	696.527	587.940	-0.000	Terminate	
Unknown	148.98631	01/14/0117 09:51.23	00008939	23.774	-	-	CL	0	-	-	2.6	0.000	0.087	D	F	1611.9	180.016	0.171	-0.045	699.206	603.341	0.030	-	0.322	-0.837	-	-	-	-	-	-	-	PAVEMENT_GENERAL	Urban	F	1011101000011101	0000000000000000	-	car	30.793	3.756	15.716	-4.000	174.371	697.616	570.227	-0.000	Terminate	
Unknown	149.98633	01/14/0117 09:51.24	00008999	15.685	-	-	SH-	1	-	-	-2.9	0.000	1.000	D	F	934.7	180.217	-0.424	0.004	699.182	583.074	0.046	-	-0.008	-9.420	-	-	-	-	-	-	-	PAVEMENT_GENERAL	Urban	F	1011101000011101	0000000000000000	-	car	24.428	8.810	12.966	-1.000	175.341	698.917	556.288	-0.000	Terminate	
Unknown	150.98636	01/14/0117 09:51.25	00009059	7.704	-	-	SH-	1	-	-	-3.2	0.000	0.188	D	F	734.7	179.708	0.108	0.012	699.181	571.870	0.038	-	-0.081	-3.553	-	-	-	-	-	-	-	PAVEMENT_GENERAL	Urban	F	1011101000011101	0000000000000000	-	car	25.717	-5.754	12.174	-0.500	178.152	699.702	543.798	-0.000	Terminate	
Unknown	151.98637	01/14/0117 09:51.26	00009119	7.479	Inter688t33-0	-1.233	1	1	174.081	11.111	10.2	0.109	0.000	D	F	1342.3	179.684	0.199	-0.029	699.238	564.454	0.024	-	0.196	0.450	-	-	-	car	3.640	27.220	-	PAVEMENT_GENERAL	Urban	F	1011101000011101	0000000000000000	-	car	29.647	-13.879	9.614	-4.034	179.444	699.910	532.455	-0.000	Terminate	
Unknown	152.98639	01/14/0117 09:51.27	00009179	7.737	Inter688t33-0	-0.188	1	1	175.943	11.111	1.0	0.000	0.000	D	F	744.0	180.891	0.173	0.001	699.164	556.782	0.026	-	0.010	-0.484	-	-	-	car	3.522	27.248	12.584	PAVEMENT_GENERAL	Urban	F	1011101000011101	0000000000000000	-	car	29.606	13.707	5.572	-4.054	179.679	699.965	524.827	-0.000	Terminate	
Unknown	153.98642	01/14/0117 09:51.28	00009239	5.267	Inter688t33-0	0.352	1	1	176.027	11.111	-2.2	0.000	0.000	D	F	518.0	180.763	0.195	0.003	699.073	550.575	0.028	-	-0.023	-0.457	-	-	-	car	4.677	24.635	6.424	PAVEMENT_GENERAL	Urban	F	1011101000011101	0000000000000000	-	car	26.966	7.041	1.432	-4.000	179.467	699.986	521.264	-0.000	Terminate	
Unknown	154.98643	01/14/0117 09:51.29	00009299	5.725	Inter688t33-0	0.791	1	1	176.027	11.111	12.0	0.337	0.000	D	F	1850.5	181.043	0.232	-0.021	698.997	545.351	0.018	-	0.154	2.342	-	-	-	car	3.021	17.294	3.021	PAVEMENT_GENERAL	Urban	F	1011101000011101	0000000000000000	-	car	22.016	3.852	0.000	0.000	179.133	699.991	520.996	-0.000	Terminate	
Unknown	155.98645	01/14/0117 09:51.30	00009359	7.787	Inter688t27-1	1.212	LT1	1	179.909	11.111	8.9	0.123	0.000	D	F	1670.1	182.516	0.182	-0.020	698.747	538.431	0.020	-	0.172	0.667	-	-	-	car	1.633	12.718	1.633	PAVEMENT_GENERAL	Urban	F	1011101000011101	0000000000000000	-	car	15.120	1.955	0.000	0.000	179.133	699.991	520.996	-0.000	Terminate	
Unknown	156.98647	01/14/0117 09:51.31	00009419	8.207	Inter688t27-1	1.699	LT1	1	179.909	11.111	20.0	0.072	0.000	D	F	1261.5	184.077	0.202	-0.059	698.273	530.391	0.025	R	0.437	0.163	-	-	-	car	0.570	4.679	0.570	PAVEMENT_GENERAL	Urban	F	1011101001011101	0000000000000000	-	car	7.192	0.905	0.000	0.000	179.133	699.991	520.996	-0.000	Terminate	
Unknown	157.98650	01/14/0117 09:51.32	00009479	8.148	Inter688t27-2	-1.198	2	2	179.909	11.111	-14.1	0.037	0.000	D	F	1009.5	184.684	0.200	0.039	697.583	522.214	0.027	L	-0.315	-0.177	-	-	-	car	-0.123	-1.000	-0.139	PAVEMENT_GENERAL	Urban	F	1011101000111101	0000000000000000	-	car	0.444	0.144	0.933	2.000	178.995	699.995	520.786	-0.000	Terminate	
Unknown	158.98651	01/14/0117 09:51.33	00009539	7.767	Inter688t61-0	-1.102	1	1	179.807	11.111	-109.0	0.037	0.000	D	F	896.5	176.036	0.184	0.309	697.507	514.233	0.029	L	-2.270	-0.520	-	-	-	-	-	-	-	PAVEMENT_GENERAL	Urban	F	1011101000111101	0000000000000000	-	car	2.980	-0.723	2.833	2.000	177.126	700.079	518.912	-0.000	Terminate	
Unknown	159.98653	01/14/0117 09:51.34	00009599	7.890	-Inter688t41-0	1.387	-1	1	43.345	11.111	-135.0	0.034	0.000	D	F	969.8	157.563	0.161	0.366	699.563	506.730	0.027	L	-2.813	-0.359	-	-	-	42	8.439	66.588	-	PAVEMENT_GENERAL	Urban	F	1011101000111101	0000000000000000	-	car	6.092	-2.737	4.833	2.000	171.724	700.541	515.124	-0.000	Terminate	
Unknown	160.98656	01/14/0117 09:51.35	00009659	7.658	-Inter688t49-0	0.391	-1	1	359.794	11.111	-146.2	0.039	0.000	D	F	989.7	136.738	0.170	0.384	704.046	500.425	0.029	L	-2.918	-0.368	-	-	-	42	11.551	88.451	-	PAVEMENT_GENERAL	Urban	F	1011101000111101	0000000000000000	-	car	6.969	30.048	6.833	2.000	157.608	702.295	509.588	-0.000	Terminate	
Unknown	161.98657	01/14/0117 09:51.36	00009719	7.649	Inter688t43-0	0.163	1	1	89.747	11.111	-156.2	0.062	0.000	D	F	1132.8	114.542	0.170	0.406	710.440	496.308	0.028	L	-3.092	-0.174	-	-	-	44	7.625	58.325	-	PAVEMENT_GENERAL	Urban	F	1011101000111101	0000000000000000	-	car	5.555	4.244	7.649	0.000	138.682	706.575	503.215	-0.000	Terminate	
Unknown	162.98659	01/14/0117 09:51.37	00009779	7.546	Inter688t59-0	1.525	1	1	91.947	11.111	-118.4	0.037	0.000	D	F	989.6	91.907	0.170	0.280	717.892	494.993	0.028	L	-2.237	-0.244	-	-	-	44	8.868	66.920	-	PAVEMENT_GENERAL	Urban	F	1011101000111101	0000000000000000	-	car	4.063	3.594	7.546	0.000	118.876	712.575	498.597	-0.000	Terminate	
Unknown	163.98662	01/14/0117 09:51.38	00009839	7.613	Inter688t5-0	1.071	1	1	90.156	11.111	4.2	0.122	0.000	D	F	1387.1	86.848	0.215	0.017	725.421	495.415	0.025	-	0.047	0.519	-	-	-	44	10.169	77.418	-	PAVEMENT_GENERAL	Urban	F	1011101000011101	0000000000000000	-	car	4.572	-1.551	4.393	-4.000	100.155	718.648	496.890	-0.000	Terminate	
Unknown	164.98663	01/14/0117 09:51.39	00009899	8.515	Inter688t5-0	0.624	1	1	90.156	11.111	3.5	0.296	0.000	D	F	1875.1	86.936	0.221	-0.012	733.372	495.840	0.019	-	0.078	1.569	-	-	-	44	9.995	85.113	-	PAVEMENT_GENERAL	Urban	F	1011101000011101	0000000000000000	-	car	8.312	-1.799	3.835	-0.500	93.781	722.723	496.538	-0.000	Terminate	
Unknown	165.98665	01/14/0117 09:51.40	00009959	10.202	Inter688t5-0	0.151	1	1	90.156	11.111	3.8	0.337	0.000	D	F	2101.8	87.484	0.215	-0.013	742.721	496.288	0.019	-	0.111	1.635	-	-	-	44	8.726	89.017	-	PAVEMENT_GENERAL	Urban	F	1011101000011101	0000000000000000	-	car	13.789	-2.425	4.501	2.000	90.821	726.574	496.463	-0.000	Terminate	
Unknown	166.98668	01/14/0117 09:51.41	00010019	11.738	Inter688t19-0	-0.288	1	1	90.050	11.111	0.1	0.363	0.000	D	F	2241.8	87.966	0.213	-0.001	753.692	496.706	0.019	-	0.016	1.493	-	-	-	44	8.186	96.084	-	PAVEMENT_GENERAL	Urban	F	1011101000011101	0000000000000000	-	car	19.634	-3.475	6.085	2.000	90.022	731.701	496.454	-0.000	Terminate	
Unknown	167.98669	01/14/0117 09:51.42	00010079	13.105	Inter688t19-0	-0.745	1	1	90.012	11.111	-0.0	0.335	0.000	D	F	2377.8	87.915	0.211	0.002	766.121	497.152	0.020	-	-0.004	1.340	-	-	-	44	7.577	99.300	-	PAVEMENT_GENERAL	Urban	F	1011101000011101	0000000000000000	-	car	25.002	-4.977	8.085	2.000	90.102	738.769	496.447	-0.000	Terminate	
Unknown	168.98671	01/14/0117 09:51.43	00010139	14.478	Inter688t19-0	-1.230	1	1	90.003	11.111	5.6	0.377	0.000	D	F	2559.0	88.243	0.209	-0.032	779.904	497.634	0.020	-	0.231	1.364	-	-	-	44	6.987	101.161	-	PAVEMENT_GENERAL	Urban	F	1011101000011101	0000000000000000	-	car	29.730	-6.755	10.085	2.000	90.111	747.837	496.429	-0.000	Terminate	
Unknown	169.98674	01/14/0117 09:51.44	00010199	15.826	Inter688t7-0	-1.545	1	1	90.000	11.111	6.9	0.379	0.000	D	F	2741.9	89.498	0.207	-0.047	795.055	497.949	0.020	-	0.371	1.332	-	-	-	44	6.423	101.654	565.883	PAVEMENT_GENERAL	Urban	F	1011101000011101	0000000000000000	-	car	33.823	-9.035	12.085	2.000	90.052	758.905	496.413	-0.000	Terminate	
Unknown	170.98676	01/14/0117 09:51.45	00010259	17.125	Inter683t1-0	-1.513	1	1	90.000	11.111	5.7	0.356	0.000	D	F	2926.0	90.843	0.205	-0.045	811.537	497.909	0.021	-	0.345	1.264	-	-	-	44	5.887	100.816	68.183	PAVEMENT_GENERAL	Urban	F	1111101000011101	0000000000000000	-	car	37.233	-12.303	14.085	2.000	90.012	771.973	496.406	-0.000	Terminate	
Unknown	171.98677	01/14/0117 09:51.46	00010319	18.366	Inter683t1-0	-1.122	1	1	90.000	11.111	3.1	0.370	0.000	D	F	3103.9	91.698	0.202	-0.027	829.282	497.519	0.021	-	0.203	1.232	-	-	-	44	5.375	98.717	36.289	PAVEMENT_GENERAL	Urban	F	1011101000011101	0000000000000000	-	car	39.895	-17.665	16.085	2.000	90.004	787.041	496.404	-0.000	Terminate	
Unknown	172.98679	01/14/0117 09:51.47	00010379	19.564	Inter683t1-0	-0.521	1	1	90.000	11.111	-2.5	0.351	0.000	D	F	3261.6	91.860	0.199	0.017	848.244	496.917	0.021	-	-0.082	1.143	-	-	-	44	4.876	95.398	24.346	PAVEMENT_GENERAL	Urban	F	1011101000011101	0000000000000000	-	car	41.778	-28.580	18.085	2.000	90.007	804.110	496.398	-0.000	Terminate	
Unknown	173.98682	01/14/0117 09:51.48	00010439	20.546	Inter683t1-0	0.056	1	1	90.000	11.111	-0.5	0.212	0.000	D	F	2378.2	91.379	0.183	0.013	868.357	496.340	0.024	-	-0.105	0.416	-	-	-	44	4.426	90.930	18.556	PAVEMENT_GENERAL	Urban	F	1111101000011101	0000000000000000	-	car	43.295	-30.076	19.101	1.000	90.001	822.703	496.396	-0.000	Terminate	
Unknown	174.98683	01/14/0117 09:51.49	00010499	20.678	Inter683t1-0	0.473	1	1	90.000	11.111	-2.9	0.153	0.000	D	F	1765.7	90.595	0.185	0.043	888.999	495.923	0.027	-	-0.332	0.002	-	-	-	44	4.156	85.933	17.078	PAVEMENT_GENERAL	Urban	F	1011101000011101	0000000000000000	-	car	44.583	-41.699	19.610	0.500	90.001	842.059	496.396	-0.000	Terminate	
Unknown	175.98685	01/14/0117 09:51.50	00010559	20.708	Inter683t1-0	0.633	1	1	90.000	11.111	-4.5	0.180	0.000	D	F	1802.1	90.123	0.187	0.041	909.686	495.763	0.027	-	-0.268	0.054	-	-	-	44	3.906	80.890	15.979	PAVEMENT_GENERAL	Urban	F	1011101000011101	0000000000000000	-	car	45.416	-75.823	20.110	0.500	90.001	861.915	496.396	-0.000	Terminate	
Unknown	176.98688	01/14/0117 09:51.51	00010619	20.784	Inter683t1-0	0.612	1	1	90.000	11.111	-1.8	0.182	0.000	D	F	1809.0	89.800	0.186	0.011	930.433	495.784	0.026	-	-0.078	0.063	-	-	-	44	3.646	75.788	14.749	PAVEMENT_GENERAL	Urban	F	1011101000011101	0000000000000000	-	car	46.047	-68.998	20.116	0.000	90.001	882.031	496.396	-0.000	Terminate	
Unknown	177.98689	01/14/0117 09:51.52	00010679	20.912	Inter683t1-0	0.479	1	1	90.000	11.111	-2.1	0.194	0.000	D	F	1857.1	89.385	0.187	0.020	951.276	495.917	0.026	-	-0.154	0.138	-	-	-	44	3.376	70.590	13.405	PAVEMENT_GENERAL	Urban	F	1011101000011101	0000000000000000	-	car	46.772	-59.012	20.116	0.000	90.001	902.147	496.396	-0.000	Terminate	
Unknown	178.98691	01/14/0117 09:51.53	00010739	21.055	Inter683t1-0	0.204	1	1	90.000	11.111	-2.1	0.199	0.000	D	F	1870.5	89.047	0.187	0.017	972.254	496.192	0.026	-	-0.133	0.149	-	-	-	44	3.099	65.256	12.065	PAVEMENT_GENERAL	Urban	F	1011101000011101	0000000000000000	-	car	47.632	-50.974	20.116	0.000	90.001	922.263	496.396	-0.000	Terminate	
Unknown	179.98694	01/14/0117 09:51.54	00010799	21.140	Inter683t1-0	-0.194	1	1	90.000	11.111	-0.9	0.187	0.000	D	F	1833.4	88.772	0.186	0.008	993.354	496.590	0.026	-	-0.064	0.075	-	-	-	44	2.829	59.801	10.884	PAVEMENT_GENERAL	Urban	F	1011101000011101	0000000000000000	-	car	48.616	-47.611	20.116	0.000	90.001	942.379	496.396	-0.000	Terminate	
