ZoneName	Time	SystemTime	Frame	Velocity	LaneName	LanePos	LaneIndex	LaneCount	LaneHeading	SpeedLimit	Steer	Accel	Brake	Gear	Horn	SubjectEngineRPM	SubjectHeading	SubjectPitch	SubjectRoll	SubjectX	SubjectY	SubjectZ	Signal	LatAccel	LongAccel	Collision	CollisionAngle	CollisionVelocity	VehAhead	HeadwayTime	HeadwayDist	TTC	TerrainType	CultureType	Slip	DigitalInputs	DigitalInputs2	ActiveTrigger	EntityName	DistToEntity	TimeToEntity	EntityVelocity	EntityAccel	EntityHeading	EntityX	EntityY	EntityZ	GrabData	
Unknown	0.98335	01/14/0117 10:04.50	00000059	0.002	Inter625t13-0	-0.088	1	2	0.000	11.111	1.5	0.000	0.000	D	F	0.0	0.000	0.153	-0.001	1503.500	523.206	0.019	-	-0.000	0.000	-	-	-	-	-	-	-	PAVEMENT_GENERAL	Urban	F	1011101000011101	0000000000000000	-	car	928.855	774737.500	0.000	0.000	180.000	696.000	987.000	-0.000	Terminate	
Unknown	1.98337	01/14/0117 10:04.51	00000119	0.000	Inter625t13-0	-0.088	1	2	0.000	11.111	1.5	0.000	0.000	D	F	0.0	0.000	0.197	-0.000	1503.500	523.208	0.026	-	0.000	-0.001	-	-	-	-	-	-	-	PAVEMENT_GENERAL	Urban	F	1011101000011101	0000000000000000	-	car	928.855	4213839.000	0.000	0.000	180.000	696.000	987.000	-0.000	Terminate	
Unknown	2.98339	01/14/0117 10:04.52	00000179	-0.000	Inter625t13-0	-0.088	1	2	0.000	11.111	2.9	0.000	0.000	D	F	0.0	0.000	0.207	-0.000	1503.500	523.208	0.028	-	0.000	-0.000	-	-	-	-	-	-	-	PAVEMENT_GENERAL	Urban	F	1011101000011101	0000000000000000	-	car	928.854	-115994592.000	0.000	0.000	180.000	696.000	987.000	-0.000	Terminate	
Unknown	3.98341	01/14/0117 10:04.53	00000239	-0.000	Inter625t13-0	-0.088	1	2	0.000	11.111	4.6	0.000	0.000	D	F	0.0	0.000	0.210	-0.000	1503.500	523.208	0.028	-	0.000	-0.000	-	-	-	-	-	-	-	PAVEMENT_GENERAL	Urban	F	1011101000011101	0000000000000000	-	car	928.854	-22307058.000	0.000	0.000	180.000	696.000	987.000	-0.000	Terminate	
Unknown	4.98343	01/14/0117 10:04.54	00000299	-0.000	Inter625t13-0	-0.088	1	2	0.000	11.111	-0.9	0.000	0.000	D	F	0.0	0.000	0.210	-0.000	1503.500	523.208	0.028	-	0.000	0.000	-	-	-	-	-	-	-	PAVEMENT_GENERAL	Urban	F	1011101000011101	0000000000000000	-	car	928.854	-24857450.000	0.000	0.000	180.000	696.000	987.000	-0.000	Terminate	
Unknown	5.98345	01/14/0117 10:04.55	00000359	-0.000	Inter625t13-0	-0.088	1	2	0.000	11.111	-0.8	0.000	0.000	D	F	0.0	0.000	0.209	-0.000	1503.500	523.208	0.028	-	0.000	0.000	-	-	-	-	-	-	-	PAVEMENT_GENERAL	Urban	F	1011101000011101	0000000000000000	-	car	928.855	-34381880.000	0.000	0.000	180.000	696.000	987.000	-0.000	Terminate	
Unknown	6.98347	01/14/0117 10:04.56	00000419	-0.000	Inter625t13-0	-0.088	1	2	0.000	11.111	-1.8	0.000	0.000	N	F	0.0	0.000	0.209	-0.000	1503.500	523.208	0.028	-	0.000	0.000	-	-	-	-	-	-	-	PAVEMENT_GENERAL	Urban	F	1011101000011101	0000000000000000	-	car	928.855	-48193028.000	0.000	0.000	180.000	696.000	987.000	-0.000	Terminate	
Unknown	7.98349	01/14/0117 10:04.57	00000479	-0.000	Inter625t13-0	-0.088	1	2	0.000	11.111	-1.3	0.000	0.000	N	F	166.7	0.000	0.209	-0.000	1503.500	523.208	0.028	-	-0.000	0.000	-	-	-	-	-	-	-	PAVEMENT_GENERAL	Urban	F	1011101000011111	0000000000000000	-	car	928.855	-64936332.000	0.000	0.000	180.000	696.000	987.000	-0.000	Terminate	
Unknown	8.98351	01/14/0117 10:04.58	00000539	-0.000	Inter625t13-0	-0.088	1	2	0.000	11.111	-0.8	0.000	0.000	N	F	500.0	0.000	0.209	-0.000	1503.500	523.208	0.028	-	0.000	0.000	-	-	-	-	-	-	-	PAVEMENT_GENERAL	Urban	F	1011101000011101	0000000000000000	-	car	928.855	-83365152.000	0.000	0.000	180.000	696.000	987.000	-0.000	Terminate	
Unknown	9.98353	01/14/0117 10:04.59	00000599	-0.000	Inter625t13-0	-0.088	1	2	0.000	11.111	-1.3	0.007	0.000	D	F	524.8	0.000	0.209	-0.000	1503.500	523.208	0.028	-	-0.000	0.000	-	-	-	-	-	-	-	PAVEMENT_GENERAL	Urban	F	1011101000011101	0000000000000000	-	car	928.855	-111504896.000	0.000	0.000	180.000	696.000	987.000	-0.000	Terminate	
Unknown	10.98355	01/14/0117 10:05.00	00000659	0.001	Inter625t13-0	-0.088	1	2	0.000	11.111	-0.6	0.014	0.000	D	F	477.5	0.000	0.209	-0.000	1503.500	523.208	0.028	-	-0.000	0.005	-	-	-	-	-	-	-	PAVEMENT_GENERAL	Urban	F	1011101000011101	0000000000000000	-	car	928.855	2001493.500	0.000	0.000	180.000	696.000	987.000	-0.000	Terminate	
Unknown	11.98357	01/14/0117 10:05.01	00000719	1.517	Inter625t13-0	-0.087	1	2	0.000	11.111	7.5	0.208	0.000	D	F	1541.0	0.047	0.256	-0.004	1503.501	523.517	0.012	-	0.026	4.395	-	-	-	-	-	-	-	PAVEMENT_GENERAL	Urban	F	1011101000011101	0000000000000000	-	car	928.702	1231.828	0.000	0.000	180.000	696.000	987.000	-0.000	Terminate	
Unknown	12.98359	01/14/0117 10:05.02	00000779	5.000	Inter625t13-0	-0.061	1	2	0.000	11.111	4.4	0.250	0.000	D	F	1930.4	0.432	0.222	-0.007	1503.527	526.904	0.012	-	0.046	2.866	-	-	-	-	-	-	-	PAVEMENT_GENERAL	Urban	F	1011101000011101	0000000000000000	-	car	927.043	379.591	0.000	0.000	180.000	696.000	987.000	-0.000	Terminate	
Unknown	13.98361	01/14/0117 10:05.03	00000839	7.503	Inter625t49-0	0.020	1	1	0.005	11.111	4.3	0.303	0.000	D	F	2429.5	0.867	0.226	-0.009	1503.609	533.188	0.015	-	0.078	2.442	-	-	-	-	-	-	-	PAVEMENT_GENERAL	Urban	F	1011101000011101	0000000000000000	-	car	924.019	258.377	0.000	0.000	180.000	696.000	987.000	-0.000	Terminate	
Unknown	14.98363	01/14/0117 10:05.04	00000899	10.086	Inter625t49-0	0.191	1	1	0.007	11.111	0.7	0.358	0.000	D	F	2603.6	1.145	0.235	-0.004	1503.780	541.946	0.013	-	0.015	2.652	-	-	-	-	-	-	-	PAVEMENT_GENERAL	Urban	F	1011101000011101	0000000000000000	-	car	919.910	196.152	0.000	0.000	180.000	696.000	987.000	-0.000	Terminate	
Unknown	15.98365	01/14/0117 10:05.05	00000959	11.877	Inter625t49-0	0.421	1	1	0.007	11.111	-1.5	0.406	0.000	D	F	2277.1	1.200	0.212	0.004	1504.011	552.988	0.019	-	-0.039	1.551	-	-	-	-	-	-	-	PAVEMENT_GENERAL	Urban	F	1011101000011101	0000000000000000	-	car	914.836	169.423	0.000	0.000	180.000	696.000	987.000	-0.000	Terminate	
Unknown	16.98367	01/14/0117 10:05.06	00001019	13.343	Inter625t49-0	0.613	1	1	0.005	11.111	0.1	0.400	0.000	D	F	2423.8	0.505	0.211	0.003	1504.204	565.607	0.020	-	-0.066	1.421	-	-	-	-	-	-	-	PAVEMENT_GENERAL	Urban	F	1011101000011101	0000000000000000	-	car	909.104	149.911	0.000	0.000	180.000	696.000	987.000	-0.000	Terminate	
Unknown	17.98369	01/14/0117 10:05.07	00001079	14.746	Inter625t49-0	0.721	1	1	0.005	11.111	0.5	0.404	0.000	D	F	2598.1	0.342	0.209	-0.002	1504.314	579.654	0.020	-	-0.018	1.383	-	-	-	-	-	-	-	PAVEMENT_GENERAL	Urban	F	1011101000011101	0000000000000000	-	car	902.794	137.674	0.000	0.000	180.000	696.000	987.000	-0.000	Terminate	
Unknown	18.98371	01/14/0117 10:05.08	00001139	16.119	Inter625t15-0	0.812	1	2	0.000	11.111	-0.6	0.429	0.000	D	F	2794.4	0.293	0.207	0.005	1504.406	595.088	0.020	-	-0.032	1.374	-	-	-	-	-	-	-	PAVEMENT_GENERAL	Urban	F	1011101000011101	0000000000000000	-	car	896.036	128.783	0.000	0.000	180.000	696.000	987.000	-0.000	Terminate	
Unknown	19.98373	01/14/0117 10:05.09	00001199	17.515	Inter614t1-0	0.885	1	2	0.000	11.111	0.1	0.494	0.000	D	F	3006.2	0.208	0.205	0.001	1504.478	611.905	0.020	-	-0.006	1.394	-	-	-	-	-	-	-	PAVEMENT_GENERAL	Urban	F	1011101000011101	0000000000000000	-	car	888.894	121.537	0.000	0.000	180.000	696.000	987.000	-0.000	Terminate	
Unknown	20.98375	01/14/0117 10:05.10	00001259	18.891	Inter614t1-0	0.962	1	2	0.000	11.111	0.3	0.510	0.000	D	F	3205.9	0.299	0.203	-0.004	1504.555	630.110	0.020	-	0.028	1.369	-	-	-	-	-	-	-	PAVEMENT_GENERAL	Urban	F	1011101000011101	0000000000000000	-	car	881.457	116.939	0.000	0.000	180.000	696.000	987.000	-0.000	Terminate	
Unknown	21.98377	01/14/0117 10:05.11	00001319	20.242	Inter614t1-0	1.085	1	2	0.000	11.111	-3.2	0.499	0.000	D	F	3395.1	0.445	0.200	0.014	1504.678	649.680	0.021	-	-0.067	1.333	-	-	-	11	8.682	175.747	74.448	PAVEMENT_GENERAL	Urban	F	1011101000011101	0000000000000000	-	car	873.851	114.271	0.000	0.000	180.000	696.000	987.000	-0.000	Terminate	
Unknown	22.98379	01/14/0117 10:05.12	00001379	21.552	Inter614t1-0	1.102	1	2	0.000	11.111	-5.5	0.499	0.000	D	F	3574.1	359.471	0.197	0.049	1504.695	670.580	0.021	-	-0.378	1.292	-	-	-	11	8.014	172.716	47.052	PAVEMENT_GENERAL	Urban	F	1011101000011101	0000000000000000	-	car	866.036	107.743	0.000	0.000	180.000	696.000	987.000	-0.000	Terminate	
Unknown	23.98381	01/14/0117 10:05.13	00001439	22.823	Inter614t1-0	0.789	1	2	0.000	11.111	2.0	0.496	0.000	D	F	3743.0	359.201	0.195	-0.029	1504.382	692.768	0.021	-	0.183	1.252	-	-	-	-	-	-	-	PAVEMENT_GENERAL	Urban	F	1011101000011101	0000000000000000	-	car	857.905	105.856	0.000	0.000	180.000	696.000	987.000	-0.000	Terminate	
Unknown	24.98383	01/14/0117 10:05.14	00001499	23.869	Inter614t1-0	0.513	1	2	0.000	11.111	5.1	0.450	0.000	D	F	2729.8	359.726	0.184	-0.050	1504.106	716.178	0.023	-	0.369	0.700	-	-	-	-	-	-	-	PAVEMENT_GENERAL	Urban	F	1011101000011101	0000000000000000	-	car	849.920	110.480	0.000	0.000	180.000	696.000	987.000	-0.000	Terminate	
Unknown	25.98385	01/14/0117 10:05.15	00001559	24.518	Inter614t1-0	0.457	1	2	0.000	11.111	-2.5	0.432	0.000	D	F	2732.8	359.815	0.185	0.024	1504.050	740.376	0.024	-	-0.171	0.627	-	-	-	-	-	-	-	PAVEMENT_GENERAL	Urban	F	1011101000011101	0000000000000000	-	car	842.488	116.481	0.000	0.000	180.000	696.000	987.000	-0.000	Terminate	
Unknown	26.98387	01/14/0117 10:05.16	00001619	25.133	Inter614t1-0	0.265	1	2	0.000	11.111	-4.2	0.423	0.000	D	F	2788.6	359.045	0.183	0.047	1503.858	765.203	0.024	-	-0.362	0.607	-	-	-	-	-	-	-	PAVEMENT_GENERAL	Urban	F	1011101000011101	0000000000000000	-	car	835.393	118.372	0.000	0.000	180.000	696.000	987.000	-0.000	Terminate	
Unknown	27.98389	01/14/0117 10:05.17	00001679	25.730	Inter614t1-0	-0.283	1	2	0.000	11.111	-2.3	0.422	0.000	D	F	2845.1	358.222	0.182	0.041	1503.310	790.630	0.024	-	-0.312	0.589	-	-	-	-	-	-	-	PAVEMENT_GENERAL	Urban	F	1011101000011101	0000000000000000	-	car	828.490	120.876	0.000	0.000	180.000	696.000	987.000	-0.000	Terminate	
Unknown	28.98391	01/14/0117 10:05.18	00001739	26.284	Inter612t1-0	-0.858	1	2	0.000	11.111	9.5	0.263	0.000	D	F	2605.1	0.244	0.171	-0.142	1502.735	816.643	0.025	-	1.153	0.444	-	-	-	-	-	-	-	PAVEMENT_GENERAL	Urban	F	1011101000011101	0000000000000000	-	car	822.166	154.512	0.000	0.000	180.000	696.000	987.000	-0.000	Terminate	
Unknown	29.98393	01/14/0117 10:05.19	00001799	26.005	Inter612t1-0	-0.415	1	2	0.000	11.111	1.3	0.116	0.000	D	F	1941.0	2.412	0.168	-0.079	1503.178	842.815	0.029	-	0.653	-0.336	-	-	-	-	-	-	-	PAVEMENT_GENERAL	Urban	F	1011101000011101	0000000000000000	-	car	817.595	234.190	0.000	0.000	180.000	696.000	987.000	-0.000	Terminate	
Unknown	30.98395	01/14/0117 10:05.20	00001859	25.765	Inter612t1-0	0.560	1	2	0.000	11.111	-6.6	0.141	0.000	D	F	1954.2	1.596	0.171	0.082	1504.153	868.679	0.028	-	-0.607	-0.262	-	-	-	-	-	-	-	PAVEMENT_GENERAL	Urban	F	1011101000011101	0000000000000000	-	car	814.409	269.590	0.000	0.000	180.000	696.000	987.000	-0.000	Terminate	
Unknown	31.98397	01/14/0117 10:05.21	00001919	25.568	Inter612t1-0	1.039	1	2	0.000	11.111	-8.4	0.162	0.000	D	F	1969.8	359.831	0.173	0.131	1504.632	894.336	0.028	-	-0.961	-0.176	-	-	-	11	4.298	109.903	14.297	PAVEMENT_GENERAL	Urban	F	1011101000011101	0000000000000000	-	car	811.565	271.822	0.000	0.000	180.000	696.000	987.000	-0.000	Terminate	
Unknown	32.98399	01/14/0117 10:05.22	00001979	25.404	Inter612t1-0	0.834	1	2	0.000	11.111	1.7	0.185	0.000	D	F	2003.2	359.361	0.177	-0.012	1504.427	919.818	0.028	-	0.099	-0.088	-	-	-	-	-	-	-	PAVEMENT_GENERAL	Urban	F	1011101000011101	0000000000000000	-	car	808.854	339.008	0.000	0.000	180.000	696.000	987.000	-0.000	Terminate	
Unknown	33.98401	01/14/0117 10:05.23	00002039	25.445	Inter612t1-0	0.656	1	2	0.000	11.111	2.7	0.272	0.000	D	F	2116.3	0.057	0.178	-0.039	1504.250	945.227	0.026	-	0.288	0.127	-	-	-	-	-	-	-	PAVEMENT_GENERAL	Urban	F	1011101000011101	0000000000000000	-	car	806.969	626.490	0.000	0.000	180.000	696.000	987.000	-0.000	Terminate	
Unknown	34.98403	01/14/0117 10:05.24	00002099	25.534	Inter612t1-0	0.755	1	2	0.000	11.111	1.2	0.250	0.000	D	F	2100.2	0.583	0.180	-0.024	1504.349	970.725	0.027	-	0.192	0.100	-	-	-	-	-	-	-	PAVEMENT_GENERAL	Urban	F	1011101000011101	0000000000000000	-	car	806.153	3169.036	0.000	0.000	180.000	696.000	987.000	-0.000	Terminate	
Unknown	35.98405	01/14/0117 10:05.25	00002159	25.625	Inter612t1-0	0.959	1	2	0.000	11.111	-3.8	0.236	0.000	D	F	2086.8	0.051	0.177	0.050	1504.552	996.306	0.027	-	-0.364	0.074	-	-	-	-	-	-	-	PAVEMENT_GENERAL	Urban	F	1111101000011101	0000000000000000	-	car	806.246	-2538.197	0.000	0.000	180.000	696.000	987.000	-0.000	Terminate	
Unknown	36.98407	01/14/0117 10:05.26	00002219	25.693	Inter613t1-0	0.892	1	2	0.000	11.111	-2.7	0.238	0.000	D	F	2091.1	359.432	0.177	0.036	1504.485	1021.965	0.027	-	-0.268	0.070	-	-	-	-	-	-	-	PAVEMENT_GENERAL	Urban	F	1011101000011101	0000000000000000	-	car	806.881	-942.809	0.000	0.000	180.000	696.000	987.000	-0.000	Terminate	
Unknown	37.98409	01/14/0117 10:05.27	00002279	25.748	Inter613t1-0	0.669	1	2	0.000	11.111	3.8	0.208	0.000	D	F	2059.4	0.000	0.174	-0.061	1504.262	1047.692	0.027	-	0.456	-0.003	-	-	-	-	-	-	-	PAVEMENT_GENERAL	Urban	F	1011101000011101	0000000000000000	-	car	808.178	-419.529	0.000	0.000	180.000	696.000	987.000	-0.000	Terminate	
Unknown	38.98411	01/14/0117 10:05.28	00002339	25.794	Inter613t1-0	0.732	1	2	0.000	11.111	1.3	0.247	0.000	D	F	2105.1	0.373	0.177	-0.016	1504.325	1073.453	0.027	-	0.109	0.082	-	-	-	-	-	-	-	PAVEMENT_GENERAL	Urban	F	1011101000011101	0000000000000000	-	car	810.575	-278.562	0.000	0.000	180.000	696.000	987.000	-0.000	Terminate	
Unknown	39.98413	01/14/0117 10:05.29	00002399	25.816	Inter613t1-0	0.919	1	2	0.000	11.111	-1.0	0.000	0.000	D	F	1692.0	0.392	0.163	0.011	1504.512	1099.282	0.027	-	-0.074	-0.507	-	-	-	-	-	-	-	PAVEMENT_GENERAL	Urban	F	1011101000011101	0000000000000000	-	car	813.912	-218.442	0.000	0.000	180.000	696.000	987.000	-0.000	Terminate	
Unknown	40.98415	01/14/0117 10:05.30	00002459	25.102	Inter613t1-0	1.042	1	2	0.000	11.111	-2.4	0.000	0.057	D	F	1702.1	0.000	0.167	0.032	1504.635	1124.744	0.030	-	-0.230	-0.969	-	-	-	11	1.610	40.406	5.596	PAVEMENT_GENERAL	Urban	F	1011101000011101	0000000000000000	-	car	817.924	-194.188	0.000	0.000	180.000	696.000	987.000	-0.000	Terminate	
Unknown	41.98417	01/14/0117 10:05.31	00002519	22.146	Inter613t1-0	0.961	1	2	0.000	11.111	-0.9	0.000	0.299	D	F	1447.6	359.371	0.094	0.025	1504.555	1148.582	0.037	-	-0.200	-4.221	-	-	-	-	-	-	-	PAVEMENT_GENERAL	Urban	F	1011101000011101	0000000000000000	-	car	822.182	-200.461	0.000	0.000	180.000	696.000	987.000	-0.000	Terminate	
Unknown	42.98419	01/14/0117 10:05.32	00002579	19.466	Inter613t1-0	0.719	1	2	0.000	11.111	1.9	0.000	0.000	D	F	1328.2	359.167	0.208	-0.004	1504.312	1169.115	0.029	-	0.017	-0.602	-	-	-	-	-	-	-	PAVEMENT_GENERAL	Urban	F	1011101000011101	0000000000000000	-	car	826.214	-206.445	0.000	0.000	180.000	696.000	987.000	-0.000	Terminate	
Unknown	43.98421	01/14/0117 10:05.33	00002639	16.976	Inter613t1-0	0.533	1	2	0.000	11.111	3.1	0.000	0.272	D	F	1114.7	359.883	0.131	-0.032	1504.126	1187.704	0.037	-	0.245	-3.867	-	-	-	-	-	-	-	PAVEMENT_GENERAL	Urban	F	1011101000011101	0000000000000000	-	car	830.317	-204.615	0.000	0.000	180.000	696.000	987.000	-0.000	Terminate	
Unknown	44.98423	01/14/0117 10:05.34	00002699	12.171	Inter615t9-0	0.564	1	2	0.000	11.111	-2.7	0.000	0.463	D	F	1009.0	0.483	-0.005	0.004	1504.157	1202.486	0.040	-	0.018	-5.734	-	-	-	-	-	-	-	PAVEMENT_GENERAL	Urban	F	1011101000011101	0000000000000000	-	car	834.032	-257.822	0.000	0.000	180.000	696.000	987.000	-0.000	Terminate	
Unknown	45.98425	01/14/0117 10:05.35	00002759	9.039	Inter615t9-0	0.586	1	2	0.000	11.111	-18.2	0.000	0.000	D	F	886.6	359.632	0.192	0.077	1504.179	1212.437	0.028	-	-0.482	-0.488	-	-	-	-	-	-	-	PAVEMENT_GENERAL	Urban	F	1011101000011101	0000000000000000	-	car	836.672	-352.631	0.000	0.000	180.000	696.000	987.000	-0.000	Terminate	
Unknown	46.98427	01/14/0117 10:05.36	00002819	8.533	Inter615t31-0	0.224	1	1	356.217	11.111	-73.4	0.000	0.000	D	F	839.1	352.345	0.186	0.257	1503.580	1221.198	0.029	-	-1.801	-0.545	-	-	-	22	6.259	53.410	6.259	PAVEMENT_GENERAL	Urban	F	1011101000011101	0000000000000000	-	car	838.493	-663.465	0.000	0.000	180.000	696.000	987.000	-0.000	Terminate	
Unknown	47.98429	01/14/0117 10:05.37	00002879	8.049	Inter615t31-0	-1.072	1	1	354.936	11.111	40.2	0.000	0.000	D	F	791.2	347.599	0.196	-0.132	1501.843	1229.302	0.029	-	0.913	-0.495	-	-	-	22	5.618	45.224	5.618	PAVEMENT_GENERAL	Urban	F	1011101000011101	0000000000000000	-	car	839.123	-1379.603	0.000	0.000	180.000	696.000	987.000	-0.000	Terminate	
Unknown	48.98431	01/14/0117 10:05.38	00002939	7.555	Inter615t31-0	-1.448	1	1	354.796	11.111	73.6	0.000	0.000	D	F	743.4	356.887	0.187	-0.185	1500.889	1237.036	0.029	-	1.448	-0.521	-	-	-	22	4.947	37.378	4.947	PAVEMENT_GENERAL	Urban	F	1011101000011101	0000000000000000	-	car	840.471	-455.243	0.000	0.000	180.000	696.000	987.000	-0.000	Terminate	
Unknown	49.98433	01/14/0117 10:05.39	00002999	7.087	Inter615t31-0	-0.582	1	1	355.931	11.111	-32.9	0.000	0.000	D	F	696.6	1.336	0.196	0.105	1501.023	1244.356	0.028	-	-0.667	-0.480	-	-	-	22	4.257	30.169	4.257	PAVEMENT_GENERAL	Urban	F	1011101000011101	0000000000000000	-	car	842.800	-364.114	0.000	0.000	180.000	696.000	987.000	-0.000	Terminate	
Unknown	50.98435	01/14/0117 10:05.40	00003059	6.620	Inter615t31-0	-0.077	1	1	356.903	11.111	-0.0	0.000	0.000	D	F	650.6	358.038	0.198	-0.007	1500.868	1251.206	0.028	-	0.042	-0.465	-	-	-	22	3.526	23.340	3.526	PAVEMENT_GENERAL	Urban	F	1011101000011101	0000000000000000	-	car	844.764	-457.120	0.000	0.000	180.000	696.000	987.000	-0.000	Terminate	
Unknown	51.98437	01/14/0117 10:05.41	00003119	5.320	Inter615t31-0	0.104	1	1	356.903	11.111	13.4	0.000	0.030	D	F	521.5	359.139	0.212	-0.020	1500.728	1257.173	0.029	-	0.130	-0.704	-	-	-	22	3.266	17.375	3.266	PAVEMENT_GENERAL	Urban	F	1011101000011101	0000000000000000	-	car	846.510	-523.454	0.000	0.000	180.000	696.000	987.000	-0.000	Terminate	
Unknown	52.98439	01/14/0117 10:05.42	00003179	2.215	Inter615t31-0	0.320	1	1	356.903	11.111	10.1	0.000	0.301	D	F	477.5	0.170	0.125	0.004	1500.728	1261.146	0.036	-	-0.018	-4.035	-	-	-	22	6.052	13.408	6.052	PAVEMENT_GENERAL	Urban	F	1011101000011101	0000000000000000	-	car	847.784	-1176.540	0.000	0.000	180.000	696.000	987.000	-0.000	Terminate	
Unknown	53.98441	01/14/0117 10:05.43	00003239	1.121	Inter615t31-0	0.409	1	1	356.903	11.111	12.2	0.000	0.000	D	F	477.5	0.485	0.216	0.001	1500.744	1262.508	0.029	L	0.004	-0.161	-	-	-	22	10.749	12.049	10.749	PAVEMENT_GENERAL	Urban	F	1011101000111101	0000000000000000	-	car	848.239	-2279.992	0.000	0.000	180.000	696.000	987.000	-0.000	Terminate	
Unknown	54.98443	01/14/0117 10:05.44	00003299	0.983	Inter615t31-0	0.485	1	1	356.903	11.111	12.7	0.000	0.000	D	F	477.5	0.760	0.201	-0.001	1500.763	1263.555	0.027	L	0.004	-0.116	-	-	-	22	11.190	11.003	11.190	PAVEMENT_GENERAL	Urban	F	1011101000111101	0000000000000000	-	car	848.597	-2557.048	0.000	0.000	180.000	696.000	987.000	-0.000	Terminate	
Unknown	55.98445	01/14/0117 10:05.45	00003359	0.889	Inter615t31-0	0.556	1	1	356.903	11.111	12.5	0.016	0.000	D	F	510.8	1.006	0.204	-0.000	1500.784	1264.488	0.027	L	0.004	-0.043	-	-	-	22	11.325	10.074	11.325	PAVEMENT_GENERAL	Urban	F	1011101000111101	0000000000000000	-	car	848.920	-2786.471	0.000	0.000	180.000	696.000	987.000	-0.000	Terminate	
Unknown	56.98447	01/14/0117 10:05.46	00003419	0.980	Inter615t31-0	0.633	1	1	356.903	11.111	12.4	0.000	0.000	D	F	477.5	1.256	0.193	-0.000	1500.810	1265.434	0.026	L	0.003	-0.116	-	-	-	22	7.028	6.890	32.230	PAVEMENT_GENERAL	Urban	F	1011101000111101	0000000000000000	-	car	849.253	-2491.976	0.000	0.000	180.000	696.000	987.000	-0.000	Terminate	
Unknown	57.98449	01/14/0117 10:05.47	00003479	1.331	Inter615t31-0	0.715	1	1	356.903	11.111	5.8	0.092	0.000	D	F	1126.1	1.449	0.231	-0.001	1500.839	1266.426	0.023	L	0.007	1.786	-	-	-	22	5.749	7.652	-	PAVEMENT_GENERAL	Urban	F	1011101000111101	0000000000000000	-	car	849.605	-1814.745	0.000	0.000	180.000	696.000	987.000	-0.000	Terminate	
Unknown	58.98451	01/14/0117 10:05.48	00003539	3.663	Inter615t11-0	0.849	LT1	2	0.000	11.111	1.2	0.155	0.000	D	F	1555.3	1.593	0.223	-0.001	1500.911	1268.968	0.016	L	0.008	2.159	-	-	-	22	3.063	11.219	-	PAVEMENT_GENERAL	Urban	F	1011101000111101	0000000000000000	-	car	850.511	-650.855	0.000	0.000	180.000	696.000	987.000	-0.000	Terminate	
Unknown	59.98453	01/14/0117 10:05.49	00003599	5.382	Inter615t11-0	0.964	LT1	2	0.000	11.111	-14.4	0.138	0.000	D	F	1736.3	1.243	0.211	0.025	1501.027	1273.574	0.019	L	-0.182	1.288	-	-	-	22	2.298	12.368	-	PAVEMENT_GENERAL	Urban	F	1011101000111101	0000000000000000	-	car	852.154	-445.114	0.000	0.000	180.000	696.000	987.000	-0.000	Terminate	
Unknown	60.98455	01/14/0117 10:05.50	00003659	6.412	Inter615t11-0	0.891	LT1	2	0.000	11.111	-43.7	0.111	0.000	D	F	1445.0	358.110	0.207	0.086	1500.953	1279.517	0.022	L	-0.642	0.769	-	-	-	22	1.845	11.830	-	PAVEMENT_GENERAL	Urban	F	1011101000111101	0000000000000000	-	car	854.096	-429.165	0.000	0.000	180.000	696.000	987.000	-0.000	Terminate	
Unknown	61.98457	01/14/0117 10:05.51	00003719	7.135	Inter615t65-0	0.699	1	1	345.217	11.111	-68.6	0.120	0.000	D	F	1493.8	350.812	0.204	0.152	1500.182	1286.254	0.023	L	-1.176	0.629	-	-	-	22	2.390	17.051	-	PAVEMENT_GENERAL	Urban	F	1011101000111101	0000000000000000	-	car	855.697	-616.175	0.000	0.000	180.000	696.000	987.000	-0.000	Terminate	
Unknown	62.98459	01/14/0117 10:05.52	00003779	7.694	Inter615t65-0	1.401	1	1	329.305	11.111	-111.6	0.108	0.000	D	F	1507.3	338.219	0.196	0.300	1498.036	1293.355	0.024	L	-2.223	0.435	-	-	-	22	2.770	21.316	-	PAVEMENT_GENERAL	Urban	F	1011101000111101	0000000000000000	-	car	856.195	7283.636	0.000	0.000	180.000	696.000	987.000	-0.000	Terminate	
Unknown	63.98461	01/14/0117 10:05.53	00003839	8.109	-Inter615t85-0	-0.825	-1	1	179.883	11.111	-142.2	0.104	0.000	D	F	1517.6	318.198	0.178	0.401	1493.651	1299.899	0.026	L	-3.082	0.230	-	-	-	22	3.524	28.575	-	PAVEMENT_GENERAL	Urban	F	1011101000111101	0000000000000000	-	car	854.468	302.517	0.000	0.000	180.000	696.000	987.000	-0.000	Terminate	
Unknown	64.98463	01/14/0117 10:05.54	00003899	8.358	Inter615t75-0	0.938	1	1	269.734	11.111	-154.0	0.086	0.000	D	F	1372.5	294.757	0.168	0.477	1486.859	1304.493	0.028	L	-3.563	0.067	-	-	-	22	4.070	34.014	-	PAVEMENT_GENERAL	Urban	F	1011101000111101	0000000000000000	-	car	849.849	148.077	0.000	0.000	180.000	696.000	987.000	-0.000	Terminate	
Unknown	65.98465	01/14/0117 10:05.55	00003959	8.582	Inter615t3-4	-0.829	2	2	270.000	11.111	-111.2	0.101	0.000	D	F	1350.4	274.756	0.182	0.356	1478.616	1306.302	0.027	L	-2.709	0.172	-	-	-	-	-	-	-	PAVEMENT_GENERAL	Urban	F	1011101000111101	0000000000000000	-	car	842.887	110.183	0.000	0.000	180.000	696.000	987.000	-0.000	Terminate	
Unknown	66.98467	01/14/0117 10:05.56	00004019	9.054	Inter615t3-4	-1.411	2	2	270.000	11.111	-30.7	0.190	0.000	D	F	1611.4	262.114	0.205	0.110	1469.866	1305.720	0.023	L	-0.826	0.763	-	-	-	22	5.988	54.218	-	PAVEMENT_GENERAL	Urban	F	1111101000111101	0000000000000000	-	car	834.570	95.209	0.000	0.000	180.000	696.000	987.000	-0.000	Terminate	
Unknown	67.98470	01/14/0117 10:05.57	00004079	10.243	Inter615t19-0	0.967	1	1	270.083	11.111	59.1	0.289	0.000	D	F	2034.6	265.730	0.215	-0.261	1460.333	1304.506	0.021	-	1.803	1.309	-	-	-	22	5.999	61.444	-	PAVEMENT_GENERAL	Urban	F	1011101000011101	0000000000000000	-	car	825.297	84.860	0.000	0.000	180.000	696.000	987.000	-0.000	Terminate	
Unknown	68.98471	01/14/0117 10:05.58	00004139	11.715	Inter615t19-0	0.854	1	1	270.110	11.111	4.0	0.358	0.000	D	F	2237.6	270.862	0.212	-0.030	1449.371	1304.405	0.019	-	0.225	1.496	-	-	-	22	5.993	70.203	-	PAVEMENT_GENERAL	Urban	F	1011101000011101	0000000000000000	-	car	815.146	75.997	0.000	0.000	180.000	696.000	987.000	-0.000	Terminate	
Unknown	69.98473	01/14/0117 10:05.59	00004199	13.179	Inter615t19-0	0.983	1	1	270.071	11.111	-4.2	0.418	0.000	D	F	2406.2	270.181	0.211	0.026	1436.923	1304.559	0.020	-	-0.229	1.446	-	-	-	22	5.907	77.852	-	PAVEMENT_GENERAL	Urban	F	1011101000011101	0000000000000000	-	car	803.749	66.444	0.000	0.000	180.000	696.000	987.000	-0.000	Terminate	
Unknown	70.98476	01/14/0117 10:06.00	00004259	14.512	Inter615t19-0	0.925	1	1	270.061	11.111	-4.7	0.323	0.000	D	F	2543.0	269.410	0.208	0.030	1423.062	1304.518	0.021	-	-0.229	1.290	-	-	-	22	5.796	84.112	-	PAVEMENT_GENERAL	Urban	F	1011101000011101	0000000000000000	-	car	791.012	59.217	0.000	0.000	180.000	696.000	987.000	-0.000	Terminate	
Unknown	71.98477	01/14/0117 10:06.01	00004319	15.779	Inter615t1-2	0.636	1	2	270.000	11.111	6.9	0.326	0.000	D	F	2725.2	268.533	0.206	-0.028	1407.920	1304.236	0.021	-	0.121	1.270	-	-	-	22	5.646	89.091	-	PAVEMENT_GENERAL	Urban	F	1011101000011101	0000000000000000	-	car	777.044	53.323	0.000	0.000	180.000	696.000	987.000	-0.000	Terminate	
Unknown	72.98479	01/14/0117 10:06.02	00004379	16.999	Inter616t1-2	0.395	1	2	270.000	11.111	9.2	0.323	0.000	D	F	2893.1	269.933	0.204	-0.064	1391.529	1304.002	0.021	-	0.480	1.196	-	-	-	22	5.460	92.812	-	PAVEMENT_GENERAL	Urban	F	1011101000011101	0000000000000000	-	car	762.003	49.235	0.000	0.000	180.000	696.000	987.000	-0.000	Terminate	
Unknown	73.98481	01/14/0117 10:06.03	00004439	18.216	Inter616t1-2	0.586	1	2	270.000	11.111	4.1	0.374	0.000	D	F	3083.8	271.262	0.203	-0.037	1373.926	1304.192	0.021	-	0.275	1.236	-	-	-	22	5.233	95.329	-	PAVEMENT_GENERAL	Urban	F	1011101000011101	0000000000000000	-	car	746.102	45.701	0.000	0.000	180.000	696.000	987.000	-0.000	Terminate	
Unknown	74.98483	01/14/0117 10:06.04	00004499	19.431	Inter616t1-2	1.083	1	2	270.000	11.111	-0.3	0.362	0.000	D	F	3248.3	271.714	0.200	-0.005	1355.104	1304.690	0.021	-	0.032	1.184	-	-	-	22	4.972	96.619	-	PAVEMENT_GENERAL	Urban	F	1011101000011101	0000000000000000	-	car	729.313	42.295	0.000	0.000	180.000	696.000	987.000	-0.000	Terminate	
Unknown	75.98486	01/14/0117 10:06.05	00004559	20.585	Inter616t1-2	1.478	1	2	270.000	11.111	-5.1	0.351	0.000	D	F	3102.9	269.928	0.200	0.069	1335.101	1305.085	0.021	-	-0.622	1.370	-	-	-	22	4.681	96.366	78.502	PAVEMENT_GENERAL	Urban	F	1011101000011101	0000000000000000	-	car	711.523	38.586	0.000	0.000	180.000	696.000	987.000	-0.000	Terminate	
Unknown	76.98487	01/14/0117 10:06.06	00004619	21.389	Inter616t1-2	1.328	1	2	270.000	11.111	-1.9	0.360	0.000	D	F	2473.4	269.011	0.191	0.030	1314.070	1304.935	0.024	-	-0.256	0.654	-	-	-	22	4.407	94.252	32.706	PAVEMENT_GENERAL	Urban	F	1011101000011101	0000000000000000	-	car	692.690	36.104	0.000	0.000	180.000	696.000	987.000	-0.000	Terminate	
Unknown	77.98489	01/14/0117 10:06.07	00004679	21.594	Inter616t1-2	0.963	1	2	270.000	11.111	2.8	0.000	0.000	D	F	1653.7	269.276	0.161	-0.038	1292.477	1304.570	0.028	-	0.274	-0.600	-	-	-	22	4.204	90.773	23.403	PAVEMENT_GENERAL	Urban	F	1111101000011101	0000000000000000	-	car	673.388	35.095	0.000	0.000	180.000	696.000	987.000	-0.000	Terminate	
Unknown	78.98492	01/14/0117 10:06.08	00004739	20.974	Inter616t1-2	0.808	1	2	270.000	11.111	0.5	0.000	0.021	D	F	1431.7	270.018	0.179	-0.023	1271.192	1304.415	0.030	-	0.178	-0.648	-	-	-	22	4.143	86.894	22.422	PAVEMENT_GENERAL	Urban	F	1011101000011101	0000000000000000	-	car	654.601	35.654	0.000	0.000	180.000	696.000	987.000	-0.000	Terminate	
Unknown	79.98493	01/14/0117 10:06.09	00004799	20.142	Inter616t1-2	0.816	1	2	270.000	11.111	-0.1	0.000	0.000	D	F	1373.4	270.043	0.181	0.001	1250.690	1304.423	0.030	-	-0.008	-0.605	-	-	-	22	4.130	83.183	22.723	PAVEMENT_GENERAL	Urban	F	1011101000011101	0000000000000000	-	car	636.732	36.437	0.000	0.000	180.000	696.000	987.000	-0.000	Terminate	
Unknown	80.98495	01/14/0117 10:06.10	00004859	19.542	Inter616t1-2	0.823	1	2	270.000	11.111	0.2	0.000	0.000	D	F	1332.5	269.983	0.182	0.001	1230.848	1304.430	0.029	-	-0.010	-0.596	-	-	-	22	4.072	79.578	22.354	PAVEMENT_GENERAL	Urban	F	1011101000011101	0000000000000000	-	car	619.593	36.863	0.000	0.000	180.000	696.000	987.000	-0.000	Terminate	
Unknown	81.98497	01/14/0117 10:06.11	00004919	18.980	Inter616t1-2	0.835	1	2	270.000	11.111	0.4	0.109	0.000	D	F	1514.4	270.141	0.190	-0.007	1211.601	1304.442	0.029	-	0.056	-0.334	-	-	-	22	4.008	76.067	21.743	PAVEMENT_GENERAL	Urban	F	1011101000011101	0000000000000000	-	car	603.127	37.373	0.000	0.000	180.000	696.000	987.000	-0.000	Terminate	
Unknown	82.98499	01/14/0117 10:06.12	00004979	18.822	Inter617t1-2	0.880	1	2	270.000	11.111	-0.9	0.051	0.000	D	F	1410.6	270.075	0.186	0.009	1192.661	1304.486	0.028	-	-0.063	-0.304	-	-	-	22	3.846	72.383	19.264	PAVEMENT_GENERAL	Urban	F	1011101000011101	0000000000000000	-	car	587.106	37.051	0.000	0.000	180.000	696.000	987.000	-0.000	Terminate	
Unknown	83.98502	01/14/0117 10:06.13	00005039	18.522	Inter617t1-2	0.919	1	2	270.000	11.111	3.7	0.076	0.000	D	F	1443.1	270.400	0.187	-0.033	1174.003	1304.526	0.028	-	0.247	-0.254	-	-	-	22	3.707	68.662	18.524	PAVEMENT_GENERAL	Urban	F	1011101000011101	0000000000000000	-	car	571.495	37.216	0.000	0.000	180.000	696.000	987.000	-0.000	Terminate	
Unknown	84.98503	01/14/0117 10:06.14	00005099	18.343	Inter617t1-2	1.082	1	2	270.000	11.111	-3.4	0.115	0.000	D	F	1555.6	270.323	0.189	0.030	1155.585	1304.689	0.027	-	-0.223	-0.106	-	-	-	22	3.540	64.933	17.186	PAVEMENT_GENERAL	Urban	F	1011101000011101	0000000000000000	-	car	556.340	37.015	0.000	0.000	180.000	696.000	987.000	-0.000	Terminate	
Unknown	85.98505	01/14/0117 10:06.15	00005159	18.327	Inter617t1-2	1.110	1	2	270.000	11.111	-0.1	0.150	0.000	D	F	1646.8	269.933	0.191	0.002	1137.262	1304.717	0.026	-	-0.015	0.037	-	-	-	22	3.333	61.088	15.550	PAVEMENT_GENERAL	Urban	F	1011101000011101	0000000000000000	-	car	541.384	36.370	0.000	0.000	180.000	696.000	987.000	-0.000	Terminate	
Unknown	86.98507	01/14/0117 10:06.16	00005219	18.238	Inter617t1-2	1.088	1	2	270.000	11.111	1.1	0.095	0.000	D	F	1491.9	269.923	0.188	-0.005	1118.964	1304.695	0.027	-	0.032	-0.146	-	-	-	22	3.130	57.091	14.251	PAVEMENT_GENERAL	Urban	F	1011101000011101	0000000000000000	-	car	526.629	36.077	0.000	0.000	180.000	696.000	987.000	-0.000	Terminate	
Unknown	87.98509	01/14/0117 10:06.17	00005279	17.988	Inter617t1-2	1.027	1	2	270.000	11.111	-4.7	0.065	0.000	D	F	1388.7	269.433	0.187	0.042	1100.847	1304.633	0.028	-	-0.299	-0.277	-	-	-	22	2.953	53.126	13.541	PAVEMENT_GENERAL	Urban	F	1111101000011101	0000000000000000	-	car	512.220	35.916	0.000	0.000	180.000	696.000	987.000	-0.000	Terminate	
Unknown	88.98512	01/14/0117 10:06.18	00005339	17.706	Inter617t1-2	0.763	1	2	270.000	11.111	-1.2	0.067	0.000	D	F	1389.3	268.940	0.188	0.009	1083.004	1304.369	0.028	-	-0.075	-0.266	-	-	-	22	2.794	49.474	17.117	PAVEMENT_GENERAL	Urban	F	1011101000011101	0000000000000000	-	car	498.136	35.847	0.000	0.000	180.000	696.000	987.000	-0.000	Terminate	
Unknown	89.98513	01/14/0117 10:06.19	00005399	17.427	Inter617t1-2	0.418	1	2	270.000	11.111	-0.1	0.063	0.000	D	F	1366.1	268.817	0.189	0.003	1065.440	1304.024	0.028	-	-0.021	-0.276	-	-	-	22	2.738	47.709	77.993	PAVEMENT_GENERAL	Urban	F	1011101000011101	0000000000000000	-	car	484.457	36.002	0.000	0.000	180.000	696.000	987.000	-0.000	Terminate	
Unknown	90.98515	01/14/0117 10:06.20	00005459	16.956	Inter617t1-2	0.173	1	2	270.000	11.111	8.2	0.000	0.000	D	F	1156.4	270.049	0.185	-0.078	1048.220	1303.780	0.029	-	0.595	-0.559	-	-	-	-	-	-	-	PAVEMENT_GENERAL	Urban	F	1011101000011101	0000000000000000	-	car	471.358	37.416	0.000	0.000	180.000	696.000	987.000	-0.000	Terminate	
Unknown	91.98518	01/14/0117 10:06.21	00005519	16.400	Inter617t1-2	0.402	1	2	270.000	11.111	-4.9	0.000	0.000	D	F	1118.4	271.163	0.187	0.031	1031.544	1304.009	0.029	-	-0.174	-0.550	-	-	-	-	-	-	-	PAVEMENT_GENERAL	Urban	F	1011101000011101	0000000000000000	-	car	459.251	39.285	0.000	0.000	180.000	696.000	987.000	-0.000	Terminate	
Unknown	92.98519	01/14/0117 10:06.22	00005579	12.206	Inter617t1-2	0.608	1	2	270.000	11.111	-2.4	0.000	0.493	D	F	1000.3	270.407	-0.000	0.022	1016.830	1304.214	0.040	-	-0.131	-5.935	-	-	-	-	-	-	-	PAVEMENT_GENERAL	Urban	F	1011101000011101	0000000000000000	-	car	448.813	52.076	0.000	0.000	180.000	696.000	987.000	-0.000	Terminate	
Unknown	93.98521	01/14/0117 10:06.23	00005639	7.099	Inter617t1-2	0.664	1	2	270.000	11.111	2.8	0.000	0.107	D	F	689.2	270.368	0.194	-0.008	1007.479	1304.271	0.037	-	0.053	-2.096	-	-	-	-	-	-	-	PAVEMENT_GENERAL	Urban	F	1011101000011101	0000000000000000	-	car	442.252	89.515	0.000	0.000	180.000	696.000	987.000	-0.000	Terminate	
Unknown	94.98523	01/14/0117 10:06.24	00005699	6.558	Inter617t1-2	0.737	1	2	270.000	11.111	3.9	0.101	0.000	D	F	1329.6	270.782	0.216	-0.008	1000.763	1304.344	0.027	-	0.058	0.388	-	-	-	32	1.471	9.647	-	PAVEMENT_GENERAL	Urban	F	1011101000011101	0000000000000000	-	car	437.626	97.746	0.000	0.000	180.000	696.000	987.000	-0.000	Terminate	
Unknown	95.98525	01/14/0117 10:06.25	00005759	7.826	Inter618t1-0	0.183	1	2	269.999	24.444	2.8	0.055	0.000	D	F	1390.9	271.268	0.252	-0.032	993.610	1304.483	0.021	-	0.055	0.581	-	-	-	32	1.663	13.012	-	FREEWAY_SMOOTH	Urban	F	1011101000011101	0000000000000000	-	car	432.804	82.842	0.000	0.000	180.000	696.000	987.000	-0.000	Terminate	
Unknown	96.98528	01/14/0117 10:06.26	00005819	7.844	Inter618t1-0	0.376	1	2	269.908	24.444	-1.0	0.273	0.000	D	F	1775.0	271.412	0.311	-0.128	985.869	1304.672	0.034	-	-0.025	1.364	-	-	-	32	1.968	15.441	-	FREEWAY_SMOOTH	Urban	F	1011101000011101	0000000000000000	-	car	427.686	83.159	0.000	0.000	180.000	696.000	987.000	-0.000	Terminate	
Unknown	97.98529	01/14/0117 10:06.27	00005879	9.549	Inter618t1-0	0.575	1	2	269.672	24.444	-3.0	0.376	0.000	D	F	2056.3	270.906	0.289	-0.237	977.200	1304.841	0.039	-	-0.100	1.761	-	-	-	32	1.984	18.942	-	FREEWAY_SMOOTH	Urban	F	1011101000011101	0000000000000000	-	car	422.018	67.922	0.000	0.000	180.000	696.000	987.000	-0.000	Terminate	
Unknown	98.98531	01/14/0117 10:06.28	00005939	11.268	Inter618t1-0	0.773	1	2	269.186	24.444	-5.8	0.481	0.000	D	F	2233.6	270.204	0.290	-0.371	966.787	1304.941	0.053	-	-0.219	1.682	-	-	-	32	2.007	22.612	-	FREEWAY_SMOOTH	Urban	F	1011101000011101	0000000000000000	-	car	415.267	57.077	0.000	0.000	180.000	696.000	987.000	-0.000	Terminate	
Unknown	99.98534	01/14/0117 10:06.29	00005999	12.881	Inter618t1-0	0.924	1	2	268.361	24.444	-7.7	0.524	0.000	D	F	2383.6	268.948	0.289	-0.523	954.701	1304.842	0.069	-	-0.341	1.552	-	-	-	32	2.070	26.663	-	FREEWAY_SMOOTH	Urban	F	1011101000011101	0000000000000000	-	car	407.457	49.012	0.000	0.000	180.000	696.000	987.000	-0.000	Terminate	
Unknown	100.98535	01/14/0117 10:06.30	00006059	14.411	Inter618t1-0	0.959	1	2	267.081	24.444	-7.0	0.582	0.000	D	F	2586.3	266.969	0.280	-0.702	941.064	1304.347	0.087	-	-0.438	1.533	-	-	-	32	2.152	31.016	-	FREEWAY_SMOOTH	Urban	F	1011101000011101	0000000000000000	-	car	398.596	42.411	0.000	0.000	180.000	696.000	987.000	-0.000	Terminate	
Unknown	101.98537	01/14/0117 10:06.31	00006119	15.930	Inter618t1-0	0.927	1	2	265.235	24.444	-10.2	0.591	0.000	D	F	2780.3	265.015	0.275	-0.878	925.926	1303.317	0.105	-	-0.685	1.504	-	-	-	32	2.190	34.879	-	FREEWAY_SMOOTH	Urban	F	1011101000011101	0000000000000000	-	car	388.694	37.194	0.000	0.000	180.000	696.000	987.000	-0.000	Terminate	
Unknown	102.98539	01/14/0117 10:06.32	00006179	17.419	Inter618t1-0	0.848	1	2	262.684	24.444	-10.7	0.600	0.000	D	F	3002.1	262.467	0.271	-1.096	909.349	1301.512	0.125	-	-0.768	1.477	-	-	-	32	2.168	37.760	-	FREEWAY_SMOOTH	Urban	F	1011101000011101	0000000000000000	-	car	377.687	32.605	0.000	0.000	180.000	696.000	987.000	-0.000	Terminate	
Unknown	103.98541	01/14/0117 10:06.33	00006239	18.892	Inter618t1-0	0.887	1	2	259.339	24.444	-12.8	0.626	0.000	D	F	3219.9	259.819	0.285	-1.329	891.406	1298.749	0.148	-	-0.933	1.468	-	-	-	32	2.091	39.500	-	FREEWAY_SMOOTH	Urban	F	1011101000011101	0000000000000000	-	car	365.569	28.774	0.000	0.000	180.000	696.000	987.000	-0.000	Terminate	
Unknown	104.98544	01/14/0117 10:06.34	00006299	20.330	Inter618t1-0	1.167	1	2	255.013	24.444	-29.3	0.603	0.000	D	F	3413.5	255.503	0.280	-1.449	872.213	1294.710	0.181	-	-2.036	1.412	-	-	-	31	1.350	27.443	11.208	FREEWAY_SMOOTH	Urban	F	1011101000011101	0000000000000000	-	car	352.234	24.810	0.000	0.000	180.000	696.000	987.000	-0.000	Terminate	
Unknown	105.98545	01/14/0117 10:06.35	00006359	21.147	Inter618t1-0	1.200	1	2	249.918	24.444	-21.9	0.111	0.000	D	F	1919.7	248.897	0.129	-1.467	852.285	1288.477	0.192	-	-2.268	-0.034	-	-	-	31	1.150	24.318	7.446	FREEWAY_SMOOTH	Urban	F	1011101000011101	0000000000000000	-	car	337.219	21.290	0.000	0.000	180.000	696.000	987.000	-0.000	Terminate	
Unknown	106.98547	01/14/0117 10:06.36	00006419	21.335	Inter618t1-0	0.865	1	2	244.777	24.444	-20.8	0.342	0.000	D	F	2040.3	243.252	0.133	-1.497	832.861	1280.039	0.180	-	-1.999	0.418	-	-	-	32	1.813	38.669	31.733	FREEWAY_SMOOTH	Urban	F	1011101000011101	0000000000000000	-	car	321.064	19.154	0.000	0.000	180.000	696.000	987.000	-0.000	Terminate	
Unknown	107.98550	01/14/0117 10:06.37	00006479	21.841	Inter618t1-0	0.513	1	2	239.516	24.444	-14.0	0.332	0.000	D	F	2470.8	238.987	0.168	-1.589	813.952	1269.678	0.169	-	-1.299	0.603	-	-	-	32	1.712	37.401	21.684	FREEWAY_SMOOTH	Urban	F	1011101000011101	0000000000000000	-	car	303.941	17.276	0.000	0.000	180.000	696.000	987.000	-0.000	Terminate	
Unknown	108.98551	01/14/0117 10:06.38	00006539	22.173	Inter618t1-0	0.646	1	2	234.138	24.444	-26.6	0.205	0.000	D	F	2398.5	234.037	0.171	-1.424	795.413	1257.750	0.175	-	-2.488	0.180	-	-	-	32	1.595	35.361	17.191	FREEWAY_SMOOTH	Urban	F	1011101000011101	0000000000000000	-	car	286.064	15.539	0.000	0.000	180.000	696.000	987.000	-0.000	Terminate	
Unknown	109.98553	01/14/0117 10:06.39	00006599	22.238	Inter618t1-0	0.649	1	2	228.696	24.444	-23.9	0.183	0.000	D	F	1873.6	228.216	0.158	-1.475	778.027	1243.923	0.176	-	-2.134	0.017	-	-	-	32	1.500	33.363	15.721	FREEWAY_SMOOTH	Urban	F	1011101000011101	0000000000000000	-	car	267.340	13.954	0.000	0.000	180.000	696.000	987.000	-0.000	Terminate	
Unknown	110.98555	01/14/0117 10:06.40	00006659	22.213	Inter618t1-0	0.416	1	2	223.291	24.444	-24.0	0.182	0.000	D	F	1862.2	221.234	0.104	-1.396	762.188	1228.344	0.169	-	-2.712	0.024	-	-	-	32	1.418	31.497	15.018	FREEWAY_SMOOTH	Urban	F	1011101000011101	0000000000000000	-	car	247.896	12.406	0.000	0.000	180.000	696.000	987.000	-0.000	Terminate	
Unknown	111.98557	01/14/0117 10:06.41	00006719	22.106	Inter618t1-0	-0.100	1	2	217.879	24.444	-11.3	0.148	0.000	D	F	1773.1	216.915	0.147	-1.586	748.144	1211.201	0.154	-	-1.334	-0.105	-	-	-	32	1.339	29.606	14.878	FREEWAY_SMOOTH	Urban	F	1011101000011101	0000000000000000	-	car	227.825	11.266	0.000	0.000	180.000	696.000	987.000	-0.000	Terminate	
Unknown	112.98560	01/14/0117 10:06.42	00006779	21.982	Inter618t1-0	0.011	1	2	212.483	24.444	-12.1	0.146	0.000	D	F	1762.3	213.582	0.210	-1.588	735.330	1193.264	0.157	-	-1.304	-0.116	-	-	-	32	1.265	27.817	14.909	FREEWAY_SMOOTH	Urban	F	1011101000011101	0000000000000000	-	car	207.621	10.245	0.000	0.000	180.000	696.000	987.000	-0.000	Terminate	
Unknown	113.98561	01/14/0117 10:06.43	00006839	21.832	Inter618t1-0	0.698	1	2	207.134	24.444	-29.9	0.146	0.000	D	F	1753.6	208.049	0.197	-1.387	723.827	1174.621	0.178	-	-2.790	-0.127	-	-	-	32	1.185	25.865	15.069	FREEWAY_SMOOTH	Urban	F	1011101000011101	0000000000000000	-	car	187.314	9.108	0.000	0.000	180.000	696.000	987.000	-0.000	Terminate	
Unknown	114.98563	01/14/0117 10:06.44	00006899	21.791	Inter618t1-0	0.750	1	2	201.813	24.444	-28.2	0.205	0.000	D	F	1900.8	199.590	0.096	-1.358	714.731	1154.838	0.179	-	-3.079	0.126	-	-	-	32	1.117	24.334	14.525	FREEWAY_SMOOTH	Urban	F	1011101000011101	0000000000000000	-	car	166.521	7.850	0.000	0.000	180.000	696.000	987.000	-0.000	Terminate	
Unknown	115.98566	01/14/0117 10:06.45	00006959	21.894	Inter618t1-0	-0.165	1	2	196.507	24.444	-9.7	0.259	0.000	D	F	1983.0	193.102	0.071	-1.533	708.412	1133.953	0.151	R	-1.757	0.258	-	-	-	32	1.044	22.860	12.859	FREEWAY_SMOOTH	Urban	F	1011101001011101	0000000000000000	-	car	145.117	6.698	0.000	0.000	180.000	696.000	987.000	-0.000	Terminate	
Unknown	116.98567	01/14/0117 10:06.46	00007019	22.151	Inter618t1-0	-0.581	1	2	191.413	24.444	0.2	0.101	0.000	D	F	1649.7	193.045	0.166	-1.525	703.504	1112.477	0.122	R	0.095	-0.002	-	-	-	32	0.948	21.009	10.323	FREEWAY_SMOOTH	Urban	F	1011101001011101	0000000000000000	-	car	123.341	5.648	0.000	0.000	180.000	696.000	987.000	-0.000	Terminate	
Unknown	117.98569	01/14/0117 10:06.47	00007079	22.197	Inter618t1-0	0.502	1	2	187.243	24.444	-21.8	0.363	0.000	D	F	2078.7	190.176	0.180	-0.973	698.862	1090.849	0.125	-	-1.772	0.323	-	-	-	-	-	-	-	FREEWAY_SMOOTH	Urban	F	1011101000011101	0000000000000000	-	car	101.529	4.626	0.000	0.000	180.000	696.000	987.000	-0.000	Terminate	
Unknown	118.98571	01/14/0117 10:06.48	00007139	22.131	Inter618t1-0	1.226	1	2	183.989	24.444	-29.5	0.000	0.000	D	F	1591.6	182.598	0.049	-0.468	695.976	1068.751	0.117	-	-3.209	-0.656	-	-	-	32	0.648	14.341	7.116	FREEWAY_SMOOTH	Urban	F	1011101000011101	0000000000000000	-	car	79.391	3.591	0.000	0.000	180.000	696.000	987.000	-0.000	Terminate	
Unknown	119.98573	01/14/0117 10:06.49	00007199	19.739	Inter618t1-0	0.314	1	2	181.774	24.444	2.4	0.000	0.248	D	F	1302.7	177.467	0.008	-0.501	695.834	1047.483	0.084	-	-0.801	-3.626	-	-	-	-	-	-	-	FREEWAY_SMOOTH	Urban	F	1111101000011101	0000000000000000	-	car	58.124	2.947	0.000	0.000	180.000	696.000	987.000	-0.000	Terminate	
Unknown	120.98576	01/14/0117 10:06.50	00007259	14.613	Inter618t1-0	-0.607	1	2	180.621	24.444	15.7	0.000	0.472	D	F	931.8	179.451	-0.126	-0.485	696.400	1030.109	0.064	-	0.814	-6.091	-	-	-	-	-	-	-	FREEWAY_SMOOTH	Urban	F	1011101000011101	0000000000000000	-	car	40.752	2.789	0.000	0.000	180.000	696.000	987.000	-0.000	Terminate	
Unknown	121.98577	01/14/0117 10:06.51	00007319	12.539	Inter618t1-0	-0.576	1	2	180.148	24.444	-4.9	0.000	0.036	D	F	1202.1	181.349	0.141	-0.151	696.286	1016.975	0.040	L	-0.072	-0.745	-	-	-	-	-	-	-	FREEWAY_SMOOTH	Urban	F	1011101000111101	0000000000000000	-	car	28.192	2.561	1.533	2.000	177.873	696.022	986.425	-0.000	Terminate	
Unknown	122.98579	01/14/0117 10:06.52	00007379	11.796	Inter618t1-0	-0.734	1	2	180.000	24.444	-40.3	0.000	0.000	D	F	1158.6	176.095	0.137	0.229	696.434	1004.879	0.030	L	-1.716	-0.561	-	-	-	-	-	-	-	FREEWAY_SMOOTH	Urban	F	1011101000111101	0000000000000000	-	car	18.607	2.260	3.533	2.000	176.638	696.176	983.913	-0.000	Terminate	
Unknown	123.98581	01/14/0117 10:06.53	00007439	11.851	Inter686t1-0	-1.488	1	1	180.000	11.111	18.7	0.136	0.000	D	F	1648.8	171.660	0.208	-0.071	697.884	993.300	0.023	-	0.457	0.695	-	-	-	car	0.775	9.181	1.453	PAVEMENT_GENERAL	Urban	F	1011101000011101	0000000000000000	-	car	11.626	1.942	5.533	2.000	178.321	696.345	979.400	-0.000	Terminate	
Unknown	124.98583	01/14/0117 10:06.54	00007499	12.478	-	-	CL	0	-	-	31.1	0.229	0.000	D	F	1828.9	177.820	0.202	-0.170	699.014	981.235	0.023	-	1.369	0.793	-	-	-	-	-	-	-	PAVEMENT_GENERAL	Urban	F	1011101000011101	0000000000000000	-	car	6.392	1.398	7.533	2.000	179.871	696.399	972.883	-0.000	Terminate	
Unknown	125.98586	01/14/0117 10:06.55	00007559	13.276	-	-	CL	0	-	-	-4.2	0.243	0.000	D	F	1878.4	181.750	0.204	0.010	698.928	968.364	0.023	-	0.013	0.795	-	-	-	-	-	-	-	PAVEMENT_GENERAL	Urban	F	1011101000011101	0000000000000000	-	car	2.372	0.703	9.533	2.000	180.019	696.397	964.366	-0.000	Terminate	
Unknown	126.98587	01/14/0117 10:06.56	00007619	13.994	-	-	CL	0	-	-	-10.6	0.210	0.000	D	F	1869.1	179.341	0.200	0.079	698.749	954.718	0.023	-	-0.620	0.640	-	-	-	-	-	-	-	PAVEMENT_GENERAL	Urban	F	1111101000011101	0000000000000000	-	car	-0.004	0.009	8.033	-4.000	180.004	696.397	954.841	-0.000	Terminate	
Unknown	127.98589	01/14/0117 10:06.57	00007679	14.371	-	-	CL	0	-	-	15.4	0.111	0.000	D	F	1634.9	180.348	0.190	-0.111	698.906	940.489	0.026	-	0.791	0.048	-	-	-	-	-	-	-	PAVEMENT_GENERAL	Urban	F	1011101000011101	0000000000000000	-	car	6.186	-0.690	4.967	-0.500	180.006	696.397	948.657	-0.000	Terminate	
Unknown	128.98592	01/14/0117 10:06.58	00007739	14.090	-	-	CL	0	-	-	6.0	0.000	0.000	D	F	1384.0	182.963	0.186	-0.050	698.476	926.190	0.029	-	0.432	-0.562	-	-	-	-	-	-	-	PAVEMENT_GENERAL	Urban	F	1011101000011101	0000000000000000	-	car	15.228	-1.846	5.675	2.000	180.007	696.397	943.654	-0.000	Terminate	
Unknown	129.98593	01/14/0117 10:06.59	00007799	13.791	Inter686t1-0	-1.242	1	1	180.000	11.111	4.6	0.213	0.000	D	F	1864.6	183.903	0.211	-0.030	697.638	912.363	0.025	R	0.204	0.568	-	-	-	-	-	-	-	PAVEMENT_GENERAL	Urban	F	1011101001011101	0000000000000000	-	car	22.304	-3.700	7.675	2.000	180.006	696.397	936.996	-0.000	Terminate	
Unknown	130.98595	01/14/0117 10:07.00	00007859	14.593	Inter686t1-0	-0.217	1	1	180.000	11.111	-10.7	0.321	0.000	D	F	2014.6	184.093	0.206	0.046	696.613	898.229	0.022	-	-0.338	0.914	-	-	-	-	-	-	-	PAVEMENT_GENERAL	Urban	F	1011101000011101	0000000000000000	-	car	27.750	-5.694	9.675	2.000	180.004	696.397	928.337	-0.000	Terminate	
Unknown	131.98598	01/14/0117 10:07.01	00007919	15.575	Inter686t1-0	0.424	1	1	180.000	11.111	-19.0	0.418	0.000	D	F	2625.9	180.326	0.205	0.135	695.972	883.191	0.021	-	-1.084	1.263	-	-	-	-	-	-	-	PAVEMENT_GENERAL	Urban	F	1011101000011101	0000000000000000	-	car	32.130	-8.238	11.675	2.000	180.003	696.397	917.678	-0.000	Terminate	
Unknown	132.98599	01/14/0117 10:07.02	00007979	16.924	Inter686t1-0	0.189	1	1	180.000	11.111	3.8	0.436	0.000	D	F	2911.7	178.695	0.206	-0.019	696.207	866.948	0.020	-	0.112	1.358	-	-	-	-	-	-	-	PAVEMENT_GENERAL	Urban	F	1011101000011101	0000000000000000	-	car	35.712	-11.014	13.675	2.000	180.003	696.397	905.020	-0.000	Terminate	
Unknown	133.98601	01/14/0117 10:07.03	00008039	18.275	Inter686t1-0	-0.090	1	1	180.000	11.111	5.5	0.446	0.000	D	F	3109.6	179.622	0.203	-0.045	696.486	849.349	0.020	-	0.337	1.341	-	-	-	-	-	-	-	PAVEMENT_GENERAL	Urban	F	1011101000011101	0000000000000000	-	car	38.652	-14.866	15.675	2.000	180.003	696.397	890.361	-0.000	Terminate	
Unknown	134.98604	01/14/0117 10:07.04	00008099	19.588	Inter686t1-0	-0.125	1	1	180.000	11.111	-4.5	0.406	0.000	D	F	3283.5	180.069	0.200	0.020	696.521	830.411	0.021	-	-0.098	1.254	-	-	-	-	-	-	-	PAVEMENT_GENERAL	Urban	F	1011101000011101	0000000000000000	-	car	40.932	-21.398	17.675	2.000	180.002	696.397	873.702	-0.000	Terminate	
Unknown	135.98605	01/14/0117 10:07.05	00008159	20.791	Inter686t1-0	-0.291	1	1	180.000	11.111	3.0	0.393	0.000	D	F	3441.8	178.882	0.197	0.005	696.687	810.217	0.021	-	-0.117	1.178	-	-	-	-	-	-	-	PAVEMENT_GENERAL	Urban	F	1011101000011101	0000000000000000	-	car	42.755	-22.729	18.909	1.000	180.002	696.397	855.330	-0.000	Terminate	
Unknown	136.98607	01/14/0117 10:07.06	00008219	21.835	Inter682t1-1	-0.623	1	1	180.000	11.111	0.3	0.384	0.000	D	F	2571.6	179.245	0.188	-0.010	697.027	788.858	0.023	-	0.073	0.715	-	-	-	-	-	-	-	PAVEMENT_GENERAL	Urban	F	1011101000011101	0000000000000000	-	car	44.867	-19.340	19.517	0.500	180.002	696.397	836.080	-0.000	Terminate	
Unknown	137.98610	01/14/0117 10:07.07	00008279	22.234	Inter682t1-1	-0.727	1	1	180.000	11.111	12.0	0.108	0.000	D	F	1897.8	181.104	0.167	-0.150	697.131	766.748	0.026	-	1.117	-0.252	-	-	-	-	-	-	-	PAVEMENT_GENERAL	Urban	F	1011101000011101	0000000000000000	-	car	47.214	-21.402	20.017	0.500	180.000	696.397	816.317	-0.000	Terminate	
Unknown	138.98611	01/14/0117 10:07.08	00008339	22.064	Inter682t1-1	-0.043	1	1	180.000	11.111	-10.9	0.139	0.000	D	F	1757.2	181.699	0.181	0.099	696.447	744.618	0.027	-	-0.696	-0.134	-	-	-	-	-	-	-	PAVEMENT_GENERAL	Urban	F	1011101000011101	0000000000000000	-	car	49.234	-25.403	20.116	0.000	179.997	696.402	796.211	-0.000	Terminate	
Unknown	139.98613	01/14/0117 10:07.09	00008399	21.934	Inter682t1-1	0.209	1	1	180.000	11.111	-0.4	0.148	0.000	D	F	1768.0	179.736	0.183	0.018	696.195	722.625	0.027	-	-0.189	-0.100	-	-	-	-	-	-	-	PAVEMENT_GENERAL	Urban	F	1011101000011101	0000000000000000	-	car	51.112	-28.131	20.116	0.000	179.996	696.403	776.095	-0.000	Terminate	
Unknown	140.98616	01/14/0117 10:07.10	00008459	21.847	Inter682t1-1	0.128	1	1	180.000	11.111	-0.5	0.152	0.000	D	F	1765.1	179.765	0.183	0.004	696.276	700.734	0.027	-	-0.025	-0.090	-	-	-	-	-	-	-	PAVEMENT_GENERAL	Urban	F	1011101000011101	0000000000000000	-	car	52.886	-30.566	20.116	0.000	179.996	696.403	755.979	-0.000	Terminate	
Unknown	141.98618	01/14/0117 10:07.11	00008519	21.879	Inter682t1-1	0.042	1	1	180.000	11.111	5.2	0.252	0.000	D	F	1974.6	180.002	0.187	-0.048	696.362	678.904	0.026	-	0.305	0.237	-	-	-	-	-	-	-	PAVEMENT_GENERAL	Urban	F	1011101000011101	0000000000000000	-	car	54.600	-30.970	20.116	0.000	179.996	696.403	735.863	-0.000	Terminate	
Unknown	142.98619	01/14/0117 10:07.12	00008579	21.683	Inter682t1-1	0.224	1	1	180.000	11.111	1.2	0.000	0.000	D	F	1478.3	181.164	0.175	-0.040	696.180	657.017	0.030	-	0.320	-0.632	-	-	-	-	-	-	-	PAVEMENT_GENERAL	Urban	F	1011101000011101	0000000000000000	-	car	56.371	-36.032	20.116	0.000	179.996	696.403	715.747	-0.000	Terminate	
Unknown	143.98621	01/14/0117 10:07.13	00008639	18.793	Inter682t1-1	0.574	1	1	180.000	11.111	-6.6	0.000	0.388	D	F	1212.5	180.244	0.047	0.091	695.830	636.262	0.040	-	-0.515	-5.114	-	-	-	-	-	-	-	PAVEMENT_GENERAL	Urban	F	1111101000011101	0000000000000000	-	car	57.012	43.113	20.116	0.000	179.996	696.403	695.631	-0.000	Terminate	
Unknown	144.98624	01/14/0117 10:07.14	00008699	13.731	Inter682t1-1	0.495	1	1	180.000	11.111	-10.5	0.000	0.388	D	F	886.7	178.641	0.051	0.086	695.909	619.992	0.040	L	-0.509	-5.031	-	-	-	-	-	-	-	PAVEMENT_GENERAL	Urban	F	1011101000111101	0000000000000000	-	car	53.694	12.160	18.140	-4.022	179.996	696.403	676.043	-0.000	Terminate	
Unknown	145.98625	01/14/0117 10:07.15	00008759	10.430	Inter682t1-1	0.016	1	1	180.000	11.111	-9.2	0.000	0.000	D	F	1019.9	176.475	0.226	0.053	696.388	608.332	0.029	L	-0.369	-0.512	-	-	-	-	-	-	-	PAVEMENT_GENERAL	Urban	F	1011101000111101	0000000000000000	-	car	48.651	9.299	15.642	-0.500	179.995	696.403	659.343	-0.000	Terminate	
Unknown	146.98627	01/14/0117 10:07.16	00008819	9.949	Inter688t25-1	-0.738	1	1	180.000	11.111	-1.7	0.067	0.000	D	F	1218.3	175.446	0.201	0.006	697.134	598.182	0.028	L	-0.062	-0.223	-	-	-	-	-	-	-	PAVEMENT_GENERAL	Urban	F	1011101000111101	0000000000000000	-	car	43.795	10.512	14.096	-0.500	179.995	696.403	644.331	-0.000	Terminate	
Unknown	147.98630	01/14/0117 10:07.17	00008879	10.269	Inter688t25-1	-1.562	1	1	180.000	11.111	0.4	0.136	0.000	D	F	1508.2	175.208	0.204	0.001	697.958	588.140	0.024	L	-0.003	0.409	-	-	-	-	-	-	-	PAVEMENT_GENERAL	Urban	F	1011101000111101	0000000000000000	-	car	39.843	11.316	13.788	-0.500	179.995	696.403	630.314	-0.000	Terminate	
Unknown	148.98631	01/14/0117 10:07.18	00008939	10.623	-	-	SH-	1	-	-	7.1	0.113	0.000	D	F	1469.4	175.703	0.203	-0.024	698.790	577.714	0.025	L	0.194	0.309	-	-	-	-	-	-	-	PAVEMENT_GENERAL	Urban	F	1011101000111101	0000000000000000	-	car	36.874	12.396	13.621	-6.122	179.994	696.403	616.874	-0.000	Terminate	
Unknown	149.98633	01/14/0117 10:07.19	00008999	10.345	Inter688t33-0	-1.640	1	1	173.425	11.111	31.6	0.000	0.000	D	F	1016.4	179.215	0.190	-0.143	699.303	567.161	0.029	L	1.067	-0.519	-	-	-	-	-	-	-	PAVEMENT_GENERAL	Urban	F	1011101000111101	0000000000000000	-	car	34.362	13.573	12.896	-0.500	180.033	696.400	603.768	-0.000	Terminate	
Unknown	150.98636	01/14/0117 10:07.20	00009059	9.842	Inter688t33-0	-0.129	1	1	175.869	11.111	-6.2	0.000	0.000	D	F	967.1	181.812	0.196	0.024	699.068	557.073	0.029	L	-0.171	-0.498	-	-	-	-	-	-	-	PAVEMENT_GENERAL	Urban	F	1011101000111101	0000000000000000	-	car	31.939	13.965	12.103	-0.500	179.808	696.402	591.268	-0.000	Terminate	
Unknown	151.98637	01/14/0117 10:07.21	00009119	9.357	Inter688t33-0	0.770	1	1	176.027	11.111	-6.4	0.000	0.000	D	F	909.5	180.722	0.198	0.024	698.869	547.480	0.028	L	-0.185	-0.449	-	-	-	-	-	-	-	PAVEMENT_GENERAL	Urban	F	1011101000111101	0000000000000000	-	car	29.773	14.399	11.428	-0.500	180.458	696.428	579.520	-0.000	Terminate	
Unknown	152.98639	01/14/0117 10:07.22	00009179	8.875	Inter688t27-1	1.099	LT1	1	179.909	11.111	-5.6	0.011	0.000	D	F	880.8	179.581	0.197	0.020	698.860	538.368	0.028	L	-0.151	-0.444	-	-	-	-	-	-	-	PAVEMENT_GENERAL	Urban	F	1011101000111101	0000000000000000	-	car	28.183	17.801	10.471	0.500	180.154	696.383	568.810	-0.000	Terminate	
Unknown	153.98642	01/14/0117 10:07.23	00009239	8.447	Inter688t27-1	0.987	LT1	1	179.909	11.111	-8.4	0.004	0.000	D	F	830.2	178.917	0.194	0.031	698.986	529.706	0.028	L	-0.207	-0.472	-	-	-	-	-	-	-	PAVEMENT_GENERAL	Urban	F	1011101000111101	0000000000000000	-	car	26.629	23.498	9.599	1.000	180.080	696.362	558.576	-0.000	Terminate	
Unknown	154.98643	01/14/0117 10:07.24	00009299	8.304	Inter688t27-1	0.712	LT1	1	179.909	11.111	-20.5	0.111	0.000	D	F	1385.7	177.313	0.202	0.059	699.274	521.431	0.024	L	-0.444	0.413	-	-	-	-	-	-	-	PAVEMENT_GENERAL	Urban	F	1011101000111101	0000000000000000	-	car	24.934	11.826	10.458	0.500	180.010	696.355	548.569	-0.000	Terminate	
Unknown	155.98645	01/14/0117 10:07.25	00009359	9.027	Inter688t59-0	0.715	1	1	162.939	11.111	-71.2	0.215	0.000	D	F	1774.2	171.641	0.212	0.241	700.119	512.874	0.022	L	-1.763	1.069	-	-	-	44	2.645	23.877	-	PAVEMENT_GENERAL	Urban	F	1011101000111101	0000000000000000	-	car	22.913	12.650	10.958	0.500	179.928	696.363	537.865	-0.000	Terminate	
Unknown	156.98647	01/14/0117 10:07.26	00009419	10.135	-Inter688t55-0	0.142	-1	1	269.714	11.111	-149.5	0.226	0.000	D	F	1979.6	153.876	0.207	0.580	703.040	503.780	0.024	L	-4.290	0.915	-	-	-	44	2.768	28.051	-	PAVEMENT_GENERAL	Urban	F	1011101000111101	0000000000000000	-	car	21.476	22.488	11.388	0.000	179.910	696.379	526.666	-0.000	Terminate	
Unknown	157.98650	01/14/0117 10:07.27	00009479	10.427	Inter688t43-0	0.264	1	1	89.747	11.111	-251.7	0.007	0.000	D	F	1192.2	120.991	0.082	1.046	710.032	496.204	0.041	L	-6.804	-0.931	-	-	-	44	2.905	30.294	-	PAVEMENT_GENERAL	Urban	F	1011101000111101	0000000000000000	-	car	21.080	-75.592	11.388	0.000	179.822	696.406	515.276	-0.000	Terminate	
Unknown	158.98651	01/14/0117 10:07.28	00009539	9.119	-	-	SH	1	-	-	-203.3	0.005	0.000	D	F	897.8	80.655	-0.095	0.914	719.402	494.436	0.044	-	-6.242	-1.004	-	-	-	-	-	-	-	PAVEMENT_GENERAL	Urban	F	1011101000011101	0000000000000000	-	car	22.470	-6.633	11.388	0.000	179.815	696.442	503.889	-0.000	Terminate	
Unknown	159.98653	01/14/0117 10:07.29	00009599	8.661	Inter688t5-0	-0.840	1	1	90.156	11.111	42.1	0.030	0.000	D	F	986.3	69.720	0.196	-0.148	727.774	497.319	0.028	-	1.026	-0.351	-	-	-	44	4.810	41.659	-	PAVEMENT_GENERAL	Urban	F	1011101000011101	0000000000000000	-	car	29.307	-2.877	11.388	0.000	179.843	696.476	492.501	-0.000	Terminate	
Unknown	160.98656	01/14/0117 10:07.30	00009659	8.422	-Inter688t5-1	-1.025	LT-1	1	270.156	11.111	142.4	0.072	0.000	D	F	1192.1	86.501	0.172	-0.437	736.086	499.032	0.029	-	3.342	-0.197	-	-	-	45	1.262	10.628	1.262	PAVEMENT_GENERAL	Urban	F	1011101000011101	0000000000000000	-	car	41.096	-3.262	11.488	2.000	179.961	696.497	481.112	-0.000	Terminate	
Unknown	161.98657	01/14/0117 10:07.31	00009719	8.768	Inter688t19-0	-1.633	1	1	90.100	11.111	-0.7	0.099	0.000	D	F	1348.2	99.307	0.203	-0.019	744.609	498.068	0.025	-	0.043	0.260	-	-	-	44	6.374	55.889	-	PAVEMENT_GENERAL	Urban	F	1011101000011101	0000000000000000	-	car	54.036	-3.950	13.488	2.000	180.011	696.499	468.641	-0.000	Terminate	
Unknown	162.98659	01/14/0117 10:07.32	00009779	9.694	Inter688t19-0	-0.403	1	1	90.051	11.111	-27.7	0.243	0.000	D	F	1945.5	96.136	0.213	0.091	753.640	496.821	0.020	-	-0.759	1.319	-	-	-	44	6.447	62.501	-	PAVEMENT_GENERAL	Urban	F	1011101000011101	0000000000000000	-	car	68.954	-4.207	15.488	2.000	180.095	696.487	454.170	-0.000	Terminate	
Unknown	163.98662	01/14/0117 10:07.33	00009839	10.818	Inter688t19-0	0.144	1	1	90.017	11.111	-27.8	0.219	0.000	D	F	2015.9	90.998	0.207	0.118	763.885	496.264	0.021	-	-0.899	1.061	-	-	-	44	6.277	67.900	-	PAVEMENT_GENERAL	Urban	F	1011101000011101	0000000000000000	-	car	86.958	-4.449	17.488	2.000	180.151	696.449	437.698	-0.000	Terminate	
Unknown	164.98663	01/14/0117 10:07.34	00009899	11.829	Inter688t19-0	-0.076	1	1	90.003	11.111	7.7	0.212	0.000	D	F	2111.0	88.293	0.207	-0.033	775.213	496.480	0.022	-	0.220	0.922	-	-	-	44	6.105	72.216	-	PAVEMENT_GENERAL	Urban	F	1011101000011101	0000000000000000	-	car	107.832	-4.934	18.805	1.000	180.044	696.414	419.454	-0.000	Terminate	
Unknown	165.98665	01/14/0117 10:07.35	00009959	12.686	Inter688t7-0	-0.341	1	1	90.000	11.111	8.3	0.206	0.000	D	F	2196.3	89.083	0.206	-0.036	787.473	496.745	0.023	-	0.264	0.829	-	-	-	44	5.959	75.600	-	PAVEMENT_GENERAL	Urban	F	1011101000011101	0000000000000000	-	car	130.307	-5.663	19.463	0.500	180.008	696.406	400.272	-0.000	Terminate	
Unknown	166.98668	01/14/0117 10:07.36	00010019	13.293	Inter683t1-0	-0.360	1	1	90.000	11.111	6.7	0.178	0.000	D	F	1773.6	90.759	0.202	-0.042	800.501	496.756	0.024	-	0.323	0.476	-	-	-	44	5.884	78.216	-	PAVEMENT_GENERAL	Urban	F	1011101000011101	0000000000000000	-	car	139.795	-6.111	19.471	0.500	180.008	696.406	399.947	-0.000	Terminate	
Unknown	167.98669	01/14/0117 10:07.37	00010079	13.761	Inter683t1-0	-0.054	1	1	90.000	11.111	1.8	0.178	0.000	D	F	1777.4	91.770	0.201	-0.013	814.026	496.450	0.024	-	0.132	0.453	-	-	-	44	5.838	80.336	-	PAVEMENT_GENERAL	Urban	F	1011101000011101	0000000000000000	-	car	149.783	-6.594	19.471	0.500	180.008	696.406	399.947	-0.000	Terminate	
Unknown	168.98671	01/14/0117 10:07.38	00010139	14.215	Inter683t1-0	0.350	1	1	90.000	11.111	-12.6	0.189	0.000	D	F	1820.3	91.137	0.200	0.075	828.009	496.046	0.024	-	-0.513	0.450	-	-	-	44	5.768	81.998	-	PAVEMENT_GENERAL	Urban	F	1011101000011101	0000000000000000	-	car	160.595	-7.045	19.471	0.500	180.008	696.406	399.947	-0.000	Terminate	
Unknown	169.98674	01/14/0117 10:07.39	00010199	14.799	Inter683t1-0	0.396	1	1	90.000	11.111	-4.4	0.243	0.000	D	F	1952.6	89.557	0.201	0.030	842.497	496.000	0.023	-	-0.217	0.669	-	-	-	44	5.619	83.154	-	PAVEMENT_GENERAL	Urban	F	1011101000011101	0000000000000000	-	car	172.480	-7.458	19.471	0.500	180.008	696.406	399.947	-0.000	Terminate	
Unknown	170.98676	01/14/0117 10:07.40	00010259	15.521	Inter683t1-0	0.215	1	1	90.000	11.111	1.3	0.277	0.000	D	F	2021.5	89.235	0.201	-0.008	857.654	496.181	0.023	-	0.040	0.721	-	-	-	44	5.389	83.642	-	PAVEMENT_GENERAL	Urban	F	1011101000011101	0000000000000000	-	car	185.422	-7.919	19.471	0.500	180.008	696.406	399.947	-0.000	Terminate	
Unknown	171.98677	01/14/0117 10:07.41	00010319	16.226	Inter683t1-0	0.037	1	1	90.000	11.111	1.1	0.293	0.000	D	F	2068.5	89.481	0.200	-0.008	873.529	496.359	0.023	-	0.060	0.702	-	-	-	44	5.141	83.412	143.846	PAVEMENT_GENERAL	Urban	F	1011101000011101	0000000000000000	-	car	199.303	-8.434	19.471	0.500	180.008	696.406	399.947	-0.000	Terminate	
Unknown	172.98679	01/14/0117 10:07.42	00010379	16.989	Inter683t1-0	-0.090	1	1	90.000	11.111	0.5	0.340	0.000	D	F	2161.9	89.640	0.200	-0.004	890.126	496.487	0.023	-	0.034	0.801	-	-	-	44	4.854	82.459	61.393	PAVEMENT_GENERAL	Urban	F	1011101000011101	0000000000000000	-	car	214.083	-8.942	19.471	0.500	180.008	696.406	399.947	-0.000	Terminate	
Unknown	173.98682	01/14/0117 10:07.43	00010439	17.732	Inter683t1-0	-0.174	1	1	90.000	11.111	1.9	0.328	0.000	D	F	2195.1	89.912	0.199	-0.015	907.495	496.570	0.023	-	0.123	0.756	-	-	-	44	4.553	80.735	38.703	PAVEMENT_GENERAL	Urban	F	1011101000011101	0000000000000000	-	car	229.793	-9.480	19.471	0.500	180.008	696.406	399.947	-0.000	Terminate	
Unknown	174.98683	01/14/0117 10:07.44	00010499	18.137	Inter683t1-0	-0.148	1	1	90.000	11.111	1.0	0.222	0.000	D	F	2105.6	90.278	0.193	-0.009	925.478	496.544	0.025	-	0.077	0.303	-	-	-	44	4.322	78.396	31.470	PAVEMENT_GENERAL	Urban	F	1011101000011101	0000000000000000	-	car	246.247	-10.156	19.471	0.500	180.008	696.406	399.947	-0.000	Terminate	
Unknown	175.98685	01/14/0117 10:07.46	00010559	18.630	Inter683t1-0	-0.037	1	1	90.000	11.111	-1.0	0.250	0.000	D	F	2167.5	90.388	0.194	0.005	943.857	496.433	0.024	-	-0.029	0.487	-	-	-	44	4.061	75.661	25.360	PAVEMENT_GENERAL	Urban	F	1011101000011101	0000000000000000	-	car	263.238	-10.794	19.471	0.500	180.008	696.406	399.947	-0.000	Terminate	
Unknown	176.98688	01/14/0117 10:07.47	00010619	18.546	Inter683t1-0	0.009	1	1	90.000	11.111	-2.1	0.000	0.000	D	F	1354.9	89.837	0.182	0.020	962.551	496.387	0.029	-	-0.158	-0.567	-	-	-	44	3.915	72.612	25.043	PAVEMENT_GENERAL	Urban	F	1011101000011101	0000000000000000	-	car	280.720	-11.653	19.471	0.500	180.008	696.406	399.947	-0.000	Terminate	
Unknown	177.98689	01/14/0117 10:07.48	00010679	17.971	Inter683t1-0	-0.188	1	1	90.000	11.111	-2.2	0.000	0.000	D	F	1227.1	88.759	0.184	0.040	980.808	496.584	0.029	-	-0.280	-0.573	-	-	-	44	3.895	70.000	30.114	PAVEMENT_GENERAL	Urban	F	1011101000011101	0000000000000000	-	car	298.013	-12.734	19.471	0.500	180.008	696.406	399.947	-0.000	Terminate	
