"Name"	"Project"	"Time"	ZoneName	Time	SystemTime	Frame	Velocity	LaneName	LanePos	LaneIndex	LaneCount	LaneHeading	SpeedLimit	Steer	Accel	Brake	Gear	Horn	SubjectEngineRPM	SubjectHeading	SubjectPitch	SubjectRoll	SubjectX	SubjectY	SubjectZ	Signal	LatAccel	LongAccel	Collision	CollisionAngle	CollisionVelocity	VehAhead	HeadwayTime	HeadwayDist	TTC	TerrainType	CultureType	Slip	DigitalInputs	DigitalInputs2	ActiveTrigger	EntityName	DistToEntity	TimeToEntity	EntityVelocity	EntityAccel	EntityHeading	EntityX	EntityY	EntityZ	GrabData	
"Student9Mode3"	"Tanvi_6"	"Nov 29, 2016 10:29:19 AM"	Unknown	0.98335	10/29/0116 10:29.23	00000059	0.002	Inter625t13-0	-0.088	1	2	0.000	11.111	-1.0	0.000	0.000	D	F	0.0	0.000	0.153	0.000	1503.500	523.206	0.019	-	0.000	0.000	-	-	-	-	-	-	-	PAVEMENT_GENERAL	Urban	F	1011101000011101	0000000000000000	-	car	928.855	774720.688	0.000	0.000	180.000	696.000	987.000	-0.000	Terminate	
"Student9Mode3"	"Tanvi_6"	"Nov 29, 2016 10:29:19 AM"	Unknown	1.98337	10/29/0116 10:29.24	00000119	0.000	Inter625t13-0	-0.088	1	2	0.000	11.111	-1.2	0.000	0.000	D	F	0.0	0.000	0.197	0.000	1503.500	523.208	0.026	-	-0.000	-0.001	-	-	-	-	-	-	-	PAVEMENT_GENERAL	Urban	F	1011101000011101	0000000000000000	-	car	928.855	4213812.000	0.000	0.000	180.000	696.000	987.000	-0.000	Terminate	
"Student9Mode3"	"Tanvi_6"	"Nov 29, 2016 10:29:19 AM"	Unknown	2.98339	10/29/0116 10:29.25	00000179	-0.000	Inter625t13-0	-0.088	1	2	0.000	11.111	-5.4	0.000	0.000	D	F	0.0	0.000	0.207	0.000	1503.500	523.208	0.028	-	0.000	-0.000	-	-	-	-	-	-	-	PAVEMENT_GENERAL	Urban	F	1011101000011101	0000000000000000	-	car	928.854	-116081072.000	0.000	0.000	180.000	696.000	987.000	-0.000	Terminate	
"Student9Mode3"	"Tanvi_6"	"Nov 29, 2016 10:29:19 AM"	Unknown	3.98341	10/29/0116 10:29.26	00000239	-0.000	Inter625t13-0	-0.088	1	2	0.000	11.111	-4.6	0.000	0.000	D	F	0.0	0.000	0.210	0.000	1503.500	523.208	0.028	-	-0.000	-0.000	-	-	-	-	-	-	-	PAVEMENT_GENERAL	Urban	F	1011101000011101	0000000000000000	-	car	928.854	-22306462.000	0.000	0.000	180.000	696.000	987.000	-0.000	Terminate	
"Student9Mode3"	"Tanvi_6"	"Nov 29, 2016 10:29:19 AM"	Unknown	4.98343	10/29/0116 10:29.27	00000299	-0.000	Inter625t13-0	-0.088	1	2	0.000	11.111	-4.4	0.000	0.000	D	F	44.4	0.000	0.210	0.000	1503.500	523.208	0.028	-	-0.000	0.000	-	-	-	-	-	-	-	PAVEMENT_GENERAL	Urban	F	1011101000011111	0000000000000000	-	car	928.854	-39296424.000	0.000	0.000	180.000	696.000	987.000	-0.000	Terminate	
"Student9Mode3"	"Tanvi_6"	"Nov 29, 2016 10:29:19 AM"	Unknown	5.98345	10/29/0116 10:29.28	00000359	0.001	Inter625t13-0	-0.088	1	2	0.000	11.111	-4.0	0.002	0.000	D	F	377.8	0.000	0.209	0.000	1503.500	523.208	0.028	-	-0.000	0.004	-	-	-	-	-	-	-	PAVEMENT_GENERAL	Urban	F	1011101000011111	0000000000000000	-	car	928.854	2348455.750	0.000	0.000	180.000	696.000	987.000	-0.000	Terminate	
"Student9Mode3"	"Tanvi_6"	"Nov 29, 2016 10:29:19 AM"	Unknown	6.98347	10/29/0116 10:29.29	00000419	0.020	Inter625t13-0	-0.088	1	2	0.000	11.111	-3.6	0.002	0.000	D	F	477.5	0.000	0.199	0.000	1503.500	523.216	0.025	-	-0.000	0.045	-	-	-	-	-	-	-	PAVEMENT_GENERAL	Urban	F	1011101000011101	0000000000000000	-	car	928.850	94923.805	0.000	0.000	180.000	696.000	987.000	-0.000	Terminate	
"Student9Mode3"	"Tanvi_6"	"Nov 29, 2016 10:29:19 AM"	Unknown	7.98349	10/29/0116 10:29.30	00000479	0.308	Inter625t13-0	-0.088	1	2	0.000	11.111	0.1	0.048	0.000	D	F	810.9	0.000	0.216	0.000	1503.500	523.317	0.023	-	-0.000	0.788	-	-	-	-	-	-	-	PAVEMENT_GENERAL	Urban	F	1011101000011101	0000000000000000	-	car	928.800	6050.106	0.000	0.000	180.000	696.000	987.000	-0.000	Terminate	
"Student9Mode3"	"Tanvi_6"	"Nov 29, 2016 10:29:19 AM"	Unknown	8.98351	10/29/0116 10:29.31	00000539	1.519	Inter625t13-0	-0.088	1	2	0.000	11.111	0.0	0.053	0.000	D	F	967.8	0.000	0.211	-0.000	1503.500	524.207	0.020	-	0.000	1.188	-	-	-	-	-	-	-	PAVEMENT_GENERAL	Urban	F	1011101000011101	0000000000000000	-	car	928.357	1229.297	0.000	0.000	180.000	696.000	987.000	-0.000	Terminate	
"Student9Mode3"	"Tanvi_6"	"Nov 29, 2016 10:29:19 AM"	Unknown	9.98353	10/29/0116 10:29.32	00000599	2.763	Inter625t13-0	-0.088	1	2	0.000	11.111	0.4	0.065	0.000	D	F	1153.4	0.011	0.212	-0.000	1503.500	526.371	0.021	-	0.002	1.049	-	-	-	-	-	-	-	PAVEMENT_GENERAL	Urban	F	1011101000011101	0000000000000000	-	car	927.283	677.613	0.000	0.000	180.000	696.000	987.000	-0.000	Terminate	
"Student9Mode3"	"Tanvi_6"	"Nov 29, 2016 10:29:19 AM"	Unknown	10.98355	10/29/0116 10:29.33	00000659	3.684	Inter625t13-0	-0.085	1	2	0.000	11.111	1.1	0.071	0.000	D	F	1282.3	0.057	0.210	-0.001	1503.503	529.622	0.022	-	0.007	0.799	-	-	-	-	-	-	-	PAVEMENT_GENERAL	Urban	F	1011101000011101	0000000000000000	-	car	925.680	510.736	0.000	0.000	180.000	696.000	987.000	-0.000	Terminate	
"Student9Mode3"	"Tanvi_6"	"Nov 29, 2016 10:29:19 AM"	Unknown	11.98357	10/29/0116 10:29.34	00000719	4.499	Inter625t49-0	-0.074	1	1	0.005	11.111	1.5	0.097	0.000	D	F	1485.8	0.165	0.214	-0.001	1503.514	533.713	0.023	-	0.012	0.908	-	-	-	-	-	-	-	PAVEMENT_GENERAL	Urban	F	1111101000011101	0000000000000000	-	car	923.679	421.559	0.000	0.000	180.000	696.000	987.000	-0.000	Terminate	
"Student9Mode3"	"Tanvi_6"	"Nov 29, 2016 10:29:19 AM"	Unknown	12.98359	10/29/0116 10:29.35	00000779	5.399	Inter625t49-0	-0.050	1	1	0.006	11.111	1.6	0.093	0.000	D	F	1400.1	0.319	0.208	-0.002	1503.538	538.674	0.022	-	0.016	0.812	-	-	-	-	-	-	-	PAVEMENT_GENERAL	Urban	F	1011101000011101	0000000000000000	-	car	921.282	355.132	0.000	0.000	180.000	696.000	987.000	-0.000	Terminate	
"Student9Mode3"	"Tanvi_6"	"Nov 29, 2016 10:29:19 AM"	Unknown	13.98361	10/29/0116 10:29.36	00000839	6.065	Inter625t49-0	-0.006	1	1	0.007	11.111	1.6	0.093	0.000	D	F	1355.6	0.499	0.209	-0.003	1503.583	544.420	0.023	-	0.020	0.625	-	-	-	-	-	-	-	PAVEMENT_GENERAL	Urban	F	1011101000011101	0000000000000000	-	car	918.546	320.222	0.000	0.000	180.000	696.000	987.000	-0.000	Terminate	
"Student9Mode3"	"Tanvi_6"	"Nov 29, 2016 10:29:19 AM"	Unknown	14.98363	10/29/0116 10:29.37	00000899	6.717	Inter625t49-0	0.063	1	1	0.008	11.111	1.5	0.111	0.000	D	F	1443.1	0.691	0.208	-0.003	1503.653	550.802	0.023	-	0.022	0.684	-	-	-	-	-	-	-	PAVEMENT_GENERAL	Urban	F	1011101000011101	0000000000000000	-	car	915.558	293.422	0.000	0.000	180.000	696.000	987.000	-0.000	Terminate	
"Student9Mode3"	"Tanvi_6"	"Nov 29, 2016 10:29:19 AM"	Unknown	15.98365	10/29/0116 10:29.38	00000959	7.396	Inter625t49-0	0.163	1	1	0.006	11.111	1.4	0.116	0.000	D	F	1500.8	0.887	0.208	-0.003	1503.754	557.862	0.023	-	0.025	0.631	-	-	-	-	-	-	-	PAVEMENT_GENERAL	Urban	F	1011101000011101	0000000000000000	-	car	912.313	270.828	0.000	0.000	180.000	696.000	987.000	-0.000	Terminate	
"Student9Mode3"	"Tanvi_6"	"Nov 29, 2016 10:29:19 AM"	Unknown	16.98367	10/29/0116 10:29.39	00001019	7.952	Inter625t49-0	0.283	1	1	0.005	11.111	-1.4	0.108	0.000	D	F	1517.6	0.835	0.207	0.004	1503.875	565.547	0.024	-	-0.029	0.503	-	-	-	-	-	-	-	PAVEMENT_GENERAL	Urban	F	1011101000011101	0000000000000000	-	car	908.839	254.244	0.000	0.000	180.000	696.000	987.000	-0.000	Terminate	
"Student9Mode3"	"Tanvi_6"	"Nov 29, 2016 10:29:19 AM"	Unknown	17.98369	10/29/0116 10:29.40	00001079	8.425	Inter625t49-0	0.382	1	1	0.005	11.111	-1.9	0.109	0.000	D	F	1550.5	0.598	0.206	0.006	1503.974	573.740	0.024	-	-0.043	0.443	-	-	-	-	-	-	-	PAVEMENT_GENERAL	Urban	F	1011101000011101	0000000000000000	-	car	905.168	240.871	0.000	0.000	180.000	696.000	987.000	-0.000	Terminate	
"Student9Mode3"	"Tanvi_6"	"Nov 29, 2016 10:29:19 AM"	Unknown	18.98371	10/29/0116 10:29.41	00001139	8.809	Inter625t49-0	0.446	1	1	0.005	11.111	-1.7	0.099	0.000	D	F	1561.9	0.320	0.203	0.005	1504.039	582.365	0.025	-	-0.041	0.321	-	-	-	-	-	-	-	PAVEMENT_GENERAL	Urban	F	1011101000011101	0000000000000000	-	car	901.331	231.107	0.000	0.000	180.000	696.000	987.000	-0.000	Terminate	
"Student9Mode3"	"Tanvi_6"	"Nov 29, 2016 10:29:19 AM"	Unknown	19.98373	10/29/0116 10:29.42	00001199	9.129	Inter625t15-0	0.471	1	2	0.000	11.111	-1.6	0.109	0.000	D	F	1439.2	0.056	0.206	0.005	1504.064	591.329	0.025	-	-0.041	0.389	-	-	-	-	-	-	-	PAVEMENT_GENERAL	Urban	F	1011101000011101	0000000000000000	-	car	897.376	223.987	0.000	0.000	180.000	696.000	987.000	-0.000	Terminate	
"Student9Mode3"	"Tanvi_6"	"Nov 29, 2016 10:29:19 AM"	Unknown	20.98375	10/29/0116 10:29.43	00001259	9.617	Inter614t1-0	0.455	1	2	0.000	11.111	-1.6	0.138	0.000	D	F	1499.5	359.787	0.205	0.006	1504.048	600.690	0.024	-	-0.046	0.492	-	-	-	-	-	-	-	PAVEMENT_GENERAL	Urban	F	1011101000011101	0000000000000000	-	car	893.284	213.701	0.000	0.000	180.000	696.000	987.000	-0.000	Terminate	
"Student9Mode3"	"Tanvi_6"	"Nov 29, 2016 10:29:19 AM"	Unknown	21.98377	10/29/0116 10:29.44	00001319	10.102	Inter614t1-0	0.407	1	2	0.000	11.111	1.1	0.138	0.000	D	F	1509.5	359.750	0.204	-0.004	1504.000	610.551	0.024	-	0.033	0.451	-	-	-	-	-	-	-	PAVEMENT_GENERAL	Urban	F	1011101000011101	0000000000000000	-	car	889.031	206.459	0.000	0.000	180.000	696.000	987.000	-0.000	Terminate	
"Student9Mode3"	"Tanvi_6"	"Nov 29, 2016 10:29:19 AM"	Unknown	22.98379	10/29/0116 10:29.45	00001379	10.521	Inter614t1-0	0.378	1	2	0.000	11.111	0.4	0.136	0.000	D	F	1508.7	359.883	0.203	-0.001	1503.971	620.868	0.025	-	0.012	0.388	-	-	-	-	-	-	-	PAVEMENT_GENERAL	Urban	F	1011101000011101	0000000000000000	-	car	884.697	202.818	0.000	0.000	180.000	696.000	987.000	-0.000	Terminate	
"Student9Mode3"	"Tanvi_6"	"Nov 29, 2016 10:29:19 AM"	Unknown	23.98381	10/29/0116 10:29.46	00001439	10.915	Inter614t1-0	0.363	1	2	0.000	11.111	0.7	0.131	0.000	D	F	1526.0	0.000	0.202	-0.004	1503.957	631.588	0.025	-	0.024	0.366	-	-	-	-	-	-	-	PAVEMENT_GENERAL	Urban	F	1011101000011101	0000000000000000	-	car	880.313	200.067	0.000	0.000	180.000	696.000	987.000	-0.000	Terminate	
"Student9Mode3"	"Tanvi_6"	"Nov 29, 2016 10:29:19 AM"	Unknown	24.98383	10/29/0116 10:29.47	00001499	11.256	Inter614t1-0	0.370	1	2	0.000	11.111	-0.0	0.125	0.000	D	F	1520.3	0.079	0.201	0.000	1503.963	642.679	0.025	-	0.004	0.301	-	-	-	-	-	-	-	PAVEMENT_GENERAL	Urban	F	1011101000011101	0000000000000000	-	car	875.913	199.134	0.000	0.000	180.000	696.000	987.000	-0.000	Terminate	
"Student9Mode3"	"Tanvi_6"	"Nov 29, 2016 10:29:19 AM"	Unknown	25.98385	10/29/0116 10:29.48	00001559	11.527	Inter614t1-0	0.388	1	2	0.000	11.111	0.6	0.122	0.000	D	F	1526.0	0.122	0.201	-0.003	1503.981	654.072	0.025	-	0.021	0.264	-	-	-	-	-	-	-	PAVEMENT_GENERAL	Urban	F	1011101000011101	0000000000000000	-	car	871.525	199.482	0.000	0.000	180.000	696.000	987.000	-0.000	Terminate	
"Student9Mode3"	"Tanvi_6"	"Nov 29, 2016 10:29:19 AM"	Unknown	26.98387	10/29/0116 10:29.49	00001619	11.795	Inter614t1-0	0.424	1	2	0.000	11.111	-1.5	0.129	0.000	D	F	1548.3	0.200	0.201	0.006	1504.017	665.731	0.025	-	-0.036	0.271	-	-	-	-	-	-	-	PAVEMENT_GENERAL	Urban	F	1011101000011101	0000000000000000	-	car	867.183	200.767	0.000	0.000	180.000	696.000	987.000	-0.000	Terminate	
"Student9Mode3"	"Tanvi_6"	"Nov 29, 2016 10:29:19 AM"	Unknown	27.98389	10/29/0116 10:29.50	00001679	12.052	Inter614t1-0	0.451	1	2	0.000	11.111	3.2	0.131	0.000	D	F	1563.4	0.213	0.201	-0.016	1504.045	677.656	0.025	-	0.108	0.258	-	-	-	-	-	-	-	PAVEMENT_GENERAL	Urban	F	1011101000011101	0000000000000000	-	car	862.874	202.215	0.000	0.000	180.000	696.000	987.000	-0.000	Terminate	
"Student9Mode3"	"Tanvi_6"	"Nov 29, 2016 10:29:19 AM"	Unknown	28.98391	10/29/0116 10:29.51	00001739	12.314	Inter614t1-0	0.556	1	2	0.000	11.111	1.3	0.131	0.000	D	F	1581.7	0.722	0.200	-0.009	1504.150	689.838	0.025	-	0.067	0.261	-	-	-	-	-	-	-	PAVEMENT_GENERAL	Urban	F	1011101000011101	0000000000000000	-	car	858.693	209.247	0.000	0.000	180.000	696.000	987.000	-0.000	Terminate	
"Student9Mode3"	"Tanvi_6"	"Nov 29, 2016 10:29:19 AM"	Unknown	29.98393	10/29/0116 10:29.52	00001799	12.560	Inter614t1-0	0.705	1	2	0.000	11.111	-2.6	0.129	0.000	D	F	1586.5	0.503	0.200	0.014	1504.298	702.276	0.025	-	-0.106	0.237	-	-	-	-	-	-	-	PAVEMENT_GENERAL	Urban	F	1011101000011101	0000000000000000	-	car	854.619	210.032	0.000	0.000	180.000	696.000	987.000	-0.000	Terminate	
"Student9Mode3"	"Tanvi_6"	"Nov 29, 2016 10:29:19 AM"	Unknown	30.98395	10/29/0116 10:29.53	00001859	12.782	Inter614t1-0	0.778	1	2	0.000	11.111	-1.2	0.129	0.000	D	F	1593.4	0.216	0.200	0.006	1504.371	714.948	0.025	-	-0.049	0.216	-	-	-	-	-	-	-	PAVEMENT_GENERAL	Urban	F	1011101000011101	0000000000000000	-	car	850.563	210.987	0.000	0.000	180.000	696.000	987.000	-0.000	Terminate	
"Student9Mode3"	"Tanvi_6"	"Nov 29, 2016 10:29:19 AM"	Unknown	31.98397	10/29/0116 10:29.54	00001919	12.986	Inter614t1-0	0.802	1	2	0.000	11.111	-0.6	0.125	0.000	D	F	1598.3	0.028	0.199	0.004	1504.396	727.834	0.026	-	-0.028	0.195	-	-	-	-	-	-	-	PAVEMENT_GENERAL	Urban	F	1011101000011101	0000000000000000	-	car	846.564	213.859	0.000	0.000	180.000	696.000	987.000	-0.000	Terminate	
"Student9Mode3"	"Tanvi_6"	"Nov 29, 2016 10:29:19 AM"	Unknown	32.98399	10/29/0116 10:29.55	00001979	13.174	Inter614t1-0	0.793	1	2	0.000	11.111	-1.2	0.127	0.000	D	F	1606.0	359.877	0.199	0.006	1504.386	740.916	0.026	-	-0.046	0.183	-	-	-	-	-	-	-	PAVEMENT_GENERAL	Urban	F	1111101000011101	0000000000000000	-	car	842.653	218.104	0.000	0.000	180.000	696.000	987.000	-0.000	Terminate	
"Student9Mode3"	"Tanvi_6"	"Nov 29, 2016 10:29:19 AM"	Unknown	33.98401	10/29/0116 10:29.56	00002039	13.344	Inter614t1-0	0.742	1	2	0.000	11.111	0.6	0.120	0.000	D	F	1598.9	359.693	0.198	-0.001	1504.336	754.178	0.026	-	-0.002	0.147	-	-	-	-	-	-	-	PAVEMENT_GENERAL	Urban	F	1011101000011101	0000000000000000	-	car	838.838	222.973	0.000	0.000	180.000	696.000	987.000	-0.000	Terminate	
"Student9Mode3"	"Tanvi_6"	"Nov 29, 2016 10:29:19 AM"	Unknown	34.98403	10/29/0116 10:29.57	00002099	13.485	Inter614t1-0	0.672	1	2	0.000	11.111	-0.3	0.122	0.000	D	F	1603.8	359.678	0.198	0.002	1504.265	767.594	0.026	-	-0.013	0.135	-	-	-	-	-	-	-	PAVEMENT_GENERAL	Urban	F	1011101000011101	0000000000000000	-	car	835.156	231.609	0.000	0.000	180.000	696.000	987.000	-0.000	Terminate	
"Student9Mode3"	"Tanvi_6"	"Nov 29, 2016 10:29:19 AM"	Unknown	35.98405	10/29/0116 10:29.58	00002159	13.614	Inter614t1-0	0.600	1	2	0.000	11.111	1.2	0.118	0.000	D	F	1609.6	359.783	0.198	-0.007	1504.193	781.144	0.026	-	0.056	0.126	-	-	-	-	-	-	-	PAVEMENT_GENERAL	Urban	F	1011101000011101	0000000000000000	-	car	831.639	243.854	0.000	0.000	180.000	696.000	987.000	-0.000	Terminate	
"Student9Mode3"	"Tanvi_6"	"Nov 29, 2016 10:29:19 AM"	Unknown	36.98407	10/29/0116 10:29.59	00002219	13.739	Inter614t1-0	0.579	1	2	0.000	11.111	1.2	0.120	0.000	D	F	1617.1	0.047	0.197	-0.008	1504.172	794.821	0.026	-	0.059	0.123	-	-	-	-	-	-	-	PAVEMENT_GENERAL	Urban	F	1111101000011101	0000000000000000	-	car	828.348	261.501	0.000	0.000	180.000	696.000	987.000	-0.000	Terminate	
"Student9Mode3"	"Tanvi_6"	"Nov 29, 2016 10:29:19 AM"	Unknown	37.98409	10/29/0116 10:30.00	00002279	13.859	Inter612t1-0	0.616	1	2	0.000	11.111	-1.9	0.120	0.000	D	F	1618.6	0.245	0.197	0.004	1504.209	808.621	0.026	-	-0.031	0.112	-	-	-	-	-	-	-	PAVEMENT_GENERAL	Urban	F	1011101000011101	0000000000000000	-	car	825.300	281.768	0.000	0.000	180.000	696.000	987.000	-0.000	Terminate	
"Student9Mode3"	"Tanvi_6"	"Nov 29, 2016 10:29:19 AM"	Unknown	38.98411	10/29/0116 10:30.01	00002339	13.966	Inter612t1-0	0.617	1	2	0.000	11.111	-1.4	0.120	0.000	D	F	1626.9	359.751	0.197	0.010	1504.210	822.534	0.026	-	-0.087	0.105	-	-	-	-	-	-	-	PAVEMENT_GENERAL	Urban	F	1011101000011101	0000000000000000	-	car	822.415	289.146	0.000	0.000	180.000	696.000	987.000	-0.000	Terminate	
"Student9Mode3"	"Tanvi_6"	"Nov 29, 2016 10:29:19 AM"	Unknown	39.98413	10/29/0116 10:30.02	00002399	14.068	Inter612t1-0	0.524	1	2	0.000	11.111	-0.8	0.118	0.000	D	F	1634.5	359.487	0.197	0.006	1504.117	836.551	0.026	-	-0.050	0.101	-	-	-	-	-	-	-	PAVEMENT_GENERAL	Urban	F	1011101000011101	0000000000000000	-	car	819.643	303.750	0.000	0.000	180.000	696.000	987.000	-0.000	Terminate	
"Student9Mode3"	"Tanvi_6"	"Nov 29, 2016 10:29:19 AM"	Unknown	40.98415	10/29/0116 10:30.03	00002459	14.187	Inter612t1-0	0.447	1	2	0.000	11.111	3.5	0.129	0.000	D	F	1663.3	0.105	0.197	-0.023	1504.040	850.673	0.026	-	0.195	0.151	-	-	-	-	-	-	-	PAVEMENT_GENERAL	Urban	F	1011101000011101	0000000000000000	-	car	817.100	350.021	0.000	0.000	180.000	696.000	987.000	-0.000	Terminate	
"Student9Mode3"	"Tanvi_6"	"Nov 29, 2016 10:29:19 AM"	Unknown	41.98417	10/29/0116 10:30.04	00002519	14.327	Inter612t1-0	0.496	1	2	0.000	11.111	0.8	0.129	0.000	D	F	1672.0	0.182	0.197	-0.002	1504.090	864.931	0.026	-	0.009	0.140	-	-	-	-	-	-	-	PAVEMENT_GENERAL	Urban	F	1011101000011101	0000000000000000	-	car	814.898	388.961	0.000	0.000	180.000	696.000	987.000	-0.000	Terminate	
"Student9Mode3"	"Tanvi_6"	"Nov 29, 2016 10:29:19 AM"	Unknown	42.98419	10/29/0116 10:30.05	00002579	14.480	Inter612t1-0	0.571	1	2	0.000	11.111	1.6	0.141	0.000	D	F	1706.3	0.431	0.197	-0.009	1504.164	879.332	0.026	-	0.072	0.174	-	-	-	-	-	-	-	PAVEMENT_GENERAL	Urban	F	1011101000011101	0000000000000000	-	car	812.945	450.613	0.000	0.000	180.000	696.000	987.000	-0.000	Terminate	
"Student9Mode3"	"Tanvi_6"	"Nov 29, 2016 10:29:19 AM"	Unknown	43.98421	10/29/0116 10:30.06	00002639	14.679	Inter612t1-0	0.718	1	2	0.000	11.111	-0.1	0.143	0.000	D	F	1725.8	0.715	0.197	-0.002	1504.311	893.909	0.026	-	0.025	0.200	-	-	-	-	-	-	-	PAVEMENT_GENERAL	Urban	F	1011101000011101	0000000000000000	-	car	811.295	541.799	0.000	0.000	180.000	696.000	987.000	-0.000	Terminate	
"Student9Mode3"	"Tanvi_6"	"Nov 29, 2016 10:29:19 AM"	Unknown	44.98423	10/29/0116 10:30.07	00002699	14.885	Inter612t1-0	0.863	1	2	0.000	11.111	-2.9	0.148	0.000	D	F	1747.7	0.292	0.197	0.021	1504.456	908.688	0.025	-	-0.152	0.213	-	-	-	-	-	-	-	PAVEMENT_GENERAL	Urban	F	1011101000011101	0000000000000000	-	car	809.881	595.690	0.000	0.000	180.000	696.000	987.000	-0.000	Terminate	
"Student9Mode3"	"Tanvi_6"	"Nov 29, 2016 10:29:19 AM"	Unknown	45.98425	10/29/0116 10:30.08	00002759	15.116	Inter612t1-0	0.906	1	2	0.000	11.111	-0.3	0.153	0.000	D	F	1773.3	0.098	0.196	0.002	1504.499	923.682	0.025	-	-0.015	0.237	-	-	-	-	-	-	-	PAVEMENT_GENERAL	Urban	F	1011101000011101	0000000000000000	-	car	808.615	700.473	0.000	0.000	180.000	696.000	987.000	-0.000	Terminate	
"Student9Mode3"	"Tanvi_6"	"Nov 29, 2016 10:29:19 AM"	Unknown	46.98427	10/29/0116 10:30.09	00002819	15.311	Inter612t1-0	0.925	1	2	0.000	11.111	-0.0	0.146	0.000	D	F	1772.5	0.043	0.196	0.001	1504.518	938.901	0.026	-	-0.008	0.172	-	-	-	-	-	-	-	PAVEMENT_GENERAL	Urban	F	1011101000011101	0000000000000000	-	car	807.588	899.584	0.000	0.000	180.000	696.000	987.000	-0.000	Terminate	
"Student9Mode3"	"Tanvi_6"	"Nov 29, 2016 10:29:19 AM"	Unknown	47.98429	10/29/0116 10:30.10	00002879	15.461	Inter612t1-0	0.934	1	2	0.000	11.111	-0.1	0.138	0.000	D	F	1773.0	0.019	0.196	0.001	1504.528	954.290	0.026	-	-0.007	0.138	-	-	-	-	-	-	-	PAVEMENT_GENERAL	Urban	F	1011101000011101	0000000000000000	-	car	806.829	1301.672	0.000	0.000	180.000	696.000	987.000	-0.000	Terminate	
"Student9Mode3"	"Tanvi_6"	"Nov 29, 2016 10:29:19 AM"	Unknown	48.98431	10/29/0116 10:30.11	00002939	15.598	Inter612t1-0	0.938	1	2	0.000	11.111	-0.1	0.146	0.000	D	F	1790.2	0.004	0.196	0.001	1504.531	969.820	0.026	-	-0.004	0.142	-	-	-	-	-	-	-	PAVEMENT_GENERAL	Urban	F	1011101000011101	0000000000000000	-	car	806.354	2441.483	0.000	0.000	180.000	696.000	987.000	-0.000	Terminate	
"Student9Mode3"	"Tanvi_6"	"Nov 29, 2016 10:29:19 AM"	Unknown	49.98433	10/29/0116 10:30.12	00002999	15.721	Inter612t1-0	0.937	1	2	0.000	11.111	-0.1	0.132	0.000	D	F	1774.9	0.000	0.195	0.001	1504.530	985.485	0.026	-	-0.004	0.099	-	-	-	-	-	-	-	PAVEMENT_GENERAL	Urban	F	1011101000011101	0000000000000000	-	car	806.172	24623.059	0.000	0.000	180.000	696.000	987.000	-0.000	Terminate	
"Student9Mode3"	"Tanvi_6"	"Nov 29, 2016 10:29:19 AM"	Unknown	50.98435	10/29/0116 10:30.13	00003059	15.851	Inter613t1-0	0.932	1	2	0.000	11.111	-0.1	0.138	0.000	D	F	1797.4	0.000	0.195	0.001	1504.525	1001.268	0.026	-	-0.004	0.126	-	-	-	-	-	-	-	PAVEMENT_GENERAL	Urban	F	1011101000011101	0000000000000000	-	car	806.292	-2957.899	0.000	0.000	180.000	696.000	987.000	-0.000	Terminate	
"Student9Mode3"	"Tanvi_6"	"Nov 29, 2016 10:29:19 AM"	Unknown	51.98437	10/29/0116 10:30.14	00003119	15.976	Inter613t1-0	0.919	1	2	0.000	11.111	-0.5	0.141	0.000	D	F	1808.3	359.912	0.195	0.003	1504.513	1017.182	0.026	-	-0.026	0.121	-	-	-	-	-	-	-	PAVEMENT_GENERAL	Urban	F	1111101000011101	0000000000000000	-	car	806.716	-1411.781	0.000	0.000	180.000	696.000	987.000	-0.000	Terminate	
"Student9Mode3"	"Tanvi_6"	"Nov 29, 2016 10:29:19 AM"	Unknown	52.98439	10/29/0116 10:30.15	00003179	16.097	Inter613t1-0	0.886	1	2	0.000	11.111	-0.2	0.139	0.000	D	F	1816.2	359.849	0.195	0.002	1504.479	1033.219	0.026	-	-0.013	0.118	-	-	-	-	-	-	-	PAVEMENT_GENERAL	Urban	F	1011101000011101	0000000000000000	-	car	807.440	-921.215	0.000	0.000	180.000	696.000	987.000	-0.000	Terminate	
"Student9Mode3"	"Tanvi_6"	"Nov 29, 2016 10:29:19 AM"	Unknown	53.98441	10/29/0116 10:30.16	00003239	16.214	Inter613t1-0	0.848	1	2	0.000	11.111	1.1	0.141	0.000	D	F	1827.7	359.939	0.194	-0.007	1504.441	1049.375	0.026	-	0.061	0.118	-	-	-	-	-	-	-	PAVEMENT_GENERAL	Urban	F	1011101000011101	0000000000000000	-	car	808.484	-657.212	0.000	0.000	180.000	696.000	987.000	-0.000	Terminate	
"Student9Mode3"	"Tanvi_6"	"Nov 29, 2016 10:29:19 AM"	Unknown	54.98443	10/29/0116 10:30.17	00003299	16.331	Inter613t1-0	0.857	1	2	0.000	11.111	0.8	0.141	0.000	D	F	1835.4	0.130	0.194	-0.007	1504.450	1065.648	0.026	-	0.050	0.115	-	-	-	-	-	-	-	PAVEMENT_GENERAL	Urban	F	1011101000011101	0000000000000000	-	car	809.907	-500.488	0.000	0.000	180.000	696.000	987.000	-0.000	Terminate	
"Student9Mode3"	"Tanvi_6"	"Nov 29, 2016 10:29:19 AM"	Unknown	55.98445	10/29/0116 10:30.18	00003359	16.432	Inter613t1-0	0.902	1	2	0.000	11.111	-0.2	0.139	0.000	D	F	1835.1	0.168	0.194	0.001	1504.495	1082.031	0.026	-	-0.004	0.096	-	-	-	-	-	-	-	PAVEMENT_GENERAL	Urban	F	1011101000011101	0000000000000000	-	car	811.701	-412.829	0.000	0.000	180.000	696.000	987.000	-0.000	Terminate	
"Student9Mode3"	"Tanvi_6"	"Nov 29, 2016 10:29:19 AM"	Unknown	56.98447	10/29/0116 10:30.19	00003419	16.525	Inter613t1-0	0.945	1	2	0.000	11.111	-0.4	0.138	0.000	D	F	1839.4	0.128	0.194	0.002	1504.538	1098.510	0.026	-	-0.017	0.090	-	-	-	-	-	-	-	PAVEMENT_GENERAL	Urban	F	1011101000011101	0000000000000000	-	car	813.832	-354.741	0.000	0.000	180.000	696.000	987.000	-0.000	Terminate	
"Student9Mode3"	"Tanvi_6"	"Nov 29, 2016 10:29:19 AM"	Unknown	57.98449	10/29/0116 10:30.20	00003479	16.609	Inter613t1-0	0.971	1	2	0.000	11.111	-0.6	0.136	0.000	D	F	1843.7	0.031	0.193	0.005	1504.564	1115.077	0.026	-	-0.035	0.081	-	-	-	-	-	-	-	PAVEMENT_GENERAL	Urban	F	1011101000011101	0000000000000000	-	car	816.285	-313.053	0.000	0.000	180.000	696.000	987.000	-0.000	Terminate	
"Student9Mode3"	"Tanvi_6"	"Nov 29, 2016 10:29:19 AM"	Unknown	58.98451	10/29/0116 10:30.21	00003539	16.686	Inter613t1-0	0.965	1	2	0.000	11.111	-0.6	0.132	0.000	D	F	1840.6	359.915	0.193	0.005	1504.558	1131.726	0.026	-	-0.035	0.065	-	-	-	-	-	-	-	PAVEMENT_GENERAL	Urban	F	1111101000011101	0000000000000000	-	car	819.049	-280.935	0.000	0.000	180.000	696.000	987.000	-0.000	Terminate	
"Student9Mode3"	"Tanvi_6"	"Nov 29, 2016 10:29:19 AM"	Unknown	59.98453	10/29/0116 10:30.22	00003599	16.751	Inter613t1-0	0.923	1	2	0.000	11.111	-0.7	0.131	0.000	D	F	1847.5	359.782	0.193	0.005	1504.516	1148.444	0.026	-	-0.041	0.065	-	-	-	-	-	-	-	PAVEMENT_GENERAL	Urban	F	1011101000011101	0000000000000000	-	car	822.118	-255.505	0.000	0.000	180.000	696.000	987.000	-0.000	Terminate	
"Student9Mode3"	"Tanvi_6"	"Nov 29, 2016 10:29:19 AM"	Unknown	60.98455	10/29/0116 10:30.23	00003659	16.813	Inter613t1-0	0.843	1	2	0.000	11.111	0.5	0.134	0.000	D	F	1854.3	359.691	0.193	-0.003	1504.437	1165.226	0.026	-	0.012	0.066	-	-	-	-	-	-	-	PAVEMENT_GENERAL	Urban	F	1011101000011101	0000000000000000	-	car	825.490	-233.781	0.000	0.000	180.000	696.000	987.000	-0.000	Terminate	
"Student9Mode3"	"Tanvi_6"	"Nov 29, 2016 10:29:19 AM"	Unknown	61.98457	10/29/0116 10:30.24	00003719	16.882	Inter613t1-0	0.763	1	2	0.000	11.111	0.6	0.138	0.000	D	F	1868.0	359.792	0.193	-0.004	1504.356	1182.072	0.026	-	0.041	0.086	-	-	-	-	-	-	-	PAVEMENT_GENERAL	Urban	F	1011101000011101	0000000000000000	-	car	829.201	-212.580	0.000	0.000	180.000	696.000	987.000	-0.000	Terminate	
"Student9Mode3"	"Tanvi_6"	"Nov 29, 2016 10:29:19 AM"	Unknown	62.98459	10/29/0116 10:30.25	00003779	16.960	Inter613t1-0	0.714	1	2	0.000	11.111	0.6	0.138	0.000	D	F	1872.1	359.891	0.193	-0.004	1504.307	1198.994	0.026	-	0.032	0.079	-	-	-	-	-	-	-	PAVEMENT_GENERAL	Urban	F	1011101000011101	0000000000000000	-	car	833.285	-195.086	0.000	0.000	180.000	696.000	987.000	-0.000	Terminate	
"Student9Mode3"	"Tanvi_6"	"Nov 29, 2016 10:29:19 AM"	Unknown	63.98461	10/29/0116 10:30.26	00003839	16.895	Inter615t9-0	0.698	1	2	0.000	11.111	0.4	0.000	0.000	D	F	1658.6	0.032	0.175	-0.005	1504.291	1215.966	0.028	-	0.041	-0.645	-	-	-	22	3.336	56.359	3.336	PAVEMENT_GENERAL	Urban	F	1011101000011101	0000000000000000	-	car	837.736	-181.574	0.000	0.000	180.000	696.000	987.000	-0.000	Terminate	
"Student9Mode3"	"Tanvi_6"	"Nov 29, 2016 10:29:19 AM"	Unknown	64.98463	10/29/0116 10:30.27	00003899	16.279	Inter615t31-0	1.311	1	1	354.448	11.111	-36.1	0.000	0.000	D	F	1597.6	356.629	0.179	0.302	1504.054	1232.552	0.030	-	-2.157	-0.626	-	-	-	22	2.586	42.098	2.586	PAVEMENT_GENERAL	Urban	F	1111101000011101	0000000000000000	-	car	842.180	-221.108	0.000	0.000	180.000	696.000	987.000	-0.000	Terminate	
"Student9Mode3"	"Tanvi_6"	"Nov 29, 2016 10:29:19 AM"	Unknown	65.98465	10/29/0116 10:30.28	00003959	13.971	Inter615t31-0	1.206	1	1	356.465	11.111	10.5	0.000	0.284	D	F	1319.8	352.806	0.121	-0.034	1502.459	1247.941	0.036	-	0.172	-3.932	-	-	-	22	1.914	26.745	1.914	PAVEMENT_GENERAL	Urban	F	1011101000011101	0000000000000000	-	car	845.265	-324.785	0.000	0.000	180.000	696.000	987.000	-0.000	Terminate	
"Student9Mode3"	"Tanvi_6"	"Nov 29, 2016 10:29:19 AM"	Unknown	66.98467	10/29/0116 10:30.29	00004019	8.388	Inter615t31-0	0.803	1	1	356.903	11.111	40.5	0.000	0.546	D	F	762.5	356.644	-0.122	-0.167	1501.311	1259.328	0.041	-	0.977	-6.632	-	-	-	22	1.819	15.254	1.819	PAVEMENT_GENERAL	Urban	F	1011101000011101	0000000000000000	-	car	847.751	-382.343	0.000	0.000	180.000	696.000	987.000	-0.000	Terminate	
"Student9Mode3"	"Tanvi_6"	"Nov 29, 2016 10:29:19 AM"	Unknown	67.98470	10/29/0116 10:30.30	00004079	2.006	Inter615t31-0	0.955	1	1	356.903	11.111	-13.1	0.000	0.516	D	F	477.5	359.123	-0.057	0.008	1501.183	1264.495	0.041	-	-0.042	-6.124	-	-	-	22	5.029	10.088	5.029	PAVEMENT_GENERAL	Urban	F	1011101000011101	0000000000000000	-	car	849.300	-1360.021	0.000	0.000	180.000	696.000	987.000	-0.000	Terminate	
"Student9Mode3"	"Tanvi_6"	"Nov 29, 2016 10:29:19 AM"	Unknown	68.98471	10/29/0116 10:30.31	00004139	-0.001	Inter615t31-0	0.966	1	1	356.903	11.111	-53.4	0.000	0.463	D	F	477.5	358.996	0.229	0.005	1501.174	1264.867	0.035	-	-0.003	0.003	-	-	-	22	-	9.716	-	PAVEMENT_GENERAL	Urban	F	1011101000011101	0000000000000000	-	car	849.412	2418434.500	0.000	0.000	180.000	696.000	987.000	-0.000	Terminate	
"Student9Mode3"	"Tanvi_6"	"Nov 29, 2016 10:29:19 AM"	Unknown	69.98473	10/29/0116 10:30.32	00004199	-0.001	Inter615t31-0	0.966	1	1	356.903	11.111	-65.2	0.000	0.430	D	F	477.5	358.994	0.218	0.002	1501.174	1264.866	0.030	-	0.000	0.002	-	-	-	22	-	9.717	-	PAVEMENT_GENERAL	Urban	F	1011101000011101	0000000000000000	-	car	849.412	3489721.250	0.000	0.000	180.000	696.000	987.000	-0.000	Terminate	
"Student9Mode3"	"Tanvi_6"	"Nov 29, 2016 10:29:19 AM"	Unknown	70.98476	10/29/0116 10:30.33	00004259	-0.000	Inter615t31-0	0.966	1	1	356.903	11.111	-77.7	0.000	0.391	D	F	477.5	358.993	0.213	0.001	1501.174	1264.865	0.029	-	-0.000	0.000	-	-	-	22	-	9.718	-	PAVEMENT_GENERAL	Urban	F	1011101000011101	0000000000000000	-	car	849.412	9264557.000	0.000	0.000	180.000	696.000	987.000	-0.000	Terminate	
"Student9Mode3"	"Tanvi_6"	"Nov 29, 2016 10:29:19 AM"	Unknown	71.98477	10/29/0116 10:30.34	00004319	-0.000	Inter615t31-0	0.966	1	1	356.903	11.111	-78.2	0.000	0.334	D	F	477.5	358.993	0.210	0.000	1501.174	1264.865	0.028	-	-0.000	0.000	-	-	-	22	-	9.718	-	PAVEMENT_GENERAL	Urban	F	1011101000011101	0000000000000000	-	car	849.412	25254948.000	0.000	0.000	180.000	696.000	987.000	-0.000	Terminate	
"Student9Mode3"	"Tanvi_6"	"Nov 29, 2016 10:29:19 AM"	Unknown	72.98479	10/29/0116 10:30.35	00004379	-0.000	Inter615t31-0	0.966	1	1	356.903	11.111	-79.1	0.000	0.331	D	F	477.5	358.993	0.209	0.000	1501.174	1264.865	0.028	-	-0.000	0.000	-	-	-	22	-	9.718	-	PAVEMENT_GENERAL	Urban	F	1011101000011101	0000000000000000	-	car	849.412	69009856.000	0.000	0.000	180.000	696.000	987.000	-0.000	Terminate	
"Student9Mode3"	"Tanvi_6"	"Nov 29, 2016 10:29:19 AM"	Unknown	73.98481	10/29/0116 10:30.36	00004439	-0.000	Inter615t31-0	0.966	1	1	356.903	11.111	-79.0	0.000	0.179	D	F	477.5	358.993	0.209	0.000	1501.174	1264.865	0.028	-	-0.000	0.000	-	-	-	22	-	9.718	-	PAVEMENT_GENERAL	Urban	F	1011101000011101	0000000000000000	-	car	849.412	189005760.000	0.000	0.000	180.000	696.000	987.000	-0.000	Terminate	
"Student9Mode3"	"Tanvi_6"	"Nov 29, 2016 10:29:19 AM"	Unknown	74.98483	10/29/0116 10:30.37	00004499	0.001	Inter615t31-0	0.966	1	1	356.903	11.111	-78.9	0.000	0.000	D	F	477.5	358.992	0.209	0.000	1501.174	1264.865	0.028	-	-0.000	0.004	-	-	-	22	-	9.718	-	PAVEMENT_GENERAL	Urban	F	1011101000011101	0000000000000000	-	car	849.412	-3627455.750	0.000	0.000	180.000	696.000	987.000	-0.000	Terminate	
"Student9Mode3"	"Tanvi_6"	"Nov 29, 2016 10:29:19 AM"	Unknown	75.98486	10/29/0116 10:30.38	00004559	0.011	Inter615t31-0	0.965	1	1	356.903	11.111	-79.0	0.000	0.000	D	F	477.5	358.971	0.197	0.002	1501.173	1264.871	0.024	-	-0.000	0.008	-	-	-	22	859.020	9.711	859.020	PAVEMENT_GENERAL	Urban	F	1011101000011101	0000000000000000	-	car	849.413	-242996.594	0.000	0.000	180.000	696.000	987.000	-0.000	Terminate	
"Student9Mode3"	"Tanvi_6"	"Nov 29, 2016 10:29:19 AM"	Unknown	76.98487	10/29/0116 10:30.39	00004619	0.103	Inter615t31-0	0.964	1	1	356.903	11.111	-79.4	0.000	0.000	D	F	477.5	358.880	0.205	0.002	1501.170	1264.912	0.025	-	-0.009	0.187	-	-	-	22	93.722	9.670	93.722	PAVEMENT_GENERAL	Urban	F	1011101000011101	0000000000000000	-	car	849.424	-26751.771	0.000	0.000	180.000	696.000	987.000	-0.000	Terminate	
"Student9Mode3"	"Tanvi_6"	"Nov 29, 2016 10:29:19 AM"	Unknown	77.98489	10/29/0116 10:30.40	00004679	0.309	Inter615t31-0	0.961	1	1	356.903	11.111	-77.0	0.000	0.000	D	F	477.5	358.527	0.205	0.002	1501.156	1265.120	0.025	-	-0.011	0.180	-	-	-	22	30.611	9.462	30.611	PAVEMENT_GENERAL	Urban	F	1011101000011101	0000000000000000	-	car	849.478	-9097.436	0.000	0.000	180.000	696.000	987.000	-0.000	Terminate	
"Student9Mode3"	"Tanvi_6"	"Nov 29, 2016 10:29:19 AM"	Unknown	78.98492	10/29/0116 10:30.41	00004739	0.438	Inter615t31-0	0.953	1	1	356.903	11.111	-76.9	0.000	0.000	D	F	477.5	357.901	0.204	0.001	1501.127	1265.500	0.026	L	-0.009	0.086	-	-	-	22	15.175	6.639	15.175	PAVEMENT_GENERAL	Urban	F	1011101000111101	0000000000000000	-	car	849.575	-6648.629	0.000	0.000	180.000	696.000	987.000	-0.000	Terminate	
"Student9Mode3"	"Tanvi_6"	"Nov 29, 2016 10:29:19 AM"	Unknown	79.98493	10/29/0116 10:30.42	00004799	0.494	Inter615t31-0	0.938	1	1	356.903	11.111	-62.1	0.000	0.000	D	F	477.5	357.175	0.204	-0.000	1501.087	1265.969	0.026	L	0.001	0.037	-	-	-	22	12.467	6.162	12.467	PAVEMENT_GENERAL	Urban	F	1011101000111101	0000000000000000	-	car	849.690	-6129.485	0.000	0.000	180.000	696.000	987.000	-0.000	Terminate	
"Student9Mode3"	"Tanvi_6"	"Nov 29, 2016 10:29:19 AM"	Unknown	80.98495	10/29/0116 10:30.43	00004859	0.523	Inter615t31-0	0.925	1	1	356.903	11.111	-21.2	0.000	0.000	D	F	477.5	356.719	0.204	-0.001	1501.047	1266.477	0.026	L	0.004	0.025	-	-	-	22	10.793	5.649	10.793	PAVEMENT_GENERAL	Urban	F	1011101000111101	0000000000000000	-	car	849.819	-5939.696	0.000	0.000	180.000	696.000	987.000	-0.000	Terminate	
"Student9Mode3"	"Tanvi_6"	"Nov 29, 2016 10:29:19 AM"	Unknown	81.98497	10/29/0116 10:30.44	00004919	0.546	Inter615t31-0	0.917	1	1	356.903	11.111	-5.8	0.000	0.000	D	F	477.5	356.503	0.204	-0.003	1501.009	1267.011	0.026	-	0.014	0.020	-	-	-	22	9.371	5.113	9.371	PAVEMENT_GENERAL	Urban	F	1011101000011101	0000000000000000	-	car	849.958	-5763.060	0.000	0.000	180.000	696.000	987.000	-0.000	Terminate	
"Student9Mode3"	"Tanvi_6"	"Nov 29, 2016 10:29:19 AM"	Unknown	82.98499	10/29/0116 10:30.45	00004979	0.563	Inter615t31-0	0.911	1	1	356.903	11.111	-4.1	0.000	0.000	D	F	477.5	356.451	0.204	-0.001	1500.973	1267.565	0.026	-	0.002	0.016	-	-	-	22	12.343	6.952	12.343	PAVEMENT_GENERAL	Urban	F	1011101000011101	0000000000000000	-	car	850.107	-5589.290	0.000	0.000	180.000	696.000	987.000	-0.000	Terminate	
"Student9Mode3"	"Tanvi_6"	"Nov 29, 2016 10:29:19 AM"	Unknown	83.98502	10/29/0116 10:30.46	00005039	0.577	Inter615t11-0	0.876	LT1	2	0.000	11.111	5.4	0.000	0.000	D	F	477.5	356.471	0.204	-0.000	1500.939	1268.134	0.026	-	0.001	0.012	-	-	-	22	11.074	6.392	11.074	PAVEMENT_GENERAL	Urban	F	1011101000011101	0000000000000000	-	car	850.261	-5435.711	0.000	0.000	180.000	696.000	987.000	-0.000	Terminate	
"Student9Mode3"	"Tanvi_6"	"Nov 29, 2016 10:29:19 AM"	Unknown	84.98503	10/29/0116 10:30.47	00005099	0.001	Inter615t11-0	0.861	LT1	2	0.000	11.111	4.8	0.000	0.355	D	F	477.5	356.504	0.220	-0.000	1500.923	1268.397	0.029	-	0.000	-0.017	-	-	-	22	-	6.129	-	PAVEMENT_GENERAL	Urban	F	1011101000011101	0000000000000000	-	car	850.334	-4698965.500	0.000	0.000	180.000	696.000	987.000	-0.000	Terminate	
"Student9Mode3"	"Tanvi_6"	"Nov 29, 2016 10:29:19 AM"	Unknown	85.98505	10/29/0116 10:30.48	00005159	-0.000	Inter615t11-0	0.861	LT1	2	0.000	11.111	2.4	0.000	0.415	D	F	477.5	356.504	0.212	-0.000	1500.923	1268.396	0.028	-	-0.000	0.000	-	-	-	22	-	6.130	-	PAVEMENT_GENERAL	Urban	F	1011101000011101	0000000000000000	-	car	850.334	29406414.000	0.000	0.000	180.000	696.000	987.000	-0.000	Terminate	
"Student9Mode3"	"Tanvi_6"	"Nov 29, 2016 10:29:19 AM"	Unknown	86.98507	10/29/0116 10:30.49	00005219	-0.000	Inter615t11-0	0.861	LT1	2	0.000	11.111	0.7	0.000	0.439	D	F	477.5	356.504	0.209	-0.000	1500.923	1268.396	0.028	L	-0.000	0.000	-	-	-	22	-	6.130	-	PAVEMENT_GENERAL	Urban	F	1011101000111101	0000000000000000	-	car	850.334	72966784.000	0.000	0.000	180.000	696.000	987.000	-0.000	Terminate	
"Student9Mode3"	"Tanvi_6"	"Nov 29, 2016 10:29:19 AM"	Unknown	87.98509	10/29/0116 10:30.50	00005279	-0.000	Inter615t11-0	0.861	LT1	2	0.000	11.111	0.8	0.000	0.433	D	F	477.5	356.504	0.209	-0.000	1500.923	1268.396	0.028	L	-0.000	0.000	-	-	-	22	-	6.130	-	PAVEMENT_GENERAL	Urban	F	1011101000111101	0000000000000000	-	car	850.334	203986384.000	0.000	0.000	180.000	696.000	987.000	-0.000	Terminate	
"Student9Mode3"	"Tanvi_6"	"Nov 29, 2016 10:29:19 AM"	Unknown	88.98512	10/29/0116 10:30.51	00005339	-0.000	Inter615t11-0	0.861	LT1	2	0.000	11.111	6.0	0.000	0.478	D	F	477.5	356.504	0.209	-0.000	1500.923	1268.396	0.028	L	0.000	0.000	-	-	-	22	-	6.130	-	PAVEMENT_GENERAL	Urban	F	1011101000111101	0000000000000000	-	car	850.334	570234496.000	0.000	0.000	180.000	696.000	987.000	-0.000	Terminate	
"Student9Mode3"	"Tanvi_6"	"Nov 29, 2016 10:29:19 AM"	Unknown	89.98513	10/29/0116 10:30.52	00005399	-0.000	Inter615t11-0	0.861	LT1	2	0.000	11.111	6.5	0.000	0.499	D	F	477.5	356.504	0.209	-0.000	1500.923	1268.396	0.028	L	0.000	0.000	-	-	-	22	-	6.130	-	PAVEMENT_GENERAL	Urban	F	1011101000111101	0000000000000000	-	car	850.334	-	0.000	0.000	180.000	696.000	987.000	-0.000	Terminate	
"Student9Mode3"	"Tanvi_6"	"Nov 29, 2016 10:29:19 AM"	Unknown	90.98515	10/29/0116 10:30.53	00005459	-0.000	Inter615t11-0	0.861	LT1	2	0.000	11.111	5.4	0.000	0.525	D	F	477.5	356.504	0.209	-0.000	1500.923	1268.396	0.028	L	-0.000	0.000	-	-	-	22	-	6.372	-	PAVEMENT_GENERAL	Urban	F	1011101000111101	0000000000000000	-	car	850.334	-	0.000	0.000	180.000	696.000	987.000	-0.000	Terminate	
"Student9Mode3"	"Tanvi_6"	"Nov 29, 2016 10:29:19 AM"	Unknown	91.98518	10/29/0116 10:30.54	00005519	-0.000	Inter615t11-0	0.861	LT1	2	0.000	11.111	5.4	0.000	0.499	D	F	477.5	356.504	0.209	-0.000	1500.923	1268.396	0.028	L	-0.000	0.000	-	-	-	22	-	8.353	-	PAVEMENT_GENERAL	Urban	F	1011101000111101	0000000000000000	-	car	850.334	-	0.000	0.000	180.000	696.000	987.000	-0.000	Terminate	
"Student9Mode3"	"Tanvi_6"	"Nov 29, 2016 10:29:19 AM"	Unknown	92.98519	10/29/0116 10:30.55	00005579	-0.000	Inter615t11-0	0.861	LT1	2	0.000	11.111	5.5	0.000	0.466	D	F	477.5	356.504	0.209	-0.000	1500.923	1268.396	0.028	L	0.000	0.000	-	-	-	22	-	12.386	-	PAVEMENT_GENERAL	Urban	F	1011101000111101	0000000000000000	-	car	850.334	-	0.000	0.000	180.000	696.000	987.000	-0.000	Terminate	
"Student9Mode3"	"Tanvi_6"	"Nov 29, 2016 10:29:19 AM"	Unknown	93.98521	10/29/0116 10:30.56	00005639	-0.000	Inter615t11-0	0.861	LT1	2	0.000	11.111	6.5	0.000	0.400	D	F	477.5	356.504	0.209	-0.000	1500.923	1268.396	0.028	L	0.000	-0.000	-	-	-	22	-	18.376	-	PAVEMENT_GENERAL	Urban	F	1011101000111101	0000000000000000	-	car	850.334	-	0.000	0.000	180.000	696.000	987.000	-0.000	Terminate	
"Student9Mode3"	"Tanvi_6"	"Nov 29, 2016 10:29:19 AM"	Unknown	94.98523	10/29/0116 10:30.57	00005699	0.000	Inter615t11-0	0.861	LT1	2	0.000	11.111	11.6	0.000	0.197	D	F	477.5	356.504	0.209	-0.000	1500.923	1268.396	0.028	L	-0.000	0.000	-	-	-	22	-	26.360	-	PAVEMENT_GENERAL	Urban	F	1011101000111101	0000000000000000	-	car	850.334	-	0.000	0.000	180.000	696.000	987.000	-0.000	Terminate	
"Student9Mode3"	"Tanvi_6"	"Nov 29, 2016 10:29:19 AM"	Unknown	95.98525	10/29/0116 10:30.58	00005759	0.002	Inter615t11-0	0.861	LT1	2	0.000	11.111	21.4	0.000	0.000	D	F	477.5	356.504	0.208	-0.000	1500.923	1268.397	0.027	L	0.000	0.011	-	-	-	22	-	35.991	-	PAVEMENT_GENERAL	Urban	F	1011101000111101	0000000000000000	-	car	850.334	-1366070.375	0.000	0.000	180.000	696.000	987.000	-0.000	Terminate	
"Student9Mode3"	"Tanvi_6"	"Nov 29, 2016 10:29:19 AM"	Unknown	96.98528	10/29/0116 10:30.59	00005819	1.097	Inter615t11-0	0.850	LT1	2	0.000	11.111	20.5	0.118	0.000	D	F	1281.3	356.621	0.242	-0.011	1500.913	1268.630	0.014	L	0.046	2.915	-	-	-	22	42.426	46.550	-	PAVEMENT_GENERAL	Urban	F	1011101000111101	0000000000000000	-	car	850.401	-2828.131	0.000	0.000	180.000	696.000	987.000	-0.000	Terminate	
"Student9Mode3"	"Tanvi_6"	"Nov 29, 2016 10:29:19 AM"	Unknown	97.98529	10/29/0116 10:31.00	00005879	3.007	Inter615t11-0	0.760	LT1	2	0.000	11.111	13.6	0.069	0.000	D	F	1210.3	357.466	0.213	-0.004	1500.823	1270.837	0.019	L	0.034	1.200	-	-	-	22	19.222	57.803	-	PAVEMENT_GENERAL	Urban	F	1011101000111101	0000000000000000	-	car	851.047	-973.984	0.000	0.000	180.000	696.000	987.000	-0.000	Terminate	
"Student9Mode3"	"Tanvi_6"	"Nov 29, 2016 10:29:19 AM"	Unknown	98.98531	10/29/0116 10:31.01	00005939	3.766	Inter615t11-0	0.634	LT1	2	0.000	11.111	1.0	0.056	0.000	D	F	1228.0	357.834	0.211	0.000	1500.697	1274.267	0.023	L	0.002	0.545	-	-	-	22	18.350	69.098	-	PAVEMENT_GENERAL	Urban	F	1111101000111101	0000000000000000	-	car	852.075	-753.317	0.000	0.000	180.000	696.000	987.000	-0.000	Terminate	
"Student9Mode3"	"Tanvi_6"	"Nov 29, 2016 10:29:19 AM"	Unknown	99.98534	10/29/0116 10:31.02	00005999	4.386	Inter615t11-0	0.452	LT1	2	0.000	11.111	-23.8	0.076	0.000	D	F	1411.4	357.132	0.211	0.027	1500.514	1278.319	0.023	L	-0.209	0.732	-	-	-	22	18.644	81.771	-	PAVEMENT_GENERAL	Urban	F	1011101000111101	0000000000000000	-	car	853.275	-664.020	0.000	0.000	180.000	696.000	987.000	-0.000	Terminate	
"Student9Mode3"	"Tanvi_6"	"Nov 29, 2016 10:29:19 AM"	Unknown	100.98535	10/29/0116 10:31.03	00006059	5.091	Inter615t65-0	0.065	1	1	354.222	11.111	-65.8	0.079	0.000	D	F	1294.3	353.635	0.206	0.110	1500.072	1283.036	0.023	L	-0.728	0.662	-	-	-	22	18.753	95.469	-	PAVEMENT_GENERAL	Urban	F	1011101000111101	0000000000000000	-	car	854.477	-701.317	0.000	0.000	180.000	696.000	987.000	-0.000	Terminate	
"Student9Mode3"	"Tanvi_6"	"Nov 29, 2016 10:29:19 AM"	Unknown	101.98537	10/29/0116 10:31.04	00006119	5.658	Inter615t65-0	0.031	1	1	339.624	11.111	-97.3	0.090	0.000	D	F	1315.0	344.505	0.205	0.141	1498.878	1288.280	0.024	L	-1.073	0.572	-	-	-	22	19.326	109.352	-	PAVEMENT_GENERAL	Urban	F	1011101000111101	0000000000000000	-	car	855.186	-1709.051	0.000	0.000	180.000	696.000	987.000	-0.000	Terminate	
"Student9Mode3"	"Tanvi_6"	"Nov 29, 2016 10:29:19 AM"	Unknown	102.98539	10/29/0116 10:31.05	00006179	6.324	Inter615t65-0	0.287	1	1	326.979	11.111	-102.9	0.104	0.000	D	F	1395.9	333.185	0.200	0.197	1496.487	1293.768	0.023	L	-1.463	0.579	-	-	-	22	19.480	123.188	-	PAVEMENT_GENERAL	Urban	F	1111101000111101	0000000000000000	-	car	854.895	1327.048	0.000	0.000	180.000	696.000	987.000	-0.000	Terminate	
"Student9Mode3"	"Tanvi_6"	"Nov 29, 2016 10:29:19 AM"	Unknown	103.98541	10/29/0116 10:31.06	00006239	6.892	Inter615t65-0	0.509	1	1	312.647	11.111	-133.8	0.099	0.000	D	F	1423.0	317.300	0.192	0.275	1492.494	1299.033	0.024	L	-2.157	0.417	-	-	-	22	19.846	136.774	-	PAVEMENT_GENERAL	Urban	F	1111101000111101	0000000000000000	-	car	853.074	340.666	0.000	0.000	180.000	696.000	987.000	-0.000	Terminate	
"Student9Mode3"	"Tanvi_6"	"Nov 29, 2016 10:29:19 AM"	Unknown	104.98544	10/29/0116 10:31.07	00006299	7.330	Inter615t65-0	0.627	1	1	291.179	11.111	-152.1	0.095	0.000	D	F	1438.7	298.173	0.185	0.370	1486.668	1303.093	0.026	L	-2.787	0.245	-	-	-	22	20.458	149.955	-	PAVEMENT_GENERAL	Urban	F	1011101000111101	0000000000000000	-	car	849.151	180.086	0.000	0.000	180.000	696.000	987.000	-0.000	Terminate	
"Student9Mode3"	"Tanvi_6"	"Nov 29, 2016 10:29:19 AM"	Unknown	105.98545	10/29/0116 10:31.08	00006359	7.762	Inter615t3-3	1.352	1	2	270.000	11.111	-99.3	0.104	0.000	D	F	1485.0	276.247	0.183	0.206	1479.384	1304.883	0.025	L	-1.875	0.390	-	-	-	22	20.989	162.908	-	PAVEMENT_GENERAL	Urban	F	1011101000111101	0000000000000000	-	car	843.064	123.404	0.000	0.000	180.000	696.000	987.000	-0.000	Terminate	
"Student9Mode3"	"Tanvi_6"	"Nov 29, 2016 10:29:19 AM"	Unknown	106.98547	10/29/0116 10:31.09	00006419	8.125	Inter615t3-3	1.391	1	2	270.000	11.111	-4.0	0.090	0.000	D	F	1464.8	268.618	0.205	-0.018	1471.424	1304.922	0.025	-	-0.059	0.299	-	-	-	22	21.546	175.067	-	PAVEMENT_GENERAL	Urban	F	1011101000011101	0000000000000000	-	car	835.708	110.104	0.000	0.000	180.000	696.000	987.000	-0.000	Terminate	
"Student9Mode3"	"Tanvi_6"	"Nov 29, 2016 10:29:19 AM"	Unknown	107.98550	10/29/0116 10:31.10	00006479	8.421	Inter615t19-0	1.279	1	1	270.074	11.111	0.6	0.088	0.000	D	F	1382.1	269.909	0.205	-0.009	1463.156	1304.815	0.025	-	0.030	0.334	-	-	-	22	22.197	186.918	-	PAVEMENT_GENERAL	Urban	F	1011101000011101	0000000000000000	-	car	828.023	106.365	0.000	0.000	180.000	696.000	987.000	-0.000	Terminate	
"Student9Mode3"	"Tanvi_6"	"Nov 29, 2016 10:29:19 AM"	Unknown	108.98551	10/29/0116 10:31.11	00006539	8.693	Inter615t19-0	1.086	1	1	270.101	11.111	-5.3	0.090	0.000	D	F	1324.1	267.602	0.203	0.008	1454.598	1304.630	0.025	-	-0.139	0.266	-	-	-	22	22.833	198.480	-	PAVEMENT_GENERAL	Urban	F	1011101000011101	0000000000000000	-	car	820.052	100.599	0.000	0.000	180.000	696.000	987.000	-0.000	Terminate	
"Student9Mode3"	"Tanvi_6"	"Nov 29, 2016 10:29:19 AM"	Unknown	109.98553	10/29/0116 10:31.12	00006599	8.954	Inter615t19-0	0.802	1	1	270.099	11.111	16.1	0.092	0.000	D	F	1337.2	269.205	0.203	-0.052	1445.779	1304.360	0.025	-	0.398	0.257	-	-	-	22	23.428	209.780	-	PAVEMENT_GENERAL	Urban	F	1011101000011101	0000000000000000	-	car	811.819	97.887	0.000	0.000	180.000	696.000	987.000	-0.000	Terminate	
"Student9Mode3"	"Tanvi_6"	"Nov 29, 2016 10:29:19 AM"	Unknown	110.98555	10/29/0116 10:31.13	00006659	9.195	Inter615t19-0	0.873	1	1	270.070	11.111	13.2	0.092	0.000	D	F	1332.4	271.421	0.203	-0.045	1436.703	1304.449	0.025	-	0.340	0.226	-	-	-	22	24.016	220.823	-	PAVEMENT_GENERAL	Urban	F	1011101000011101	0000000000000000	-	car	803.503	96.125	0.000	0.000	180.000	696.000	987.000	-0.000	Terminate	
"Student9Mode3"	"Tanvi_6"	"Nov 29, 2016 10:29:19 AM"	Unknown	111.98557	10/29/0116 10:31.14	00006719	9.407	Inter615t19-0	1.161	1	1	270.061	11.111	-21.5	0.092	0.000	D	F	1339.7	271.220	0.202	0.085	1427.404	1304.750	0.025	-	-0.571	0.202	-	-	-	22	24.624	231.644	-	PAVEMENT_GENERAL	Urban	F	1011101000011101	0000000000000000	-	car	795.084	93.031	0.000	0.000	180.000	696.000	987.000	-0.000	Terminate	
"Student9Mode3"	"Tanvi_6"	"Nov 29, 2016 10:29:19 AM"	Unknown	112.98560	10/29/0116 10:31.15	00006779	9.647	Inter615t19-0	1.051	1	1	270.061	11.111	-16.2	0.097	0.000	D	F	1376.9	268.230	0.202	0.059	1417.879	1304.650	0.025	-	-0.452	0.240	-	-	-	22	24.863	239.858	-	PAVEMENT_GENERAL	Urban	F	1011101000011101	0000000000000000	-	car	786.317	87.896	0.000	0.000	180.000	696.000	987.000	-0.000	Terminate	
"Student9Mode3"	"Tanvi_6"	"Nov 29, 2016 10:29:19 AM"	Unknown	113.98561	10/29/0116 10:31.17	00006839	9.877	Inter615t1-2	0.483	1	2	270.000	11.111	-2.2	0.093	0.000	D	F	1375.3	265.577	0.200	0.022	1408.132	1304.083	0.025	-	-0.144	0.210	-	-	-	-	-	-	-	PAVEMENT_GENERAL	Urban	F	1111101000011101	0000000000000000	-	car	777.175	83.518	0.000	0.000	180.000	696.000	987.000	-0.000	Terminate	
"Student9Mode3"	"Tanvi_6"	"Nov 29, 2016 10:29:19 AM"	Unknown	114.98563	10/29/0116 10:31.18	00006899	10.075	Inter616t1-2	-0.022	1	2	270.000	11.111	17.4	0.093	0.000	D	F	1380.6	269.156	0.199	-0.070	1398.170	1303.585	0.025	-	0.586	0.188	-	-	-	-	-	-	-	PAVEMENT_GENERAL	Urban	F	1011101000011101	0000000000000000	-	car	767.880	83.060	0.000	0.000	180.000	696.000	987.000	-0.000	Terminate	
"Student9Mode3"	"Tanvi_6"	"Nov 29, 2016 10:29:19 AM"	Unknown	115.98566	10/29/0116 10:31.19	00006959	10.253	Inter616t1-2	0.055	1	2	270.000	11.111	-0.2	0.093	0.000	D	F	1384.6	270.864	0.202	-0.000	1388.004	1303.662	0.026	-	0.004	0.174	-	-	-	-	-	-	-	PAVEMENT_GENERAL	Urban	F	1011101000011101	0000000000000000	-	car	758.656	81.947	0.000	0.000	180.000	696.000	987.000	-0.000	Terminate	
"Student9Mode3"	"Tanvi_6"	"Nov 29, 2016 10:29:19 AM"	Unknown	116.98567	10/29/0116 10:31.20	00007019	10.445	Inter616t1-2	0.193	1	2	270.000	11.111	6.5	0.108	0.000	D	F	1442.3	270.822	0.202	-0.029	1377.663	1303.800	0.025	-	0.181	0.249	-	-	-	-	-	-	-	PAVEMENT_GENERAL	Urban	F	1011101000011101	0000000000000000	-	car	749.323	79.645	0.000	0.000	180.000	696.000	987.000	-0.000	Terminate	
"Student9Mode3"	"Tanvi_6"	"Nov 29, 2016 10:29:19 AM"	Unknown	117.98569	10/29/0116 10:31.21	00007079	10.730	Inter616t1-2	0.451	1	2	270.000	11.111	-2.0	0.120	0.000	D	F	1492.7	271.773	0.203	0.009	1367.081	1304.058	0.025	-	-0.019	0.314	-	-	-	-	-	-	-	PAVEMENT_GENERAL	Urban	F	1011101000011101	0000000000000000	-	car	739.850	77.431	0.000	0.000	180.000	696.000	987.000	-0.000	Terminate	
"Student9Mode3"	"Tanvi_6"	"Nov 29, 2016 10:29:19 AM"	Unknown	118.98571	10/29/0116 10:31.22	00007139	11.076	Inter616t1-2	0.751	1	2	270.000	11.111	-3.2	0.132	0.000	D	F	1526.3	271.390	0.203	0.015	1356.181	1304.358	0.025	-	-0.101	0.338	-	-	-	-	-	-	-	PAVEMENT_GENERAL	Urban	F	1011101000011101	0000000000000000	-	car	730.140	74.025	0.000	0.000	180.000	696.000	987.000	-0.000	Terminate	
"Student9Mode3"	"Tanvi_6"	"Nov 29, 2016 10:29:19 AM"	Unknown	119.98573	10/29/0116 10:31.23	00007199	11.420	Inter616t1-2	0.950	1	2	270.000	11.111	-4.7	0.134	0.000	D	F	1552.6	270.666	0.202	0.023	1344.934	1304.557	0.025	-	-0.163	0.339	-	-	-	-	-	-	-	PAVEMENT_GENERAL	Urban	F	1011101000011101	0000000000000000	-	car	720.107	70.610	0.000	0.000	180.000	696.000	987.000	-0.000	Terminate	
"Student9Mode3"	"Tanvi_6"	"Nov 29, 2016 10:29:19 AM"	Unknown	120.98576	10/29/0116 10:31.24	00007259	11.747	Inter616t1-2	0.974	1	2	270.000	11.111	-5.3	0.138	0.000	D	F	1570.9	269.605	0.201	0.027	1333.349	1304.581	0.025	-	-0.205	0.321	-	-	-	-	-	-	-	PAVEMENT_GENERAL	Urban	F	1011101000011101	0000000000000000	-	car	709.730	67.273	0.000	0.000	180.000	696.000	987.000	-0.000	Terminate	
"Student9Mode3"	"Tanvi_6"	"Nov 29, 2016 10:29:19 AM"	Unknown	121.98577	10/29/0116 10:31.25	00007319	12.076	Inter616t1-2	0.839	1	2	270.000	11.111	7.6	0.139	0.000	D	F	1593.7	269.525	0.201	-0.039	1321.438	1304.445	0.025	-	0.261	0.320	-	-	-	-	-	-	-	PAVEMENT_GENERAL	Urban	F	1011101000011101	0000000000000000	-	car	699.028	64.647	0.000	0.000	180.000	696.000	987.000	-0.000	Terminate	
"Student9Mode3"	"Tanvi_6"	"Nov 29, 2016 10:29:19 AM"	Unknown	122.98579	10/29/0116 10:31.26	00007379	12.385	Inter616t1-2	0.843	1	2	270.000	11.111	-0.6	0.138	0.000	D	F	1607.3	270.215	0.200	0.005	1309.206	1304.450	0.025	-	-0.009	0.301	-	-	-	-	-	-	-	PAVEMENT_GENERAL	Urban	F	1011101000011101	0000000000000000	-	car	688.145	62.690	0.000	0.000	180.000	696.000	987.000	-0.000	Terminate	
"Student9Mode3"	"Tanvi_6"	"Nov 29, 2016 10:29:19 AM"	Unknown	123.98581	10/29/0116 10:31.27	00007439	12.680	Inter616t1-2	0.885	1	2	270.000	11.111	0.1	0.139	0.000	D	F	1621.8	270.190	0.201	-0.000	1296.673	1304.492	0.025	-	0.002	0.289	-	-	-	-	-	-	-	PAVEMENT_GENERAL	Urban	F	1011101000011101	0000000000000000	-	car	677.058	60.504	0.000	0.000	180.000	696.000	987.000	-0.000	Terminate	
"Student9Mode3"	"Tanvi_6"	"Nov 29, 2016 10:29:19 AM"	Unknown	124.98583	10/29/0116 10:31.28	00007499	12.960	Inter616t1-2	0.928	1	2	270.000	11.111	-0.5	0.141	0.000	D	F	1632.1	270.180	0.200	0.003	1283.851	1304.535	0.025	-	-0.016	0.267	-	-	-	-	-	-	-	PAVEMENT_GENERAL	Urban	F	1011101000011101	0000000000000000	-	car	665.770	58.485	0.000	0.000	180.000	696.000	987.000	-0.000	Terminate	
"Student9Mode3"	"Tanvi_6"	"Nov 29, 2016 10:29:19 AM"	Unknown	125.98586	10/29/0116 10:31.29	00007559	13.234	Inter616t1-2	0.961	1	2	270.000	11.111	-1.3	0.145	0.000	D	F	1659.2	270.078	0.200	0.008	1270.756	1304.568	0.025	-	-0.053	0.283	-	-	-	-	-	-	-	PAVEMENT_GENERAL	Urban	F	1011101000011101	0000000000000000	-	car	654.294	56.529	0.000	0.000	180.000	696.000	987.000	-0.000	Terminate	
"Student9Mode3"	"Tanvi_6"	"Nov 29, 2016 10:29:19 AM"	Unknown	126.98587	10/29/0116 10:31.30	00007619	13.524	Inter616t1-2	0.952	1	2	270.000	11.111	-0.7	0.150	0.000	D	F	1689.3	269.854	0.200	0.004	1257.379	1304.558	0.025	-	-0.037	0.297	-	-	-	-	-	-	-	PAVEMENT_GENERAL	Urban	F	1011101000011101	0000000000000000	-	car	642.613	54.515	0.000	0.000	180.000	696.000	987.000	-0.000	Terminate	
"Student9Mode3"	"Tanvi_6"	"Nov 29, 2016 10:29:19 AM"	Unknown	127.98589	10/29/0116 10:31.31	00007679	13.820	Inter616t1-2	0.901	1	2	270.000	11.111	-0.3	0.153	0.000	D	F	1711.8	269.736	0.199	0.002	1243.707	1304.508	0.025	-	-0.017	0.299	-	-	-	-	-	-	-	PAVEMENT_GENERAL	Urban	F	1011101000011101	0000000000000000	-	car	630.724	52.612	0.000	0.000	180.000	696.000	987.000	-0.000	Terminate	
"Student9Mode3"	"Tanvi_6"	"Nov 29, 2016 10:29:19 AM"	Unknown	128.98592	10/29/0116 10:31.32	00007739	14.112	Inter616t1-2	0.830	1	2	270.000	11.111	-0.4	0.155	0.000	D	F	1727.5	269.668	0.199	0.003	1229.740	1304.437	0.025	-	-0.019	0.285	-	-	-	-	-	-	-	PAVEMENT_GENERAL	Urban	F	1011101000011101	0000000000000000	-	car	618.643	50.832	0.000	0.000	180.000	696.000	987.000	-0.000	Terminate	
"Student9Mode3"	"Tanvi_6"	"Nov 29, 2016 10:29:19 AM"	Unknown	129.98593	10/29/0116 10:31.33	00007799	14.396	Inter616t1-2	0.739	1	2	270.000	11.111	-0.2	0.155	0.000	D	F	1748.6	269.604	0.198	0.002	1215.487	1304.346	0.025	-	-0.014	0.285	-	-	-	-	-	-	-	PAVEMENT_GENERAL	Urban	F	1011101000011101	0000000000000000	-	car	606.389	49.153	0.000	0.000	180.000	696.000	987.000	-0.000	Terminate	
"Student9Mode3"	"Tanvi_6"	"Nov 29, 2016 10:29:19 AM"	Unknown	130.98595	10/29/0116 10:31.34	00007859	14.673	Inter616t1-2	0.633	1	2	270.000	11.111	-0.0	0.157	0.000	D	F	1761.3	269.558	0.198	0.001	1200.951	1304.240	0.025	-	-0.006	0.271	-	-	-	-	-	-	-	PAVEMENT_GENERAL	Urban	F	1011101000011101	0000000000000000	-	car	593.977	47.578	0.000	0.000	180.000	696.000	987.000	-0.000	Terminate	
"Student9Mode3"	"Tanvi_6"	"Nov 29, 2016 10:29:19 AM"	Unknown	131.98598	10/29/0116 10:31.35	00007919	14.925	Inter617t1-2	0.499	1	2	270.000	11.111	-2.4	0.153	0.000	D	F	1765.1	269.300	0.197	0.016	1186.150	1304.106	0.025	-	-0.117	0.241	-	-	-	-	-	-	-	PAVEMENT_GENERAL	Urban	F	1011101000011101	0000000000000000	-	car	581.424	46.039	0.000	0.000	180.000	696.000	987.000	-0.000	Terminate	
"Student9Mode3"	"Tanvi_6"	"Nov 29, 2016 10:29:19 AM"	Unknown	132.98599	10/29/0116 10:31.36	00007979	15.154	Inter617t1-2	0.301	1	2	270.000	11.111	3.7	0.152	0.000	D	F	1773.2	269.444	0.197	-0.028	1171.110	1303.908	0.025	-	0.190	0.219	-	-	-	-	-	-	-	PAVEMENT_GENERAL	Urban	F	1011101000011101	0000000000000000	-	car	568.745	44.827	0.000	0.000	180.000	696.000	987.000	-0.000	Terminate	
"Student9Mode3"	"Tanvi_6"	"Nov 29, 2016 10:29:19 AM"	Unknown	133.98601	10/29/0116 10:31.37	00008039	15.363	Inter617t1-2	0.233	1	2	270.000	11.111	2.1	0.153	0.000	D	F	1786.8	270.012	0.196	-0.015	1155.851	1303.840	0.026	-	0.111	0.204	-	-	-	-	-	-	-	PAVEMENT_GENERAL	Urban	F	1011101000011101	0000000000000000	-	car	556.077	43.963	0.000	0.000	180.000	696.000	987.000	-0.000	Terminate	
"Student9Mode3"	"Tanvi_6"	"Nov 29, 2016 10:29:19 AM"	Unknown	134.98604	10/29/0116 10:31.38	00008099	15.559	Inter617t1-2	0.287	1	2	270.000	11.111	1.8	0.150	0.000	D	F	1799.2	270.413	0.196	-0.014	1140.390	1303.894	0.026	-	0.102	0.191	-	-	-	-	-	-	-	PAVEMENT_GENERAL	Urban	F	1011101000011101	0000000000000000	-	car	543.446	43.121	0.000	0.000	180.000	696.000	987.000	-0.000	Terminate	
"Student9Mode3"	"Tanvi_6"	"Nov 29, 2016 10:29:19 AM"	Unknown	135.98605	10/29/0116 10:31.39	00008159	15.748	Inter617t1-2	0.437	1	2	270.000	11.111	1.6	0.152	0.000	D	F	1815.0	270.717	0.196	-0.011	1124.736	1304.044	0.026	-	0.087	0.186	-	-	-	-	-	-	-	PAVEMENT_GENERAL	Urban	F	1111101000011101	0000000000000000	-	car	530.868	42.322	0.000	0.000	180.000	696.000	987.000	-0.000	Terminate	
"Student9Mode3"	"Tanvi_6"	"Nov 29, 2016 10:29:19 AM"	Unknown	136.98607	10/29/0116 10:31.40	00008219	15.931	Inter617t1-2	0.673	1	2	270.000	11.111	1.1	0.153	0.000	D	F	1829.1	271.007	0.195	-0.008	1108.898	1304.280	0.026	-	0.068	0.180	-	-	-	-	-	-	-	PAVEMENT_GENERAL	Urban	F	1011101000011101	0000000000000000	-	car	518.363	41.604	0.000	0.000	180.000	696.000	987.000	-0.000	Terminate	
"Student9Mode3"	"Tanvi_6"	"Nov 29, 2016 10:29:19 AM"	Unknown	137.98610	10/29/0116 10:31.41	00008279	16.109	Inter617t1-2	0.978	1	2	270.000	11.111	-4.7	0.145	0.000	D	F	1827.7	271.084	0.195	0.029	1092.881	1304.585	0.026	-	-0.155	0.162	-	-	-	-	-	-	-	PAVEMENT_GENERAL	Urban	F	1011101000011101	0000000000000000	-	car	505.946	40.851	0.000	0.000	180.000	696.000	987.000	-0.000	Terminate	
"Student9Mode3"	"Tanvi_6"	"Nov 29, 2016 10:29:19 AM"	Unknown	138.98611	10/29/0116 10:31.42	00008339	15.657	Inter617t1-2	1.040	1	2	270.000	11.111	-8.5	0.000	0.000	D	F	1537.6	268.876	0.185	0.087	1076.943	1304.646	0.029	-	-0.675	-0.588	-	-	-	-	-	-	-	PAVEMENT_GENERAL	Urban	F	1011101000011101	0000000000000000	-	car	493.641	40.397	0.000	0.000	180.000	696.000	987.000	-0.000	Terminate	
"Student9Mode3"	"Tanvi_6"	"Nov 29, 2016 10:29:19 AM"	Unknown	139.98613	10/29/0116 10:31.43	00008399	14.860	Inter617t1-2	0.563	1	2	270.000	11.111	-1.3	0.000	0.140	D	F	1432.2	267.740	0.126	0.010	1061.602	1304.169	0.030	-	-0.101	-2.128	-	-	-	-	-	-	-	PAVEMENT_GENERAL	Urban	F	1011101000011101	0000000000000000	-	car	481.646	41.522	0.000	0.000	180.000	696.000	987.000	-0.000	Terminate	
"Student9Mode3"	"Tanvi_6"	"Nov 29, 2016 10:29:19 AM"	Unknown	140.98616	10/29/0116 10:31.44	00008459	11.900	Inter617t1-2	0.046	1	2	270.000	11.111	10.5	0.000	0.236	D	F	1131.5	268.207	0.138	-0.049	1048.132	1303.653	0.036	-	0.358	-3.536	-	-	-	-	-	-	-	PAVEMENT_GENERAL	Urban	F	1011101000011101	0000000000000000	-	car	471.208	51.822	0.000	0.000	180.000	696.000	987.000	-0.000	Terminate	
"Student9Mode3"	"Tanvi_6"	"Nov 29, 2016 10:29:19 AM"	Unknown	141.98618	10/29/0116 10:31.45	00008519	9.237	Inter617t1-2	-0.110	1	2	270.000	11.111	6.0	0.000	0.140	D	F	890.7	269.987	0.168	-0.023	1037.660	1303.496	0.033	-	0.195	-2.227	-	-	-	-	-	-	-	PAVEMENT_GENERAL	Urban	F	1011101000011101	0000000000000000	-	car	463.367	68.364	0.000	0.000	180.000	696.000	987.000	-0.000	Terminate	
"Student9Mode3"	"Tanvi_6"	"Nov 29, 2016 10:29:19 AM"	Unknown	142.98619	10/29/0116 10:31.46	00008579	8.387	Inter617t1-2	-0.067	1	2	270.000	11.111	-0.7	0.000	0.000	D	F	824.3	270.338	0.196	0.002	1028.983	1303.540	0.029	-	-0.015	-0.479	-	-	-	-	-	-	-	PAVEMENT_GENERAL	Urban	F	1011101000011101	0000000000000000	-	car	457.070	75.614	0.000	0.000	180.000	696.000	987.000	-0.000	Terminate	
"Student9Mode3"	"Tanvi_6"	"Nov 29, 2016 10:29:19 AM"	Unknown	143.98621	10/29/0116 10:31.47	00008639	7.912	Inter617t1-2	-0.027	1	2	270.000	11.111	5.4	0.000	0.000	D	F	777.6	270.313	0.197	-0.020	1020.834	1303.580	0.028	-	0.124	-0.473	-	-	-	-	-	-	-	PAVEMENT_GENERAL	Urban	F	1011101000011101	0000000000000000	-	car	451.226	80.063	0.000	0.000	180.000	696.000	987.000	-0.000	Terminate	
"Student9Mode3"	"Tanvi_6"	"Nov 29, 2016 10:29:19 AM"	Unknown	144.98624	10/29/0116 10:31.48	00008699	7.493	Inter617t1-2	0.119	1	2	270.000	11.111	4.0	0.023	0.000	D	F	859.5	271.538	0.199	-0.004	1013.151	1303.726	0.028	-	0.064	-0.291	-	-	-	-	-	-	-	PAVEMENT_GENERAL	Urban	F	1011101000011101	0000000000000000	-	car	445.859	86.437	0.000	0.000	180.000	696.000	987.000	-0.000	Terminate	
"Student9Mode3"	"Tanvi_6"	"Nov 29, 2016 10:29:19 AM"	Unknown	145.98625	10/29/0116 10:31.49	00008759	7.457	Inter617t1-2	0.314	1	2	270.000	11.111	-2.8	0.069	0.000	D	F	1168.0	271.310	0.203	0.006	1005.728	1303.921	0.026	-	-0.047	0.131	-	-	-	-	-	-	-	PAVEMENT_GENERAL	Urban	F	1011101000011101	0000000000000000	-	car	440.778	86.622	0.000	0.000	180.000	696.000	987.000	-0.000	Terminate	
"Student9Mode3"	"Tanvi_6"	"Nov 29, 2016 10:29:19 AM"	Unknown	146.98627	10/29/0116 10:31.50	00008819	7.582	Inter618t1-0	-0.205	1	2	270.000	24.444	5.9	0.083	0.000	D	F	1236.3	271.535	0.203	-0.014	998.211	1304.095	0.026	-	0.108	0.186	-	-	-	-	-	-	-	FREEWAY_SMOOTH	Urban	F	1011101000011101	0000000000000000	-	car	435.683	85.728	0.000	0.000	180.000	696.000	987.000	-0.000	Terminate	
"Student9Mode3"	"Tanvi_6"	"Nov 29, 2016 10:29:19 AM"	Unknown	147.98630	10/29/0116 10:31.51	00008879	7.974	Inter618t1-0	0.056	1	2	269.972	24.444	-1.3	0.102	0.000	D	F	1347.6	272.006	0.269	-0.062	990.446	1304.355	0.029	-	-0.029	0.418	-	-	-	32	3.681	29.353	-	FREEWAY_SMOOTH	Urban	F	1011101000011101	0000000000000000	-	car	430.553	82.555	0.000	0.000	180.000	696.000	987.000	-0.000	Terminate	
"Student9Mode3"	"Tanvi_6"	"Nov 29, 2016 10:29:19 AM"	Unknown	148.98631	10/29/0116 10:31.52	00008939	8.388	Inter618t1-0	0.329	1	2	269.829	24.444	-1.2	0.108	0.000	D	F	1381.2	271.732	0.275	-0.176	982.270	1304.616	0.038	-	-0.033	0.429	-	-	-	32	4.159	34.882	-	FREEWAY_SMOOTH	Urban	F	1011101000011101	0000000000000000	-	car	425.228	78.386	0.000	0.000	180.000	696.000	987.000	-0.000	Terminate	
"Student9Mode3"	"Tanvi_6"	"Nov 29, 2016 10:29:19 AM"	Unknown	149.98633	10/29/0116 10:31.53	00008999	8.872	Inter618t1-0	0.573	1	2	269.527	24.444	-4.1	0.148	0.000	D	F	1499.6	271.035	0.282	-0.288	973.660	1304.815	0.048	-	-0.109	0.621	-	-	-	32	4.717	41.849	-	FREEWAY_SMOOTH	Urban	F	1011101000011101	0000000000000000	-	car	419.661	73.428	0.000	0.000	180.000	696.000	987.000	-0.000	Terminate	
"Student9Mode3"	"Tanvi_6"	"Nov 29, 2016 10:29:19 AM"	Unknown	150.98636	10/29/0116 10:31.54	00009059	9.508	Inter618t1-0	0.772	1	2	269.048	24.444	-5.0	0.168	0.000	D	F	1575.9	270.256	0.284	-0.410	964.477	1304.905	0.060	-	-0.152	0.684	-	-	-	32	5.280	50.203	-	FREEWAY_SMOOTH	Urban	F	1011101000011101	0000000000000000	-	car	413.746	67.802	0.000	0.000	180.000	696.000	987.000	-0.000	Terminate	
"Student9Mode3"	"Tanvi_6"	"Nov 29, 2016 10:29:19 AM"	Unknown	151.98637	10/29/0116 10:31.55	00009119	10.265	Inter618t1-0	0.927	1	2	268.352	24.444	-6.6	0.206	0.000	D	F	1701.0	269.174	0.287	-0.540	954.606	1304.842	0.073	-	-0.223	0.841	-	-	-	32	5.764	59.160	-	FREEWAY_SMOOTH	Urban	F	1011101000011101	0000000000000000	-	car	407.397	61.798	0.000	0.000	180.000	696.000	987.000	-0.000	Terminate	
"Student9Mode3"	"Tanvi_6"	"Nov 29, 2016 10:29:19 AM"	Unknown	152.98639	10/29/0116 10:31.56	00009179	11.119	Inter618t1-0	1.016	1	2	267.378	24.444	-7.3	0.203	0.000	D	F	1735.2	267.816	0.284	-0.680	943.913	1304.540	0.087	-	-0.281	0.814	-	-	-	31	5.445	60.549	-	FREEWAY_SMOOTH	Urban	F	1011101000011101	0000000000000000	-	car	400.496	55.845	0.000	0.000	180.000	696.000	987.000	-0.000	Terminate	
"Student9Mode3"	"Tanvi_6"	"Nov 29, 2016 10:29:19 AM"	Unknown	153.98642	10/29/0116 10:31.57	00009239	11.899	Inter618t1-0	1.041	1	2	266.084	24.444	-7.8	0.201	0.000	D	F	1760.9	266.224	0.279	-0.834	932.416	1303.919	0.103	-	-0.339	0.750	-	-	-	31	5.592	66.535	-	FREEWAY_SMOOTH	Urban	F	1011101000011101	0000000000000000	-	car	393.027	50.861	0.000	0.000	180.000	696.000	987.000	-0.000	Terminate	
"Student9Mode3"	"Tanvi_6"	"Nov 29, 2016 10:29:19 AM"	Unknown	154.98643	10/29/0116 10:31.58	00009299	12.618	Inter618t1-0	1.029	1	2	264.425	24.444	-9.2	0.203	0.000	D	F	1785.4	264.485	0.272	-0.991	920.195	1302.906	0.118	-	-0.425	0.688	-	-	-	31	5.658	71.387	-	FREEWAY_SMOOTH	Urban	F	1011101000011101	0000000000000000	-	car	385.016	46.625	0.000	0.000	180.000	696.000	987.000	-0.000	Terminate	
