ZoneName	Time	SystemTime	Frame	Velocity	LaneName	LanePos	LaneIndex	LaneCount	LaneHeading	SpeedLimit	Steer	Accel	Brake	Gear	Horn	SubjectEngineRPM	SubjectHeading	SubjectPitch	SubjectRoll	SubjectX	SubjectY	SubjectZ	Signal	LatAccel	LongAccel	Collision	CollisionAngle	CollisionVelocity	VehAhead	HeadwayTime	HeadwayDist	TTC	TerrainType	CultureType	Slip	DigitalInputs	DigitalInputs2	ActiveTrigger	EntityName	DistToEntity	TimeToEntity	EntityVelocity	EntityAccel	EntityHeading	EntityX	EntityY	EntityZ	GrabData	
Unknown	0.98335	10/29/0116 09:36.25	00000059	0.002	Inter625t13-0	-0.088	1	2	0.000	11.111	2.2	0.000	0.000	P	F	0.0	0.001	0.153	-0.001	1503.500	523.206	0.019	-	-0.000	0.000	-	-	-	-	-	-	-	PAVEMENT_GENERAL	Urban	F	1011101000010101	0000000000000000	-	car	928.855	774737.000	0.000	0.000	180.000	696.000	987.000	-0.000	Terminate	
Unknown	1.98337	10/29/0116 09:36.26	00000119	0.001	Inter625t13-0	-0.088	1	2	0.000	11.111	1.9	0.000	0.000	P	F	50.0	0.000	0.197	-0.000	1503.500	523.208	0.026	-	0.000	-0.003	-	-	-	-	-	-	-	PAVEMENT_GENERAL	Urban	F	1111101000010111	0000000000000000	-	car	928.855	2418111.750	0.000	0.000	180.000	696.000	987.000	-0.000	Terminate	
Unknown	2.98339	10/29/0116 09:36.27	00000179	0.000	Inter625t13-0	-0.088	1	2	0.000	11.111	2.0	0.000	0.000	P	F	383.3	0.000	0.205	0.000	1503.500	523.208	0.027	-	-0.000	0.000	-	-	-	-	-	-	-	PAVEMENT_GENERAL	Urban	F	1011101000010101	0000000000000000	-	car	928.854	10811321.000	0.000	0.000	180.000	696.000	987.000	-0.000	Terminate	
Unknown	3.98341	10/29/0116 09:36.28	00000239	0.000	Inter625t13-0	-0.088	1	2	0.000	11.111	1.6	0.000	0.000	R	F	477.5	0.000	0.207	0.000	1503.500	523.208	0.027	-	-0.000	-0.000	-	-	-	-	-	-	-	PAVEMENT_GENERAL	Urban	F	1011101000010101	0000000000000000	-	car	928.854	28309964.000	0.000	0.000	180.000	696.000	987.000	-0.000	Terminate	
Unknown	4.98343	10/29/0116 09:36.29	00000299	0.000	Inter625t13-0	-0.088	1	2	0.000	11.111	1.5	0.000	0.000	D	F	477.5	0.000	0.208	0.000	1503.500	523.208	0.028	-	0.000	0.000	-	-	-	-	-	-	-	PAVEMENT_GENERAL	Urban	F	1111101000010101	0000000000000000	-	car	928.854	26931396.000	0.000	0.000	180.000	696.000	987.000	-0.000	Terminate	
Unknown	5.98345	10/29/0116 09:36.30	00000359	0.009	Inter625t13-0	-0.088	1	2	0.000	11.111	0.2	0.000	0.000	D	F	477.5	0.001	0.203	-0.000	1503.500	523.211	0.026	-	-0.000	0.012	-	-	-	-	-	-	-	PAVEMENT_GENERAL	Urban	F	1011101000010101	0000000000000000	-	car	928.853	217353.422	0.000	0.000	180.000	696.000	987.000	-0.000	Terminate	
Unknown	6.98347	10/29/0116 09:36.31	00000419	0.169	Inter625t13-0	-0.088	1	2	0.000	11.111	2.6	0.058	0.000	D	F	930.2	0.003	0.220	0.000	1503.500	523.241	0.022	-	0.001	0.951	-	-	-	-	-	-	-	PAVEMENT_GENERAL	Urban	F	1011101000010101	0000000000000000	-	car	928.838	11023.428	0.000	0.000	180.000	696.000	987.000	-0.000	Terminate	
Unknown	7.98349	10/29/0116 09:36.32	00000479	2.113	Inter625t13-0	-0.089	1	2	0.000	11.111	-4.5	0.085	0.000	D	F	1202.8	0.000	0.215	0.002	1503.499	524.338	0.017	-	-0.016	1.873	-	-	-	-	-	-	-	PAVEMENT_GENERAL	Urban	F	1011101000010101	0000000000000000	-	car	928.291	882.352	0.000	0.000	180.000	696.000	987.000	-0.000	Terminate	
Unknown	8.98351	10/29/0116 09:36.33	00000539	4.051	Inter625t13-0	-0.110	1	2	0.000	11.111	-3.0	0.159	0.000	D	F	1604.6	359.598	0.220	-0.002	1503.478	527.377	0.017	-	0.005	2.008	-	-	-	-	-	-	-	PAVEMENT_GENERAL	Urban	F	1011101000010101	0000000000000000	-	car	926.766	456.844	0.000	0.000	180.000	696.000	987.000	-0.000	Terminate	
Unknown	9.98353	10/29/0116 09:36.34	00000599	6.328	Inter625t49-0	-0.159	1	1	0.005	11.111	-1.4	0.226	0.000	D	F	2101.3	359.423	0.220	0.002	1503.429	532.549	0.016	-	-0.018	2.189	-	-	-	-	-	-	-	PAVEMENT_GENERAL	Urban	F	1011101000010101	0000000000000000	-	car	924.175	292.513	0.000	0.000	180.000	696.000	987.000	-0.000	Terminate	
Unknown	10.98355	10/29/0116 09:36.35	00000659	8.419	Inter625t49-0	-0.236	1	1	0.006	11.111	0.5	0.259	0.000	D	F	2018.3	359.435	0.207	-0.001	1503.353	539.938	0.017	-	0.010	1.783	-	-	-	-	-	-	-	PAVEMENT_GENERAL	Urban	F	1011101000010101	0000000000000000	-	car	920.508	221.767	0.000	0.000	180.000	696.000	987.000	-0.000	Terminate	
Unknown	11.98357	10/29/0116 09:36.36	00000719	10.011	Inter625t49-0	-0.315	1	1	0.008	11.111	-1.0	0.344	0.000	D	F	2093.2	359.531	0.218	0.005	1503.274	549.154	0.019	-	-0.023	1.672	-	-	-	-	-	-	-	PAVEMENT_GENERAL	Urban	F	1011101000010101	0000000000000000	-	car	916.009	189.067	0.000	0.000	180.000	696.000	987.000	-0.000	Terminate	
Unknown	12.98359	10/29/0116 09:36.37	00000779	11.351	Inter625t49-0	-0.422	1	1	0.006	11.111	-1.5	0.243	0.000	D	F	2094.5	359.370	0.208	0.003	1503.169	559.888	0.021	-	-0.042	1.126	-	-	-	-	-	-	-	PAVEMENT_GENERAL	Urban	F	1011101000010101	0000000000000000	-	car	910.847	168.086	0.000	0.000	180.000	696.000	987.000	-0.000	Terminate	
Unknown	13.98361	10/29/0116 09:36.38	00000839	12.457	Inter625t49-0	-0.595	1	1	0.005	11.111	3.9	0.261	0.000	D	F	2232.6	359.053	0.208	-0.014	1502.997	571.793	0.021	-	0.088	1.088	-	-	-	-	-	-	-	PAVEMENT_GENERAL	Urban	F	1011101000010101	0000000000000000	-	car	905.187	153.910	0.000	0.000	180.000	696.000	987.000	-0.000	Terminate	
Unknown	14.98363	10/29/0116 09:36.39	00000899	13.512	Inter625t15-0	-0.713	1	2	0.000	11.111	5.1	0.257	0.000	D	F	2352.6	359.925	0.207	-0.028	1502.880	584.783	0.022	-	0.221	1.025	-	-	-	-	-	-	-	PAVEMENT_GENERAL	Urban	F	1011101000010101	0000000000000000	-	car	899.214	148.783	0.000	0.000	180.000	696.000	987.000	-0.000	Terminate	
Unknown	15.98365	10/29/0116 09:36.40	00000959	14.521	Inter625t15-0	-0.634	1	2	0.000	11.111	-1.2	0.261	0.000	D	F	2494.4	0.563	0.205	0.004	1502.959	598.802	0.022	-	-0.001	0.993	-	-	-	-	-	-	-	PAVEMENT_GENERAL	Urban	F	1011101000010101	0000000000000000	-	car	893.118	144.839	0.000	0.000	180.000	696.000	987.000	-0.000	Terminate	
Unknown	16.98367	10/29/0116 09:36.41	00001019	15.464	Inter614t1-0	-0.522	1	2	0.000	11.111	-1.6	0.213	0.000	D	F	2119.5	0.255	0.193	0.015	1503.071	613.809	0.022	-	-0.098	0.709	-	-	-	-	-	-	-	PAVEMENT_GENERAL	Urban	F	1011101000010101	0000000000000000	-	car	886.817	137.965	0.000	0.000	180.000	696.000	987.000	-0.000	Terminate	
Unknown	17.98369	10/29/0116 09:36.42	00001079	15.997	Inter614t1-0	-0.471	1	2	0.000	11.111	0.6	0.263	0.000	D	F	2029.5	0.149	0.199	-0.002	1503.122	629.530	0.024	-	0.009	0.629	-	-	-	-	-	-	-	PAVEMENT_GENERAL	Urban	F	1111101000010101	0000000000000000	-	car	880.381	136.707	0.000	0.000	180.000	696.000	987.000	-0.000	Terminate	
Unknown	18.98371	10/29/0116 09:36.43	00001139	16.632	Inter614t1-0	-0.412	1	2	0.000	11.111	0.1	0.229	0.000	D	F	2028.6	0.274	0.197	-0.002	1503.181	645.853	0.024	-	0.022	0.554	-	-	-	-	-	-	-	PAVEMENT_GENERAL	Urban	F	1011101000010101	0000000000000000	-	car	873.952	136.524	0.000	0.000	180.000	696.000	987.000	-0.000	Terminate	
Unknown	19.98373	10/29/0116 09:36.44	00001199	17.100	Inter614t1-0	-0.347	1	2	0.000	11.111	-0.8	0.212	0.000	D	F	2020.1	0.057	0.197	0.008	1503.246	662.724	0.024	-	-0.087	0.443	-	-	-	-	-	-	-	PAVEMENT_GENERAL	Urban	F	1011101000010101	0000000000000000	-	car	867.584	136.445	0.000	0.000	180.000	696.000	987.000	-0.000	Terminate	
Unknown	20.98375	10/29/0116 09:36.45	00001259	17.325	Inter614t1-0	-0.336	1	2	0.000	11.111	-0.1	0.166	0.000	D	F	1949.0	0.023	0.193	0.002	1503.257	679.965	0.026	-	-0.007	0.164	-	-	-	-	-	-	-	PAVEMENT_GENERAL	Urban	F	1111101000010101	0000000000000000	-	car	861.316	139.994	0.000	0.000	180.000	696.000	987.000	-0.000	Terminate	
Unknown	21.98377	10/29/0116 09:36.46	00001319	17.556	Inter614t1-0	-0.332	1	2	0.000	11.111	-0.1	0.176	0.000	D	F	1989.5	0.005	0.194	0.001	1503.261	697.402	0.026	-	-0.004	0.236	-	-	-	-	-	-	-	PAVEMENT_GENERAL	Urban	F	1011101000010101	0000000000000000	-	car	855.275	144.310	0.000	0.000	180.000	696.000	987.000	-0.000	Terminate	
Unknown	22.98379	10/29/0116 09:36.47	00001379	17.788	Inter614t1-0	-0.337	1	2	0.000	11.111	-0.3	0.178	0.000	D	F	2007.2	359.942	0.193	0.003	1503.256	715.074	0.026	-	-0.025	0.230	-	-	-	-	-	-	-	PAVEMENT_GENERAL	Urban	F	1011101000010101	0000000000000000	-	car	849.465	149.145	0.000	0.000	180.000	696.000	987.000	-0.000	Terminate	
Unknown	23.98381	10/29/0116 09:36.48	00001439	18.015	Inter614t1-0	-0.368	1	2	0.000	11.111	-1.4	0.178	0.000	D	F	2024.4	359.821	0.193	0.009	1503.225	732.976	0.026	-	-0.069	0.225	-	-	-	-	-	-	-	PAVEMENT_GENERAL	Urban	F	1011101000010101	0000000000000000	-	car	843.892	154.523	0.000	0.000	180.000	696.000	987.000	-0.000	Terminate	
Unknown	24.98383	10/29/0116 09:36.49	00001499	18.230	Inter614t1-0	-0.459	1	2	0.000	11.111	-0.5	0.178	0.000	D	F	2037.4	359.584	0.192	0.007	1503.134	751.100	0.026	-	-0.054	0.210	-	-	-	-	-	-	-	PAVEMENT_GENERAL	Urban	F	1011101000010101	0000000000000000	-	car	838.542	159.991	0.000	0.000	180.000	696.000	987.000	-0.000	Terminate	
Unknown	25.98385	10/29/0116 09:36.50	00001559	18.406	Inter614t1-0	-0.584	1	2	0.000	11.111	0.9	0.143	0.000	D	F	2005.7	359.681	0.189	-0.007	1503.009	769.431	0.026	-	0.055	0.056	-	-	-	-	-	-	-	PAVEMENT_GENERAL	Urban	F	1011101000010101	0000000000000000	-	car	833.464	170.440	0.000	0.000	180.000	696.000	987.000	-0.000	Terminate	
Unknown	26.98387	10/29/0116 09:36.51	00001619	18.393	Inter614t1-0	-0.639	1	2	0.000	11.111	3.0	0.109	0.000	D	F	1948.5	0.091	0.187	-0.024	1502.954	787.846	0.027	-	0.178	-0.129	-	-	-	-	-	-	-	PAVEMENT_GENERAL	Urban	F	1011101000010101	0000000000000000	-	car	828.807	189.282	0.000	0.000	180.000	696.000	987.000	-0.000	Terminate	
Unknown	27.98389	10/29/0116 09:36.52	00001679	18.278	Inter612t1-0	-0.527	1	2	0.000	11.111	-0.3	0.111	0.000	D	F	1945.2	0.647	0.189	-0.004	1503.067	806.180	0.027	-	0.068	-0.108	-	-	-	-	-	-	-	PAVEMENT_GENERAL	Urban	F	1011101000010101	0000000000000000	-	car	824.715	217.352	0.000	0.000	180.000	696.000	987.000	-0.000	Terminate	
Unknown	28.98391	10/29/0116 09:36.53	00001739	18.168	Inter612t1-0	-0.350	1	2	0.000	11.111	-2.4	0.108	0.000	D	F	1931.3	0.385	0.189	0.019	1503.243	824.402	0.027	-	-0.139	-0.115	-	-	-	-	-	-	-	PAVEMENT_GENERAL	Urban	F	1011101000010101	0000000000000000	-	car	821.096	236.793	0.000	0.000	180.000	696.000	987.000	-0.000	Terminate	
Unknown	29.98393	10/29/0116 09:36.54	00001799	18.047	Inter612t1-0	-0.290	1	2	0.000	11.111	-1.6	0.104	0.000	D	F	1916.8	0.000	0.189	0.012	1503.303	842.511	0.027	-	-0.099	-0.123	-	-	-	-	-	-	-	PAVEMENT_GENERAL	Urban	F	1011101000010101	0000000000000000	-	car	817.772	256.763	0.000	0.000	180.000	696.000	987.000	-0.000	Terminate	
Unknown	30.98395	10/29/0116 09:36.55	00001859	17.909	Inter612t1-0	-0.339	1	2	0.000	11.111	-3.0	0.099	0.000	D	F	1897.0	359.610	0.189	0.025	1503.254	860.490	0.027	-	-0.172	-0.142	-	-	-	-	-	-	-	PAVEMENT_GENERAL	Urban	F	1011101000010101	0000000000000000	-	car	814.748	281.623	0.000	0.000	180.000	696.000	987.000	-0.000	Terminate	
Unknown	31.98397	10/29/0116 09:36.56	00001919	17.768	Inter612t1-0	-0.519	1	2	0.000	11.111	4.3	0.097	0.000	D	F	1884.4	359.409	0.189	-0.026	1503.074	878.328	0.027	-	0.174	-0.141	-	-	-	-	-	-	-	PAVEMENT_GENERAL	Urban	F	1011101000010101	0000000000000000	-	car	811.998	318.119	0.000	0.000	180.000	696.000	987.000	-0.000	Terminate	
Unknown	32.98399	10/29/0116 09:36.57	00001979	17.622	Inter612t1-0	-0.557	1	2	0.000	11.111	1.1	0.099	0.000	D	F	1868.2	0.316	0.190	-0.015	1503.036	896.024	0.027	-	0.120	-0.148	-	-	-	-	-	-	-	PAVEMENT_GENERAL	Urban	F	1011101000010101	0000000000000000	-	car	809.788	431.335	0.000	0.000	180.000	696.000	987.000	-0.000	Terminate	
Unknown	33.98401	10/29/0116 09:36.58	00002039	17.474	Inter612t1-0	-0.459	1	2	0.000	11.111	-3.0	0.095	0.000	D	F	1851.3	0.263	0.190	0.017	1503.134	913.572	0.027	-	-0.116	-0.150	-	-	-	-	-	-	-	PAVEMENT_GENERAL	Urban	F	1011101000010101	0000000000000000	-	car	808.107	537.559	0.000	0.000	180.000	696.000	987.000	-0.000	Terminate	
Unknown	34.98403	10/29/0116 09:36.59	00002099	17.321	Inter612t1-0	-0.489	1	2	0.000	11.111	-3.1	0.093	0.000	D	F	1837.3	359.446	0.190	0.029	1503.105	930.970	0.027	-	-0.221	-0.159	-	-	-	-	-	-	-	PAVEMENT_GENERAL	Urban	F	1011101000010101	0000000000000000	-	car	806.688	590.321	0.000	0.000	180.000	696.000	987.000	-0.000	Terminate	
Unknown	35.98405	10/29/0116 09:37.00	00002159	17.170	Inter612t1-0	-0.715	1	2	0.000	11.111	4.8	0.090	0.000	D	F	1823.7	359.195	0.191	-0.030	1502.879	948.214	0.027	-	0.175	-0.151	-	-	-	-	-	-	-	PAVEMENT_GENERAL	Urban	F	1011101000010101	0000000000000000	-	car	805.451	756.048	0.000	0.000	180.000	696.000	987.000	-0.000	Terminate	
Unknown	36.98407	10/29/0116 09:37.01	00002219	17.021	Inter612t1-0	-0.813	1	2	0.000	11.111	5.3	0.092	0.000	D	F	1809.7	0.260	0.190	-0.043	1502.780	965.309	0.027	-	0.331	-0.148	-	-	-	-	-	-	-	PAVEMENT_GENERAL	Urban	F	1011101000010101	0000000000000000	-	car	804.712	2116.617	0.000	0.000	180.000	696.000	987.000	-0.000	Terminate	
Unknown	37.98409	10/29/0116 09:37.02	00002279	16.870	Inter612t1-0	-0.585	1	2	0.000	11.111	3.1	0.092	0.000	D	F	1795.7	1.369	0.190	-0.031	1503.008	982.253	0.027	-	0.246	-0.152	-	-	-	-	-	-	-	PAVEMENT_GENERAL	Urban	F	1011101000010101	0000000000000000	-	car	804.663	-2649.464	0.000	0.000	180.000	696.000	987.000	-0.000	Terminate	
Unknown	38.98411	10/29/0116 09:37.03	00002339	16.712	Inter612t1-0	-0.175	1	2	0.000	11.111	-4.0	0.086	0.000	D	F	1778.9	1.144	0.191	0.032	1503.418	999.039	0.027	-	-0.232	-0.156	-	-	-	-	-	-	-	PAVEMENT_GENERAL	Urban	F	1111101000010101	0000000000000000	-	car	805.148	-1381.898	0.000	0.000	180.000	696.000	987.000	-0.000	Terminate	
Unknown	39.98413	10/29/0116 09:37.04	00002399	16.561	Inter613t1-0	-0.004	1	2	0.000	11.111	-4.9	0.088	0.000	D	F	1770.4	359.885	0.191	0.040	1503.590	1015.674	0.027	-	-0.332	-0.144	-	-	-	-	-	-	-	PAVEMENT_GENERAL	Urban	F	1011101000010101	0000000000000000	-	car	805.739	-1453.537	0.000	0.000	180.000	696.000	987.000	-0.000	Terminate	
Unknown	40.98415	10/29/0116 09:37.05	00002459	16.423	Inter613t1-0	-0.156	1	2	0.000	11.111	-1.0	0.088	0.000	D	F	1760.9	359.102	0.192	0.008	1503.437	1032.164	0.027	-	-0.090	-0.133	-	-	-	-	-	-	-	PAVEMENT_GENERAL	Urban	F	1011101000010101	0000000000000000	-	car	806.340	-1221.492	0.000	0.000	180.000	696.000	987.000	-0.000	Terminate	
Unknown	41.98417	10/29/0116 09:37.06	00002519	16.281	Inter613t1-0	-0.441	1	2	0.000	11.111	-0.7	0.088	0.000	D	F	1743.1	358.859	0.192	0.008	1503.152	1048.515	0.027	-	-0.058	-0.142	-	-	-	-	-	-	-	PAVEMENT_GENERAL	Urban	F	1011101000010101	0000000000000000	-	car	807.133	-883.359	0.000	0.000	180.000	696.000	987.000	-0.000	Terminate	
Unknown	42.98419	10/29/0116 09:37.07	00002579	16.146	Inter613t1-0	-0.729	1	2	0.000	11.111	5.0	0.088	0.000	D	F	1733.5	359.360	0.192	-0.040	1502.864	1064.725	0.027	-	0.283	-0.133	-	-	-	-	-	-	-	PAVEMENT_GENERAL	Urban	F	1011101000010101	0000000000000000	-	car	808.240	-590.543	0.000	0.000	180.000	696.000	987.000	-0.000	Terminate	
Unknown	43.98421	10/29/0116 09:37.08	00002639	16.018	Inter613t1-0	-0.795	1	2	0.000	11.111	3.7	0.088	0.000	D	F	1721.6	0.201	0.192	-0.028	1502.798	1080.806	0.027	-	0.212	-0.131	-	-	-	-	-	-	-	PAVEMENT_GENERAL	Urban	F	1011101000010101	0000000000000000	-	car	809.874	-424.983	0.000	0.000	180.000	696.000	987.000	-0.000	Terminate	
Unknown	44.98423	10/29/0116 09:37.09	00002699	15.891	Inter613t1-0	-0.695	1	2	0.000	11.111	-0.6	0.086	0.000	D	F	1714.0	0.378	0.193	0.003	1502.898	1096.760	0.027	-	-0.034	-0.122	-	-	-	-	-	-	-	PAVEMENT_GENERAL	Urban	F	1011101000010101	0000000000000000	-	car	811.970	-361.570	0.000	0.000	180.000	696.000	987.000	-0.000	Terminate	
Unknown	45.98425	10/29/0116 09:37.10	00002759	15.769	Inter613t1-0	-0.609	1	2	0.000	11.111	-0.5	0.090	0.000	D	F	1706.2	0.234	0.193	0.005	1502.984	1112.589	0.027	-	-0.030	-0.110	-	-	-	-	-	-	-	PAVEMENT_GENERAL	Urban	F	1011101000010101	0000000000000000	-	car	814.338	-327.225	0.000	0.000	180.000	696.000	987.000	-0.000	Terminate	
Unknown	46.98427	10/29/0116 09:37.11	00002819	15.663	Inter613t1-0	-0.563	1	2	0.000	11.111	-1.6	0.090	0.000	D	F	1699.4	0.053	0.193	0.011	1503.031	1128.303	0.027	-	-0.082	-0.100	-	-	-	-	-	-	-	PAVEMENT_GENERAL	Urban	F	1011101000010101	0000000000000000	-	car	816.948	-300.851	0.000	0.000	180.000	696.000	987.000	-0.000	Terminate	
Unknown	47.98429	10/29/0116 09:37.12	00002879	15.568	Inter613t1-0	-0.589	1	2	0.000	11.111	-1.6	0.090	0.000	D	F	1689.7	359.731	0.193	0.011	1503.004	1143.918	0.027	-	-0.087	-0.098	-	-	-	-	-	-	-	PAVEMENT_GENERAL	Urban	F	1011101000010101	0000000000000000	-	car	819.759	-282.716	0.000	0.000	180.000	696.000	987.000	-0.000	Terminate	
Unknown	48.98431	10/29/0116 09:37.13	00002939	15.470	Inter613t1-0	-0.702	1	2	0.000	11.111	-1.6	0.090	0.000	D	F	1682.4	359.409	0.193	0.012	1502.891	1159.436	0.027	-	-0.089	-0.094	-	-	-	-	-	-	-	PAVEMENT_GENERAL	Urban	F	1111101000010101	0000000000000000	-	car	822.752	-267.396	0.000	0.000	180.000	696.000	987.000	-0.000	Terminate	
Unknown	49.98433	10/29/0116 09:37.14	00002999	15.396	Inter613t1-0	-0.860	1	2	0.000	11.111	2.9	0.093	0.000	D	F	1681.9	359.537	0.194	-0.018	1502.733	1174.868	0.027	-	0.125	-0.067	-	-	-	-	-	-	-	PAVEMENT_GENERAL	Urban	F	1011101000010101	0000000000000000	-	car	825.960	-245.041	0.000	0.000	180.000	696.000	987.000	-0.000	Terminate	
Unknown	50.98435	10/29/0116 09:37.15	00003059	15.385	Inter613t1-0	-0.892	1	2	0.000	11.111	5.5	0.111	0.000	D	F	1707.1	0.361	0.194	-0.037	1502.702	1190.247	0.026	-	0.280	0.018	-	-	-	-	-	-	-	PAVEMENT_GENERAL	Urban	F	1011101000010101	0000000000000000	-	car	829.552	-215.309	0.000	0.000	180.000	696.000	987.000	-0.000	Terminate	
Unknown	51.98437	10/29/0116 09:37.16	00003119	15.050	Inter615t9-0	-0.696	1	2	0.000	11.111	-10.4	0.000	0.000	D	F	1478.1	0.696	0.186	0.057	1502.897	1205.531	0.029	-	-0.419	-0.579	-	-	-	-	-	-	-	PAVEMENT_GENERAL	Urban	F	1011101000010101	0000000000000000	-	car	833.606	-202.803	0.000	0.000	180.000	696.000	987.000	-0.000	Terminate	
Unknown	52.98439	10/29/0116 09:37.17	00003179	13.371	Inter615t31-0	-0.791	1	1	356.393	11.111	-23.1	0.000	0.191	D	F	1281.6	356.364	0.139	0.167	1502.627	1220.017	0.034	-	-1.239	-2.931	-	-	-	22	4.079	54.538	4.079	PAVEMENT_GENERAL	Urban	F	1011101000010101	0000000000000000	-	car	837.250	-289.838	0.000	0.000	180.000	696.000	987.000	-0.000	Terminate	
Unknown	53.98441	10/29/0116 09:37.18	00003239	9.637	Inter615t31-0	-1.240	1	1	354.584	11.111	-0.3	0.000	0.263	D	F	913.2	353.314	0.157	0.014	1501.554	1231.545	0.038	-	-0.139	-3.724	-	-	-	22	4.459	42.969	4.459	PAVEMENT_GENERAL	Urban	F	1011101000010101	0000000000000000	-	car	839.495	-491.927	0.000	0.000	180.000	696.000	987.000	-0.000	Terminate	
Unknown	54.98443	10/29/0116 09:37.19	00003299	7.457	Inter615t31-0	-1.410	1	1	355.223	11.111	22.0	0.000	0.030	D	F	731.2	354.422	0.192	-0.066	1500.653	1239.760	0.030	-	0.461	-0.872	-	-	-	22	4.646	34.645	4.646	PAVEMENT_GENERAL	Urban	F	1011101000010101	0000000000000000	-	car	841.058	-548.746	0.000	0.000	180.000	696.000	987.000	-0.000	Terminate	
Unknown	55.98445	10/29/0116 09:37.20	00003359	6.865	Inter615t31-0	-1.136	1	1	356.337	11.111	13.9	0.000	0.009	D	F	674.7	357.433	0.196	-0.025	1500.211	1246.891	0.029	L	0.204	-0.529	-	-	-	22	4.015	27.565	4.015	PAVEMENT_GENERAL	Urban	F	1011101000110101	0000000000000000	-	car	842.802	-463.998	0.000	0.000	180.000	696.000	987.000	-0.000	Terminate	
Unknown	56.98447	10/29/0116 09:37.21	00003419	6.400	Inter615t31-0	-0.794	1	1	356.903	11.111	10.0	0.000	0.000	D	F	629.0	358.790	0.198	-0.021	1500.025	1253.520	0.028	L	0.147	-0.465	-	-	-	22	3.279	20.984	3.279	PAVEMENT_GENERAL	Urban	F	1111101000110101	0000000000000000	-	car	844.688	-448.101	0.000	0.000	180.000	696.000	987.000	-0.000	Terminate	
Unknown	57.98449	10/29/0116 09:37.22	00003479	5.276	Inter615t31-0	-0.519	1	1	356.903	11.111	0.5	0.000	0.143	D	F	508.1	359.725	0.157	0.004	1499.975	1259.535	0.031	L	-0.011	-2.192	-	-	-	22	2.838	14.975	2.838	PAVEMENT_GENERAL	Urban	F	1111101000110101	0000000000000000	-	car	846.552	-507.002	0.000	0.000	180.000	696.000	987.000	-0.000	Terminate	
Unknown	58.98451	10/29/0116 09:37.23	00003539	2.750	Inter615t31-0	-0.318	1	1	356.903	11.111	1.6	0.000	0.179	D	F	477.5	359.768	0.162	-0.001	1499.958	1263.579	0.033	L	0.005	-2.645	-	-	-	22	3.977	10.936	3.977	PAVEMENT_GENERAL	Urban	F	1111101000110101	0000000000000000	-	car	847.843	-959.117	0.000	0.000	180.000	696.000	987.000	-0.000	Terminate	
Unknown	59.98453	10/29/0116 09:37.24	00003599	0.433	Inter615t31-0	-0.241	1	1	356.903	11.111	0.9	0.000	0.164	D	F	477.5	359.812	0.196	0.000	1499.953	1265.081	0.032	L	-0.001	-1.535	-	-	-	22	21.816	9.436	21.816	PAVEMENT_GENERAL	Urban	F	1011101000110101	0000000000000000	-	car	848.329	-6057.591	0.000	0.000	180.000	696.000	987.000	-0.000	Terminate	
Unknown	60.98455	10/29/0116 09:37.25	00003659	0.147	Inter615t31-0	-0.232	1	1	356.903	11.111	0.9	0.000	0.018	D	F	477.5	359.815	0.220	0.000	1499.953	1265.268	0.027	L	0.000	0.097	-	-	-	22	46.949	6.895	46.949	PAVEMENT_GENERAL	Urban	F	1011101000110101	0000000000000000	-	car	848.389	-17827.211	0.000	0.000	180.000	696.000	987.000	-0.000	Terminate	
Unknown	61.98457	10/29/0116 09:37.26	00003719	0.342	Inter615t31-0	-0.219	1	1	356.903	11.111	0.9	0.000	0.000	D	F	477.5	359.820	0.206	-0.000	1499.952	1265.515	0.026	L	0.000	0.160	-	-	-	22	19.774	6.755	-	PAVEMENT_GENERAL	Urban	F	1011101000110101	0000000000000000	-	car	848.469	-7657.042	0.000	0.000	180.000	696.000	987.000	-0.000	Terminate	
Unknown	62.98459	10/29/0116 09:37.27	00003779	0.453	Inter615t31-0	-0.198	1	1	356.903	11.111	1.2	0.000	0.000	D	F	477.5	359.829	0.204	-0.000	1499.951	1265.919	0.026	L	0.000	0.073	-	-	-	22	17.663	8.000	-	PAVEMENT_GENERAL	Urban	F	1011101000110101	0000000000000000	-	car	848.601	-5766.143	0.000	0.000	180.000	696.000	987.000	-0.000	Terminate	
Unknown	63.98461	10/29/0116 09:37.28	00003839	0.641	Inter615t31-0	-0.171	1	1	356.903	11.111	1.0	0.028	0.000	D	F	626.4	359.840	0.207	-0.000	1499.950	1266.444	0.025	L	0.000	0.272	-	-	-	22	17.362	11.128	-	PAVEMENT_GENERAL	Urban	F	1011101000110101	0000000000000000	-	car	848.772	-4066.059	0.000	0.000	180.000	696.000	987.000	-0.000	Terminate	
Unknown	64.98463	10/29/0116 09:37.29	00003899	1.554	Inter615t31-0	-0.118	1	1	356.903	11.111	3.1	0.081	0.000	D	F	1132.5	359.878	0.231	-0.001	1499.949	1267.448	0.021	L	0.007	1.725	-	-	-	22	10.183	15.826	-	PAVEMENT_GENERAL	Urban	F	1011101000110101	0000000000000000	-	car	849.101	-1668.962	0.000	0.000	180.000	696.000	987.000	-0.000	Terminate	
Unknown	65.98465	10/29/0116 09:37.30	00003959	3.061	Inter615t11-0	-0.111	LT1	2	0.000	11.111	3.3	0.062	0.000	D	F	1174.0	0.044	0.203	-0.002	1499.951	1269.844	0.020	L	0.012	0.923	-	-	-	22	7.660	23.444	-	PAVEMENT_GENERAL	Urban	F	1011101000110101	0000000000000000	-	car	849.895	-834.890	0.000	0.000	180.000	696.000	987.000	-0.000	Terminate	
Unknown	66.98467	10/29/0116 09:37.31	00004019	3.588	Inter615t11-0	-0.096	LT1	2	0.000	11.111	3.2	0.041	0.000	D	F	1135.0	0.271	0.206	-0.002	1499.967	1273.225	0.024	L	0.014	0.283	-	-	-	22	8.217	29.486	-	PAVEMENT_GENERAL	Urban	F	1011101000110101	0000000000000000	-	car	851.038	-697.856	0.000	0.000	180.000	696.000	987.000	-0.000	Terminate	
Unknown	67.98470	10/29/0116 09:37.32	00004079	4.341	Inter615t11-0	-0.092	LT1	2	0.000	11.111	-18.3	0.115	0.000	D	F	1527.7	359.849	0.220	0.020	1499.970	1277.068	0.021	L	-0.165	1.359	-	-	-	22	8.506	36.922	-	PAVEMENT_GENERAL	Urban	F	1011101000110101	0000000000000000	-	car	852.338	-582.876	0.000	0.000	180.000	696.000	987.000	-0.000	Terminate	
Unknown	68.98471	10/29/0116 09:37.33	00004139	5.681	Inter615t65-0	-0.268	1	1	357.452	11.111	-54.4	0.108	0.000	D	F	1566.1	357.030	0.211	0.103	1499.786	1282.081	0.020	L	-0.719	1.102	-	-	-	22	7.797	44.292	-	PAVEMENT_GENERAL	Urban	F	1011101000110101	0000000000000000	-	car	853.880	-508.604	0.000	0.000	180.000	696.000	987.000	-0.000	Terminate	
Unknown	69.98473	10/29/0116 09:37.34	00004199	6.370	Inter615t65-0	-0.147	1	1	340.082	11.111	-128.1	0.101	0.000	D	F	1389.6	346.548	0.198	0.254	1498.770	1288.046	0.024	L	-1.894	0.485	-	-	-	22	8.248	52.546	-	PAVEMENT_GENERAL	Urban	F	1011101000110101	0000000000000000	-	car	855.002	-1085.189	0.000	0.000	180.000	696.000	987.000	-0.000	Terminate	
Unknown	70.98476	10/29/0116 09:37.35	00004259	7.003	Inter615t65-0	0.012	1	1	325.800	11.111	-136.6	0.099	0.000	D	F	1428.4	329.451	0.190	0.307	1495.944	1294.104	0.024	L	-2.299	0.395	-	-	-	22	8.884	62.218	-	PAVEMENT_GENERAL	Urban	F	1111101000110101	0000000000000000	-	car	854.508	735.690	0.000	0.000	180.000	696.000	987.000	-0.000	Terminate	
Unknown	71.98477	10/29/0116 09:37.36	00004319	7.454	Inter615t65-0	-0.343	1	1	309.296	11.111	-152.2	0.106	0.000	D	F	1480.1	308.510	0.183	0.370	1490.944	1299.280	0.025	L	-2.834	0.326	-	-	-	22	9.814	73.153	-	PAVEMENT_GENERAL	Urban	F	1011101000110101	0000000000000000	-	car	851.722	228.226	0.000	0.000	180.000	696.000	987.000	-0.000	Terminate	
Unknown	72.98479	10/29/0116 09:37.37	00004379	8.043	Inter615t65-0	-0.743	1	1	280.776	11.111	-124.5	0.132	0.000	D	F	1594.1	287.605	0.186	0.337	1483.961	1302.520	0.024	L	-2.644	0.541	-	-	-	22	10.147	81.615	-	PAVEMENT_GENERAL	Urban	F	1011101000110101	0000000000000000	-	car	846.425	136.241	0.000	0.000	180.000	696.000	987.000	-0.000	Terminate	
Unknown	73.98481	10/29/0116 09:37.38	00004439	8.737	Inter615t3-3	0.183	1	2	270.000	11.111	-15.1	0.146	0.000	D	F	1675.4	274.694	0.206	0.030	1475.671	1303.714	0.023	L	-0.362	0.699	-	-	-	22	10.932	95.513	-	PAVEMENT_GENERAL	Urban	F	1011101000110101	0000000000000000	-	car	839.184	107.609	0.000	0.000	180.000	696.000	987.000	-0.000	Terminate	
Unknown	74.98483	10/29/0116 09:37.39	00004499	9.659	Inter615t19-0	0.668	1	1	270.064	11.111	-21.5	0.201	0.000	D	F	1894.5	271.830	0.210	0.076	1466.530	1304.200	0.021	-	-0.583	1.095	-	-	-	22	11.022	106.460	-	PAVEMENT_GENERAL	Urban	F	1011101000010101	0000000000000000	-	car	830.906	94.317	0.000	0.000	180.000	696.000	987.000	-0.000	Terminate	
Unknown	75.98486	10/29/0116 09:37.40	00004559	10.664	Inter615t19-0	0.711	1	1	270.095	11.111	2.2	0.201	0.000	D	F	1964.8	269.748	0.208	-0.019	1456.358	1304.253	0.022	-	0.042	0.942	-	-	-	22	10.916	116.408	-	PAVEMENT_GENERAL	Urban	F	1011101000010101	0000000000000000	-	car	821.530	83.323	0.000	0.000	180.000	696.000	987.000	-0.000	Terminate	
Unknown	76.98487	10/29/0116 09:37.41	00004619	11.609	Inter615t19-0	0.627	1	1	270.097	11.111	-0.3	0.210	0.000	D	F	2081.3	269.519	0.207	0.002	1445.221	1304.186	0.022	-	-0.024	0.917	-	-	-	22	10.801	125.390	-	PAVEMENT_GENERAL	Urban	F	1011101000010101	0000000000000000	-	car	811.237	75.616	0.000	0.000	180.000	696.000	987.000	-0.000	Terminate	
Unknown	77.98489	10/29/0116 09:37.42	00004679	12.483	Inter615t19-0	0.495	1	1	270.061	11.111	-5.7	0.206	0.000	D	F	2174.1	269.320	0.206	0.029	1433.169	1304.077	0.022	-	-0.196	0.837	-	-	-	22	10.691	133.458	-	PAVEMENT_GENERAL	Urban	F	1011101000010101	0000000000000000	-	car	800.109	69.424	0.000	0.000	180.000	696.000	987.000	-0.000	Terminate	
Unknown	78.98492	10/29/0116 09:37.43	00004739	13.292	Inter615t19-0	0.212	1	1	270.061	11.111	-1.4	0.203	0.000	D	F	1974.9	268.364	0.204	0.012	1420.283	1303.808	0.023	-	-0.116	0.754	-	-	-	22	10.583	140.673	-	PAVEMENT_GENERAL	Urban	F	1011101000010101	0000000000000000	-	car	788.181	63.947	0.000	0.000	180.000	696.000	987.000	-0.000	Terminate	
Unknown	79.98493	10/29/0116 09:37.44	00004799	13.926	Inter615t1-2	-0.170	1	2	270.000	11.111	3.2	0.203	0.000	D	F	1850.2	268.593	0.202	-0.019	1406.668	1303.430	0.024	-	0.136	0.584	-	-	-	22	10.536	146.723	-	PAVEMENT_GENERAL	Urban	F	1011101000010101	0000000000000000	-	car	775.571	60.324	0.000	0.000	180.000	696.000	987.000	-0.000	Terminate	
Unknown	80.98495	10/29/0116 09:37.45	00004859	14.492	Inter616t1-2	-0.430	1	2	270.000	11.111	4.4	0.205	0.000	D	F	1874.4	269.391	0.201	-0.026	1392.458	1303.177	0.024	-	0.207	0.549	-	-	-	22	10.442	151.325	-	PAVEMENT_GENERAL	Urban	F	1011101000010101	0000000000000000	-	car	762.508	57.512	0.000	0.000	180.000	696.000	987.000	-0.000	Terminate	
Unknown	81.98497	10/29/0116 09:37.46	00004919	15.020	Inter616t1-2	-0.479	1	2	270.000	11.111	1.7	0.203	0.000	D	F	1897.1	270.189	0.200	-0.012	1377.699	1303.128	0.024	-	0.116	0.511	-	-	-	22	10.292	154.590	-	PAVEMENT_GENERAL	Urban	F	1011101000010101	0000000000000000	-	car	749.073	55.057	0.000	0.000	180.000	696.000	987.000	-0.000	Terminate	
Unknown	82.98499	10/29/0116 09:37.47	00004979	15.589	Inter616t1-2	-0.422	1	2	270.000	11.111	-1.9	0.222	0.000	D	F	1971.2	270.143	0.200	0.014	1362.403	1303.185	0.024	-	-0.088	0.586	-	-	-	22	10.047	156.626	-	PAVEMENT_GENERAL	Urban	F	1111101000010101	0000000000000000	-	car	735.249	52.266	0.000	0.000	180.000	696.000	987.000	-0.000	Terminate	
Unknown	83.98502	10/29/0116 09:37.48	00005039	16.151	Inter616t1-2	-0.400	1	2	270.000	11.111	0.3	0.219	0.000	D	F	1992.9	270.056	0.198	-0.001	1346.529	1303.207	0.024	-	0.005	0.539	-	-	-	22	9.750	157.473	-	PAVEMENT_GENERAL	Urban	F	1011101000010101	0000000000000000	-	car	720.949	49.656	0.000	0.000	180.000	696.000	987.000	-0.000	Terminate	
Unknown	84.98503	10/29/0116 09:37.49	00005099	16.667	Inter616t1-2	-0.351	1	2	270.000	11.111	1.4	0.220	0.000	D	F	2016.3	270.336	0.197	-0.011	1330.117	1303.256	0.024	-	0.085	0.500	-	-	-	22	9.434	157.239	211.456	PAVEMENT_GENERAL	Urban	F	1011101000010101	0000000000000000	-	car	706.246	47.490	0.000	0.000	180.000	696.000	987.000	-0.000	Terminate	
Unknown	85.98505	10/29/0116 09:37.50	00005159	17.153	Inter616t1-2	-0.218	1	2	270.000	11.111	1.2	0.219	0.000	D	F	2039.4	270.597	0.196	-0.009	1313.205	1303.389	0.024	-	0.073	0.469	-	-	-	22	9.095	156.006	90.223	PAVEMENT_GENERAL	Urban	F	1011101000010101	0000000000000000	-	car	691.214	45.529	0.000	0.000	180.000	696.000	987.000	-0.000	Terminate	
Unknown	86.98507	10/29/0116 09:37.51	00005219	17.616	Inter616t1-2	-0.023	1	2	270.000	11.111	-5.5	0.222	0.000	D	F	2070.0	270.495	0.196	0.037	1295.821	1303.583	0.024	-	-0.251	0.459	-	-	-	22	8.733	153.832	59.924	PAVEMENT_GENERAL	Urban	F	1011101000010101	0000000000000000	-	car	675.881	43.584	0.000	0.000	180.000	696.000	987.000	-0.000	Terminate	
Unknown	87.98509	10/29/0116 09:37.52	00005279	18.058	Inter616t1-2	-0.028	1	2	270.000	11.111	-5.9	0.229	0.000	D	F	2108.5	269.318	0.195	0.048	1277.983	1303.579	0.025	-	-0.382	0.444	-	-	-	22	8.356	150.900	45.708	PAVEMENT_GENERAL	Urban	F	1111101000010101	0000000000000000	-	car	660.156	41.351	0.000	0.000	180.000	696.000	987.000	-0.000	Terminate	
Unknown	88.98512	10/29/0116 09:37.53	00005339	18.501	Inter616t1-2	-0.342	1	2	270.000	11.111	0.6	0.231	0.000	D	F	2141.8	268.871	0.194	-0.001	1259.705	1303.265	0.025	-	0.011	0.433	-	-	-	22	7.961	147.284	37.269	PAVEMENT_GENERAL	Urban	F	1011101000010101	0000000000000000	-	car	644.004	39.485	0.000	0.000	180.000	696.000	987.000	-0.000	Terminate	
Unknown	89.98513	10/29/0116 09:37.54	00005399	18.926	Inter616t1-2	-0.676	1	2	270.000	11.111	-0.9	0.233	0.000	D	F	2174.4	269.109	0.193	-0.002	1240.993	1302.931	0.025	-	0.018	0.419	-	-	-	22	7.557	143.027	31.475	PAVEMENT_GENERAL	Urban	F	1011101000010101	0000000000000000	-	car	627.585	37.991	0.000	0.000	180.000	696.000	987.000	-0.000	Terminate	
Unknown	90.98515	10/29/0116 09:37.55	00005459	19.308	Inter616t1-2	-0.963	1	2	270.000	11.111	5.9	0.169	0.000	D	F	2111.1	269.505	0.187	-0.050	1221.865	1302.644	0.025	-	0.360	0.196	-	-	-	22	7.157	138.182	27.131	PAVEMENT_GENERAL	Urban	F	1011101000010101	0000000000000000	-	car	610.964	36.716	0.000	0.000	180.000	696.000	987.000	-0.000	Terminate	
Unknown	91.98518	10/29/0116 09:37.57	00005519	19.220	Inter616t1-2	-0.946	1	2	270.000	11.111	5.9	0.099	0.000	D	F	1557.0	270.836	0.185	-0.060	1202.579	1302.661	0.027	-	0.458	-0.193	-	-	-	22	6.921	133.032	25.933	PAVEMENT_GENERAL	Urban	F	1011101000010101	0000000000000000	-	car	594.519	36.784	0.000	0.000	180.000	696.000	987.000	-0.000	Terminate	
Unknown	92.98519	10/29/0116 09:37.58	00005579	19.060	Inter617t1-2	-0.570	1	2	270.000	11.111	-1.8	0.111	0.000	D	F	1567.9	271.088	0.188	0.021	1183.447	1303.037	0.027	-	-0.158	-0.134	-	-	-	22	6.711	127.915	25.110	PAVEMENT_GENERAL	Urban	F	1011101000010101	0000000000000000	-	car	578.574	36.635	0.000	0.000	180.000	696.000	987.000	-0.000	Terminate	
Unknown	93.98521	10/29/0116 09:37.59	00005639	18.932	Inter617t1-2	-0.263	1	2	270.000	11.111	-3.9	0.115	0.000	D	F	1573.4	270.674	0.188	0.028	1164.455	1303.344	0.027	-	-0.200	-0.116	-	-	-	22	6.488	122.835	24.325	PAVEMENT_GENERAL	Urban	F	1011101000010101	0000000000000000	-	car	562.905	36.167	0.000	0.000	180.000	696.000	987.000	-0.000	Terminate	
Unknown	94.98523	10/29/0116 09:38.00	00005699	18.812	Inter617t1-2	-0.177	1	2	270.000	11.111	-3.7	0.111	0.000	D	F	1558.6	269.724	0.188	0.036	1145.582	1303.430	0.027	-	-0.279	-0.128	-	-	-	22	6.293	118.388	34.519	PAVEMENT_GENERAL	Urban	F	1011101000010101	0000000000000000	-	car	547.415	35.465	0.000	0.000	180.000	696.000	987.000	-0.000	Terminate	
Unknown	95.98525	10/29/0116 09:38.01	00005759	18.671	Inter617t1-2	-0.334	1	2	270.000	11.111	4.1	0.099	0.000	D	F	1513.8	269.499	0.187	-0.031	1126.838	1303.273	0.027	-	0.173	-0.171	-	-	-	22	6.213	116.010	89.980	PAVEMENT_GENERAL	Urban	F	1011101000010101	0000000000000000	-	car	532.103	35.128	0.000	0.000	180.000	696.000	987.000	-0.000	Terminate	
Unknown	96.98528	10/29/0116 09:38.02	00005819	18.504	Inter617t1-2	-0.352	1	2	270.000	11.111	-2.6	0.099	0.000	D	F	1504.9	270.411	0.187	-0.001	1108.249	1303.255	0.027	-	0.044	-0.174	-	-	-	-	-	-	-	PAVEMENT_GENERAL	Urban	F	1111101000010101	0000000000000000	-	car	517.224	35.425	0.000	0.000	180.000	696.000	987.000	-0.000	Terminate	
Unknown	97.98529	10/29/0116 09:38.03	00005879	18.341	Inter617t1-2	-0.336	1	2	270.000	11.111	-4.2	0.097	0.000	D	F	1504.0	269.569	0.188	0.037	1089.828	1303.271	0.027	-	-0.285	-0.159	-	-	-	-	-	-	-	PAVEMENT_GENERAL	Urban	F	1011101000010101	0000000000000000	-	car	502.742	34.945	0.000	0.000	180.000	696.000	987.000	-0.000	Terminate	
Unknown	98.98531	10/29/0116 09:38.04	00005939	18.173	Inter617t1-2	-0.572	1	2	270.000	11.111	4.2	0.083	0.000	D	F	1460.8	269.020	0.188	-0.010	1071.572	1303.035	0.027	-	0.085	-0.180	-	-	-	-	-	-	-	PAVEMENT_GENERAL	Urban	F	1011101000010101	0000000000000000	-	car	488.489	34.637	0.000	0.000	180.000	696.000	987.000	-0.000	Terminate	
Unknown	99.98534	10/29/0116 09:38.05	00005999	16.147	Inter617t1-2	-0.676	1	2	270.000	11.111	6.6	0.000	0.493	D	F	1024.1	270.852	0.045	-0.077	1053.898	1302.931	0.040	-	0.549	-6.038	-	-	-	-	-	-	-	PAVEMENT_GENERAL	Urban	F	1011101000010101	0000000000000000	-	car	475.032	39.769	0.000	0.000	180.000	696.000	987.000	-0.000	Terminate	
Unknown	100.98535	10/29/0116 09:38.06	00006059	9.432	Inter617t1-2	-0.414	1	2	270.000	11.111	1.0	0.000	0.642	D	F	824.5	271.715	-0.200	-0.015	1040.997	1303.193	0.042	-	0.087	-7.586	-	-	-	-	-	-	-	PAVEMENT_GENERAL	Urban	F	1011101000010101	0000000000000000	-	car	465.616	68.881	0.000	0.000	180.000	696.000	987.000	-0.000	Terminate	
Unknown	101.98537	10/29/0116 09:38.07	00006119	5.477	Inter617t1-2	-0.240	1	2	270.000	11.111	-4.8	0.000	0.000	D	F	538.7	271.309	0.191	0.014	1034.312	1303.367	0.028	-	-0.062	-0.463	-	-	-	-	-	-	-	PAVEMENT_GENERAL	Urban	F	1011101000010101	0000000000000000	-	car	460.828	117.751	0.000	0.000	180.000	696.000	987.000	-0.000	Terminate	
Unknown	102.98539	10/29/0116 09:38.08	00006179	5.017	Inter617t1-2	-0.147	1	2	270.000	11.111	-2.6	0.000	0.000	D	F	493.1	270.937	0.199	0.004	1029.066	1303.460	0.028	-	-0.024	-0.459	-	-	-	-	-	-	-	PAVEMENT_GENERAL	Urban	F	1111101000010101	0000000000000000	-	car	457.074	127.666	0.000	0.000	180.000	696.000	987.000	-0.000	Terminate	
Unknown	103.98541	10/29/0116 09:38.09	00006239	4.718	Inter617t1-2	-0.081	1	2	270.000	11.111	0.4	0.101	0.000	D	F	1279.5	270.788	0.229	-0.000	1024.262	1303.526	0.026	-	0.006	0.674	-	-	-	-	-	-	-	PAVEMENT_GENERAL	Urban	F	1011101000010101	0000000000000000	-	car	453.650	135.378	0.000	0.000	180.000	696.000	987.000	-0.000	Terminate	
Unknown	104.98544	10/29/0116 09:38.10	00006299	6.205	Inter617t1-2	0.008	1	2	270.000	11.111	2.8	0.194	0.000	D	F	1651.0	271.026	0.215	-0.005	1018.862	1303.615	0.019	-	0.038	1.563	-	-	-	-	-	-	-	PAVEMENT_GENERAL	Urban	F	1011101000010101	0000000000000000	-	car	449.841	103.376	0.000	0.000	180.000	696.000	987.000	-0.000	Terminate	
Unknown	105.98545	10/29/0116 09:38.11	00006359	7.618	Inter617t1-2	0.135	1	2	270.000	11.111	-3.8	0.201	0.000	D	F	1757.2	270.938	0.216	0.006	1011.938	1303.742	0.020	-	-0.067	1.389	-	-	-	-	-	-	-	PAVEMENT_GENERAL	Urban	F	1111101000010101	0000000000000000	-	car	445.013	84.105	0.000	0.000	180.000	696.000	987.000	-0.000	Terminate	
Unknown	106.98547	10/29/0116 09:38.12	00006419	8.981	Inter617t1-2	0.208	1	2	270.000	11.111	-5.7	0.213	0.000	D	F	1870.5	270.245	0.213	0.019	1003.621	1303.815	0.020	-	-0.140	1.266	-	-	-	-	-	-	-	PAVEMENT_GENERAL	Urban	F	1011101000010101	0000000000000000	-	car	439.231	70.515	0.000	0.000	180.000	696.000	987.000	-0.000	Terminate	
Unknown	107.98550	10/29/0116 09:38.13	00006479	10.161	Inter618t1-0	-0.475	1	2	270.000	24.444	1.1	0.212	0.000	D	F	1953.7	270.100	0.246	-0.018	994.036	1303.825	0.022	-	0.028	1.112	-	-	-	32	4.116	41.829	-	FREEWAY_SMOOTH	Urban	F	1011101000010101	0000000000000000	-	car	432.615	62.252	0.000	0.000	180.000	696.000	987.000	-0.000	Terminate	
Unknown	108.98551	10/29/0116 09:38.14	00006539	11.209	Inter618t1-0	-0.419	1	2	269.857	24.444	-0.2	0.215	0.000	D	F	2041.4	270.334	0.264	-0.168	983.341	1303.872	0.032	-	-0.005	0.991	-	-	-	32	4.117	46.146	-	FREEWAY_SMOOTH	Urban	F	1011101000010101	0000000000000000	-	car	425.394	56.863	0.000	0.000	180.000	696.000	987.000	-0.000	Terminate	
Unknown	109.98553	10/29/0116 09:38.15	00006599	12.171	Inter618t1-0	-0.323	1	2	269.436	24.444	-3.8	0.222	0.000	D	F	2165.7	269.923	0.265	-0.306	971.650	1303.901	0.044	-	-0.154	0.973	-	-	-	32	4.227	51.450	-	FREEWAY_SMOOTH	Urban	F	1011101000010101	0000000000000000	-	car	417.652	52.208	0.000	0.000	180.000	696.000	987.000	-0.000	Terminate	
Unknown	110.98555	10/29/0116 09:38.16	00006659	13.117	Inter618t1-0	-0.229	1	2	268.689	24.444	-6.0	0.226	0.000	D	F	2275.3	269.186	0.267	-0.472	959.003	1303.797	0.057	-	-0.254	0.929	-	-	-	32	4.354	57.110	-	FREEWAY_SMOOTH	Urban	F	1011101000010101	0000000000000000	-	car	409.382	48.044	0.000	0.000	180.000	696.000	987.000	-0.000	Terminate	
Unknown	111.98557	10/29/0116 09:38.17	00006719	14.021	Inter618t1-0	-0.138	1	2	267.531	24.444	-6.0	0.226	0.000	D	F	2399.4	267.903	0.264	-0.651	945.435	1303.452	0.071	-	-0.350	0.880	-	-	-	32	4.476	62.751	-	FREEWAY_SMOOTH	Urban	F	1011101000010101	0000000000000000	-	car	400.580	44.133	0.000	0.000	180.000	696.000	987.000	-0.000	Terminate	
Unknown	112.98560	10/29/0116 09:38.18	00006779	14.859	Inter618t1-0	-0.075	1	2	265.893	24.444	-14.5	0.229	0.000	D	F	1986.7	265.883	0.257	-0.792	930.998	1302.702	0.087	-	-0.778	0.688	-	-	-	32	4.576	67.995	-	FREEWAY_SMOOTH	Urban	F	1011101000010101	0000000000000000	-	car	391.204	40.310	0.000	0.000	180.000	696.000	987.000	-0.000	Terminate	
Unknown	113.98561	10/29/0116 09:38.19	00006839	15.500	Inter618t1-0	-0.198	1	2	263.747	24.444	-9.0	0.229	0.000	D	F	1973.4	263.140	0.244	-1.036	915.887	1301.229	0.101	-	-0.603	0.618	-	-	-	32	4.696	72.788	-	FREEWAY_SMOOTH	Urban	F	1011101000010101	0000000000000000	-	car	381.164	36.863	0.000	0.000	180.000	696.000	987.000	-0.000	Terminate	
Unknown	114.98563	10/29/0116 09:38.20	00006899	16.097	Inter618t1-0	-0.335	1	2	261.037	24.444	-9.4	0.235	0.000	D	F	2001.8	260.800	0.242	-1.245	900.240	1299.026	0.113	-	-0.651	0.578	-	-	-	32	4.784	77.009	-	FREEWAY_SMOOTH	Urban	F	1011101000010101	0000000000000000	-	car	370.567	34.136	0.000	0.000	180.000	696.000	987.000	-0.000	Terminate	
Unknown	115.98566	10/29/0116 09:38.21	00006959	16.660	Inter618t1-0	-0.294	1	2	257.727	24.444	-15.6	0.235	0.000	D	F	2031.5	258.312	0.262	-1.431	884.127	1296.077	0.130	-	-0.936	0.547	-	-	-	32	4.826	80.405	-	FREEWAY_SMOOTH	Urban	F	1011101000010101	0000000000000000	-	car	359.470	31.628	0.000	0.000	180.000	696.000	987.000	-0.000	Terminate	
Unknown	116.98567	10/29/0116 09:38.22	00007019	17.181	Inter618t1-0	-0.156	1	2	253.780	24.444	-21.7	0.231	0.000	D	F	2054.7	253.971	0.198	-1.568	867.685	1292.078	0.149	-	-1.479	0.492	-	-	-	32	4.865	83.589	-	FREEWAY_SMOOTH	Urban	F	1011101000010101	0000000000000000	-	car	347.709	28.424	0.000	0.000	180.000	696.000	987.000	-0.000	Terminate	
Unknown	117.98569	10/29/0116 09:38.23	00007079	17.663	Inter618t1-0	-0.201	1	2	249.513	24.444	-17.9	0.235	0.000	D	F	2081.6	248.993	0.174	-1.581	851.160	1286.570	0.148	-	-1.397	0.481	-	-	-	32	4.887	86.317	-	FREEWAY_SMOOTH	Urban	F	1011101000010101	0000000000000000	-	car	335.008	25.368	0.000	0.000	180.000	696.000	987.000	-0.000	Terminate	
Unknown	118.98571	10/29/0116 09:38.24	00007139	18.124	Inter618t1-0	-0.326	1	2	245.136	24.444	-19.3	0.236	0.000	D	F	2114.2	244.618	0.174	-1.565	834.691	1279.577	0.144	-	-1.457	0.457	-	-	-	32	4.887	88.565	-	FREEWAY_SMOOTH	Urban	F	1011101000010101	0000000000000000	-	car	321.425	22.903	0.000	0.000	180.000	696.000	987.000	-0.000	Terminate	
Unknown	119.98573	10/29/0116 09:38.25	00007199	18.562	Inter618t1-0	-0.475	1	2	240.636	24.444	-16.7	0.235	0.000	D	F	2147.6	240.081	0.169	-1.577	818.423	1271.105	0.140	-	-1.379	0.440	-	-	-	32	4.868	90.359	-	FREEWAY_SMOOTH	Urban	F	1011101000010101	0000000000000000	-	car	307.000	20.646	0.000	0.000	180.000	696.000	987.000	-0.000	Terminate	
Unknown	120.98576	10/29/0116 09:38.26	00007259	18.987	Inter618t1-0	-0.553	1	2	236.032	24.444	-17.2	0.236	0.000	D	F	2179.6	235.827	0.183	-1.571	802.473	1261.204	0.137	-	-1.428	0.427	-	-	-	32	4.815	91.427	-	FREEWAY_SMOOTH	Urban	F	1011101000010101	0000000000000000	-	car	291.791	18.671	0.000	0.000	180.000	696.000	987.000	-0.000	Terminate	
Unknown	121.98577	10/29/0116 09:38.27	00007319	19.391	Inter618t1-0	-0.545	1	2	231.319	24.444	-20.9	0.236	0.000	D	F	2208.8	231.046	0.175	-1.530	786.994	1249.866	0.138	-	-1.747	0.408	-	-	-	32	4.762	92.344	-	FREEWAY_SMOOTH	Urban	F	1011101000010101	0000000000000000	-	car	275.810	16.763	0.000	0.000	180.000	696.000	987.000	-0.000	Terminate	
Unknown	122.98579	10/29/0116 09:38.28	00007379	19.769	Inter618t1-0	-0.654	1	2	226.537	24.444	-21.6	0.228	0.000	D	F	2229.5	225.603	0.149	-1.510	772.291	1236.940	0.135	-	-1.891	0.375	-	-	-	32	4.701	92.939	-	FREEWAY_SMOOTH	Urban	F	1011101000010101	0000000000000000	-	car	258.965	14.924	0.000	0.000	180.000	696.000	987.000	-0.000	Terminate	
Unknown	123.98581	10/29/0116 09:38.29	00007439	20.031	Inter618t1-0	-0.943	1	2	221.647	24.444	-13.0	0.164	0.000	D	F	2166.2	220.702	0.147	-1.586	758.624	1222.451	0.127	-	-1.363	0.106	-	-	-	32	4.651	93.164	-	FREEWAY_SMOOTH	Urban	F	1011101000010101	0000000000000000	-	car	241.277	13.379	0.000	0.000	180.000	696.000	987.000	-0.000	Terminate	
Unknown	124.98583	10/29/0116 09:38.30	00007499	20.034	Inter618t1-0	-0.965	1	2	216.710	24.444	-16.2	0.143	0.000	D	F	1705.2	217.129	0.189	-1.574	745.959	1206.916	0.127	-	-1.400	-0.047	-	-	-	32	4.651	93.179	-	FREEWAY_SMOOTH	Urban	F	1011101000010101	0000000000000000	-	car	223.159	12.225	0.000	0.000	180.000	696.000	987.000	-0.000	Terminate	
Unknown	125.98586	10/29/0116 09:38.31	00007559	19.965	Inter618t1-0	-0.759	1	2	211.806	24.444	-25.2	0.146	0.000	D	F	1685.9	211.570	0.165	-1.458	734.511	1190.520	0.134	-	-2.266	-0.053	-	-	-	32	4.664	93.118	-	FREEWAY_SMOOTH	Urban	F	1011101000010101	0000000000000000	-	car	204.772	10.976	0.000	0.000	180.000	696.000	987.000	-0.000	Terminate	
Unknown	126.98587	10/29/0116 09:38.32	00007619	19.866	Inter618t1-0	-1.101	1	2	206.921	24.444	-29.9	0.139	0.000	D	F	1667.7	203.947	0.079	-1.394	725.027	1173.019	0.124	-	-2.766	-0.068	-	-	-	32	4.699	93.355	-	FREEWAY_SMOOTH	Urban	F	1011101000010101	0000000000000000	-	car	185.910	9.692	0.000	0.000	180.000	696.000	987.000	-0.000	Terminate	
Unknown	127.98589	10/29/0116 09:38.33	00007679	19.779	-	-	CL	0	-	-	0.9	0.129	0.000	D	F	1631.4	201.171	0.156	-1.778	717.627	1154.633	0.096	-	0.111	-0.101	-	-	-	-	-	-	-	FREEWAY_SMOOTH	Urban	F	1011101000010101	0000000000000000	-	car	166.663	8.678	0.000	0.000	180.000	696.000	987.000	-0.000	Terminate	
Unknown	128.98592	10/29/0116 09:38.34	00007739	19.673	-	-	CL	0	-	-	-16.4	0.139	0.000	D	F	1658.1	197.920	0.200	-1.544	710.841	1136.111	0.101	-	-1.650	-0.080	-	-	-	-	-	-	-	FREEWAY_SMOOTH	Urban	F	1011101000010101	0000000000000000	-	car	147.489	7.671	0.000	0.000	180.000	696.000	987.000	-0.000	Terminate	
Unknown	129.98593	10/29/0116 09:38.35	00007799	19.629	Inter618t1-0	-1.483	1	2	192.507	24.444	-15.1	0.146	0.000	D	F	1678.2	193.476	0.166	-1.390	705.438	1117.227	0.103	-	-1.454	-0.034	-	-	-	-	-	-	-	FREEWAY_SMOOTH	Urban	F	1011101000010101	0000000000000000	-	car	128.209	6.619	0.000	0.000	180.000	696.000	987.000	-0.000	Terminate	
Unknown	130.98595	10/29/0116 09:38.36	00007859	19.562	Inter618t1-0	-1.137	1	2	188.556	24.444	-17.6	0.132	0.000	D	F	1646.2	188.898	0.141	-1.098	701.518	1098.028	0.098	-	-1.616	-0.086	-	-	-	-	-	-	-	FREEWAY_SMOOTH	Urban	F	1011101000010101	0000000000000000	-	car	108.805	5.593	0.000	0.000	180.000	696.000	987.000	-0.000	Terminate	
Unknown	131.98598	10/29/0116 09:38.37	00007919	19.272	Inter618t1-0	-1.124	1	2	185.365	24.444	-12.3	0.000	0.000	D	F	1313.9	184.551	0.116	-0.869	699.151	1078.699	0.086	-	-1.305	-0.603	-	-	-	-	-	-	-	FREEWAY_SMOOTH	Urban	F	1011101000010101	0000000000000000	-	car	89.394	4.643	0.000	0.000	180.000	696.000	987.000	-0.000	Terminate	
Unknown	132.98599	10/29/0116 09:38.38	00007979	18.670	Inter618t1-0	-1.392	1	2	182.963	24.444	-3.3	0.000	0.000	D	F	1273.1	182.087	0.130	-0.703	698.050	1059.763	0.068	-	-0.502	-0.591	-	-	-	-	-	-	-	FREEWAY_SMOOTH	Urban	F	1011101000010101	0000000000000000	-	car	70.432	3.773	0.000	0.000	180.000	696.000	987.000	-0.000	Terminate	
Unknown	133.98601	10/29/0116 09:38.39	00008039	16.286	Inter618t1-0	-1.456	1	2	181.336	24.444	-5.9	0.000	0.522	D	F	1027.9	181.921	0.001	-0.494	697.447	1041.755	0.066	-	-0.124	-6.148	-	-	-	-	-	-	-	FREEWAY_SMOOTH	Urban	F	1011101000010101	0000000000000000	-	car	52.415	3.219	0.000	0.000	180.000	696.000	987.000	-0.000	Terminate	
Unknown	134.98604	10/29/0116 09:38.40	00008099	11.227	Inter618t1-0	-1.344	1	2	180.542	24.444	-1.6	0.000	0.101	D	F	1058.5	180.961	0.160	-0.320	697.120	1028.365	0.051	-	-0.107	-2.059	-	-	-	-	-	-	-	FREEWAY_SMOOTH	Urban	F	1011101000010101	0000000000000000	-	car	39.021	3.476	0.000	0.000	180.000	696.000	987.000	-0.000	Terminate	
Unknown	135.98605	10/29/0116 09:38.41	00008159	10.259	Inter618t1-0	-1.265	1	2	180.153	24.444	-1.7	0.000	0.110	D	F	991.9	180.631	0.113	-0.171	696.977	1017.624	0.039	-	-0.055	-1.778	-	-	-	-	-	-	-	FREEWAY_SMOOTH	Urban	F	1011101000010101	0000000000000000	-	car	29.015	3.402	1.733	2.000	177.499	696.032	986.264	-0.000	Terminate	
Unknown	136.98607	10/29/0116 09:38.42	00008219	9.462	Inter618t1-0	-1.199	1	2	180.008	24.444	-1.6	0.000	0.000	D	F	929.7	180.338	0.152	-0.035	696.900	1007.878	0.031	-	-0.045	-0.497	-	-	-	-	-	-	-	FREEWAY_SMOOTH	Urban	F	1011101000010101	0000000000000000	-	car	21.977	3.829	3.733	2.000	176.726	696.195	983.552	-0.000	Terminate	
Unknown	137.98610	10/29/0116 09:38.43	00008279	8.639	Inter686t1-0	-0.475	1	1	180.000	11.111	-1.6	0.000	0.107	D	F	836.1	180.060	0.160	0.005	696.871	998.707	0.031	-	-0.039	-1.815	-	-	-	-	-	-	-	PAVEMENT_GENERAL	Urban	F	1011101000010101	0000000000000000	-	car	17.517	6.019	5.733	2.000	178.545	696.356	978.838	-0.000	Terminate	
Unknown	138.98611	10/29/0116 09:38.44	00008339	6.528	Inter686t1-0	-0.485	1	1	180.000	11.111	-1.6	0.000	0.000	D	F	642.2	179.839	0.203	0.003	696.881	991.333	0.029	-	-0.024	-0.470	-	-	-	car	2.220	14.493	-	PAVEMENT_GENERAL	Urban	F	1011101000010101	0000000000000000	-	car	16.858	-13.983	7.733	2.000	179.924	696.399	972.121	-0.000	Terminate	
Unknown	139.98613	10/29/0116 09:38.45	00008399	6.067	Inter686t1-0	-0.517	1	1	180.000	11.111	-0.2	0.065	0.000	D	F	796.7	179.651	0.199	-0.001	696.913	985.037	0.028	-	0.004	-0.414	-	-	-	car	2.788	16.914	-	PAVEMENT_GENERAL	Urban	F	1011101000010101	0000000000000000	-	car	19.280	-5.258	9.733	2.000	180.015	696.397	963.404	-0.000	Terminate	
Unknown	140.98616	10/29/0116 09:38.46	00008459	7.060	Inter686t1-0	-0.549	1	1	180.000	11.111	9.2	0.176	0.000	D	F	1646.9	179.869	0.213	-0.024	696.945	978.546	0.021	-	0.165	1.219	-	-	-	car	2.994	21.140	-	PAVEMENT_GENERAL	Urban	F	1011101000010101	0000000000000000	-	car	23.505	-5.030	11.734	2.000	180.003	696.397	952.687	-0.000	Terminate	
Unknown	141.98618	10/29/0116 09:38.47	00008519	8.254	Inter686t1-0	-0.472	1	1	180.000	11.111	6.8	0.189	0.000	D	F	1757.9	180.915	0.212	-0.019	696.868	970.886	0.021	-	0.146	1.157	-	-	-	car	3.174	26.197	-	PAVEMENT_GENERAL	Urban	F	1011101000010101	0000000000000000	-	car	28.560	-5.214	13.734	2.000	180.003	696.397	939.970	-0.000	Terminate	
Unknown	142.98619	10/29/0116 09:38.48	00008579	9.352	Inter686t1-0	-0.269	1	1	180.000	11.111	-7.5	0.190	0.000	D	F	1844.2	181.260	0.210	0.026	696.665	962.075	0.021	-	-0.181	1.035	-	-	-	car	3.433	32.103	-	PAVEMENT_GENERAL	Urban	F	1011101000010101	0000000000000000	-	car	34.463	-5.400	15.734	2.000	180.002	696.397	925.253	-0.000	Terminate	
Unknown	143.98621	10/29/0116 09:38.49	00008639	10.359	Inter686t1-0	-0.175	1	1	180.000	11.111	-1.6	0.203	0.000	D	F	1948.8	180.129	0.210	0.002	696.571	952.216	0.022	-	-0.067	0.993	-	-	-	car	3.761	38.962	-	PAVEMENT_GENERAL	Urban	F	1011101000010101	0000000000000000	-	car	41.322	-5.603	17.734	2.000	180.002	696.397	908.536	-0.000	Terminate	
Unknown	144.98624	10/29/0116 09:38.50	00008699	11.287	Inter686t1-0	-0.199	1	1	180.000	11.111	-4.0	0.203	0.000	D	F	2030.7	179.623	0.208	0.020	696.595	941.382	0.022	-	-0.135	0.880	-	-	-	car	4.123	46.532	-	PAVEMENT_GENERAL	Urban	F	1011101000010101	0000000000000000	-	car	48.892	-6.393	18.934	1.000	180.002	696.397	890.131	-0.000	Terminate	
Unknown	145.98625	10/29/0116 09:38.51	00008759	12.129	Inter686t1-0	-0.320	1	1	180.000	11.111	2.3	0.201	0.000	D	F	2123.9	179.448	0.206	-0.013	696.716	929.669	0.023	-	0.090	0.813	-	-	-	car	4.459	54.081	-	PAVEMENT_GENERAL	Urban	F	1011101000010101	0000000000000000	-	car	56.442	-7.630	19.525	0.500	180.002	696.397	870.869	-0.000	Terminate	
Unknown	146.98627	10/29/0116 09:38.52	00008819	12.917	Inter686t1-0	-0.410	1	1	180.000	11.111	-2.4	0.198	0.000	D	F	2023.6	179.692	0.208	0.003	696.806	917.145	0.023	-	-0.043	0.861	-	-	-	car	4.748	61.329	-	PAVEMENT_GENERAL	Urban	F	1011101000010101	0000000000000000	-	car	63.690	-8.959	20.025	0.500	180.002	696.397	851.098	-0.000	Terminate	
Unknown	147.98630	10/29/0116 09:38.53	00008879	13.563	Inter686t1-0	-0.521	1	1	180.000	11.111	3.6	0.199	0.000	D	F	1826.2	179.602	0.202	-0.021	696.917	903.893	0.024	-	0.150	0.594	-	-	-	car	5.027	68.184	-	PAVEMENT_GENERAL	Urban	F	1111101000010101	0000000000000000	-	car	70.545	-10.764	20.116	0.000	180.002	696.397	830.990	-0.000	Terminate	
Unknown	148.98631	10/29/0116 09:38.54	00008939	14.130	Inter686t1-0	-0.529	1	1	180.000	11.111	3.8	0.198	0.000	D	F	1844.0	180.337	0.201	-0.023	696.925	890.043	0.024	-	0.180	0.542	-	-	-	car	5.269	74.449	-	PAVEMENT_GENERAL	Urban	F	1011101000010101	0000000000000000	-	car	76.810	-12.833	20.116	0.000	179.978	696.397	810.875	-0.000	Terminate	
Unknown	149.98633	10/29/0116 09:38.55	00008999	14.648	Inter686t1-0	-0.389	1	1	180.000	11.111	-2.5	0.196	0.000	D	F	1861.4	180.533	0.200	0.014	696.785	875.649	0.024	-	-0.107	0.490	-	-	-	car	5.473	80.171	-	PAVEMENT_GENERAL	Urban	F	1011101000010101	0000000000000000	-	car	82.532	-15.092	20.116	0.000	179.998	696.403	790.759	-0.000	Terminate	
Unknown	150.98636	10/29/0116 09:38.56	00009059	15.130	Inter686t1-0	-0.318	1	1	180.000	11.111	-4.8	0.196	0.000	D	F	1885.8	179.908	0.199	0.032	696.715	860.758	0.024	-	-0.235	0.466	-	-	-	car	5.644	85.396	-	PAVEMENT_GENERAL	Urban	F	1011101000010101	0000000000000000	-	car	87.756	-17.601	20.116	0.000	179.997	696.403	770.643	-0.000	Terminate	
Unknown	151.98637	10/29/0116 09:38.57	00009119	15.590	Inter686t1-0	-0.442	1	1	180.000	11.111	0.9	0.199	0.000	D	F	1912.3	179.246	0.198	0.007	696.838	845.397	0.024	-	-0.036	0.448	-	-	-	car	5.783	90.151	-	PAVEMENT_GENERAL	Urban	F	1011101000010101	0000000000000000	-	car	92.512	-20.430	20.116	0.000	179.996	696.403	750.527	-0.000	Terminate	
Unknown	152.98639	10/29/0116 09:38.58	00009179	16.022	Inter686t1-0	-0.583	1	1	180.000	11.111	3.5	0.203	0.000	D	F	1934.6	179.829	0.198	-0.024	696.979	829.590	0.025	-	0.190	0.423	-	-	-	car	5.896	94.460	-	PAVEMENT_GENERAL	Urban	F	1011101000010101	0000000000000000	-	car	96.822	-23.647	20.116	0.000	179.996	696.403	730.411	-0.000	Terminate	
Unknown	153.98642	10/29/0116 09:38.59	00009239	16.423	Inter686t1-0	-0.555	1	1	180.000	11.111	-0.4	0.198	0.000	D	F	1950.7	180.283	0.197	0.001	696.951	813.364	0.025	-	0.013	0.392	-	-	-	car	5.988	98.350	-	PAVEMENT_GENERAL	Urban	F	1111101000010101	0000000000000000	-	car	100.711	-27.277	20.116	0.000	179.996	696.403	710.295	-0.000	Terminate	
Unknown	154.98643	10/29/0116 09:39.00	00009299	16.796	Inter682t1-1	-0.464	1	1	180.000	11.111	-1.7	0.187	0.000	D	F	1949.5	180.287	0.195	0.010	696.868	796.749	0.025	-	-0.056	0.318	-	-	-	car	6.064	101.851	-	PAVEMENT_GENERAL	Urban	F	1011101000010101	0000000000000000	-	car	104.212	-31.391	20.116	0.000	179.996	696.403	690.179	-0.000	Terminate	
Unknown	155.98645	10/29/0116 09:39.01	00009359	17.085	Inter682t1-1	-0.417	1	1	180.000	11.111	-1.2	0.185	0.000	D	F	1968.0	180.022	0.195	0.009	696.821	779.808	0.025	-	-0.071	0.287	-	-	-	car	6.147	105.026	-	PAVEMENT_GENERAL	Urban	F	1011101000010101	0000000000000000	-	car	107.387	-35.425	20.116	0.000	179.996	696.403	670.063	-0.000	Terminate	
Unknown	156.98647	10/29/0116 09:39.02	00009419	17.354	Inter682t1-1	-0.437	1	1	180.000	11.111	-1.5	0.182	0.000	D	F	1983.8	179.800	0.194	0.011	696.841	762.587	0.025	-	-0.084	0.267	-	-	-	car	6.219	107.921	-	PAVEMENT_GENERAL	Urban	F	1011101000010101	0000000000000000	-	car	110.281	-39.923	20.116	0.000	179.996	696.403	649.947	-0.000	Terminate	
Unknown	157.98650	10/29/0116 09:39.03	00009479	17.604	Inter682t1-1	-0.540	1	1	180.000	11.111	-0.1	0.180	0.000	D	F	1998.7	179.522	0.194	0.002	696.944	745.107	0.025	-	-0.034	0.256	-	-	-	car	6.280	110.557	-	PAVEMENT_GENERAL	Urban	F	1011101000010101	0000000000000000	-	car	112.918	-44.938	20.116	0.000	179.996	696.403	629.831	-0.000	Terminate	
Unknown	158.98651	10/29/0116 09:39.04	00009539	17.713	Inter682t1-1	-0.686	1	1	180.000	11.111	0.8	0.141	0.000	D	F	1942.3	179.557	0.192	-0.005	697.089	727.432	0.026	-	0.036	0.065	-	-	-	car	6.379	112.999	-	PAVEMENT_GENERAL	Urban	F	1011101000010101	0000000000000000	-	car	115.360	-47.980	20.116	0.000	180.025	696.402	609.715	-0.000	Terminate	
Unknown	159.98653	10/29/0116 09:39.05	00009599	17.718	Inter682t1-1	-0.783	1	1	180.000	11.111	1.4	0.120	0.000	D	F	1912.0	179.889	0.190	-0.012	697.187	709.703	0.027	-	0.102	-0.051	-	-	-	car	6.512	115.385	-	PAVEMENT_GENERAL	Urban	F	1011101000010101	0000000000000000	-	car	117.746	-50.783	20.049	-4.000	178.248	696.486	589.599	-0.000	Terminate	
Unknown	160.98656	10/29/0116 09:39.06	00009659	17.678	Inter682t1-1	-0.774	1	1	180.000	11.111	1.6	0.116	0.000	D	F	1904.4	180.238	0.190	-0.016	697.178	692.006	0.027	-	0.115	-0.048	-	-	-	car	6.548	115.766	71.065	PAVEMENT_GENERAL	Urban	F	1011101000010101	0000000000000000	-	car	118.099	69.607	16.049	-4.000	174.572	697.494	571.547	-0.000	Terminate	
Unknown	161.98657	10/29/0116 09:39.07	00009719	17.631	Inter682t1-1	-0.710	1	1	180.000	11.111	-0.8	0.118	0.000	D	F	1903.9	180.103	0.191	0.006	697.114	674.351	0.027	-	-0.058	-0.050	-	-	-	car	6.374	112.386	24.529	PAVEMENT_GENERAL	Urban	F	1111101000010101	0000000000000000	-	car	114.635	24.868	13.049	-1.000	175.254	698.827	557.369	-0.000	Terminate	
Unknown	162.98659	10/29/0116 09:39.08	00009779	17.575	Inter682t1-1	-0.686	1	1	180.000	11.111	0.1	0.108	0.000	D	F	1885.6	180.074	0.190	-0.001	697.090	656.746	0.027	-	0.004	-0.084	-	-	-	car	6.109	107.370	20.034	PAVEMENT_GENERAL	Urban	F	1011101000010101	0000000000000000	-	car	109.602	20.465	12.216	-0.500	177.876	699.666	544.814	-0.000	Terminate	
Unknown	163.98662	10/29/0116 09:39.09	00009839	17.445	Inter682t1-1	-0.655	1	1	180.000	11.111	0.3	0.062	0.000	D	F	1772.0	180.131	0.186	-0.002	697.059	639.223	0.027	-	0.016	-0.270	-	-	-	-	-	-	-	PAVEMENT_GENERAL	Urban	F	1011101000010101	0000000000000000	-	car	103.629	13.838	9.950	-4.033	179.410	699.902	533.273	-0.000	Terminate	
Unknown	164.98663	10/29/0116 09:39.10	00009899	17.039	Inter682t1-1	-0.652	1	1	180.000	11.111	-3.8	0.000	0.000	D	F	1673.1	179.721	0.184	0.029	697.055	621.951	0.029	-	-0.229	-0.609	-	-	-	-	-	-	-	PAVEMENT_GENERAL	Urban	F	1011101000010101	0000000000000000	-	car	94.327	8.478	5.909	-4.052	179.667	699.962	525.308	-0.000	Terminate	
Unknown	165.98665	10/29/0116 09:39.11	00009959	16.432	Inter682t1-1	-0.923	1	1	180.000	11.111	-1.9	0.000	0.000	D	F	1613.6	178.218	0.186	0.028	697.327	605.218	0.029	-	-0.287	-0.600	-	-	-	-	-	-	-	PAVEMENT_GENERAL	Urban	F	1011101000010101	0000000000000000	-	car	81.501	5.557	1.766	-4.000	179.553	699.985	521.400	-0.000	Terminate	
Unknown	166.98668	10/29/0116 09:39.12	00010019	14.342	Inter688t25-1	-1.530	1	1	180.000	11.111	-12.0	0.000	0.203	D	F	1371.1	176.759	0.142	0.088	697.926	589.572	0.034	-	-0.639	-3.061	-	-	-	-	-	-	-	PAVEMENT_GENERAL	Urban	F	1011101000010101	0000000000000000	-	car	66.248	4.621	0.000	0.000	179.133	699.991	520.996	-0.000	Terminate	
Unknown	167.98669	10/29/0116 09:39.13	00010079	10.461	-	-	SH-	1	-	-	3.6	0.000	0.278	D	F	988.9	175.145	0.140	-0.001	698.822	577.151	0.037	-	-0.003	-3.937	-	-	-	-	-	-	-	PAVEMENT_GENERAL	Urban	F	1111101000010101	0000000000000000	-	car	53.808	5.154	0.000	0.000	179.133	699.991	520.996	-0.000	Terminate	
Unknown	168.98671	10/29/0116 09:39.14	00010139	8.084	-	-	SH-	1	-	-	11.3	0.000	0.000	D	F	795.0	176.345	0.201	-0.033	699.491	568.254	0.028	-	0.253	-0.479	-	-	-	-	-	-	-	PAVEMENT_GENERAL	Urban	F	1011101000010101	0000000000000000	-	car	44.902	5.562	0.000	0.000	179.133	699.991	520.996	-0.000	Terminate	
Unknown	169.98674	10/29/0116 09:39.15	00010199	7.612	Inter688t33-0	-1.311	1	1	175.081	11.111	10.0	0.000	0.000	D	F	748.2	178.187	0.197	-0.023	699.832	560.414	0.028	-	0.198	-0.470	-	-	-	car	4.545	34.597	4.545	PAVEMENT_GENERAL	Urban	F	1111101000010101	0000000000000000	-	car	37.060	4.870	0.000	0.000	179.133	699.991	520.996	-0.000	Terminate	
Unknown	170.98676	10/29/0116 09:39.16	00010259	7.144	Inter688t33-0	-0.716	1	1	176.027	11.111	3.8	0.000	0.000	D	F	702.2	179.245	0.197	-0.004	699.974	553.038	0.028	-	0.052	-0.467	-	-	-	car	3.821	27.298	3.821	PAVEMENT_GENERAL	Urban	F	1011101000010101	0000000000000000	-	car	29.683	4.155	0.000	0.000	179.133	699.991	520.996	-0.000	Terminate	
Unknown	171.98677	10/29/0116 09:39.17	00010319	6.346	Inter688t33-0	-0.319	1	1	176.027	11.111	-1.1	0.000	0.042	D	F	620.3	179.351	0.190	0.002	700.047	546.246	0.029	-	-0.015	-0.935	-	-	-	car	3.233	20.518	3.233	PAVEMENT_GENERAL	Urban	F	1011101000010101	0000000000000000	-	car	22.891	3.608	0.000	0.000	179.133	699.991	520.996	-0.000	Terminate	
Unknown	172.98679	10/29/0116 09:39.18	00010379	4.064	Inter688t27-1	-0.157	LT1	1	179.909	11.111	4.5	0.000	0.278	D	F	477.5	179.360	0.133	-0.006	700.113	540.691	0.036	-	0.043	-3.865	-	-	-	car	3.686	14.976	3.686	PAVEMENT_GENERAL	Urban	F	1011101000010101	0000000000000000	-	car	17.336	4.267	0.000	0.000	179.133	699.991	520.996	-0.000	Terminate	
Unknown	173.98682	10/29/0116 09:39.19	00010439	1.029	Inter688t27-1	-0.166	LT1	1	179.909	11.111	6.1	0.000	0.033	D	F	477.5	179.659	0.252	0.001	700.126	538.384	0.033	-	-0.000	-0.628	-	-	-	car	12.318	12.669	12.318	PAVEMENT_GENERAL	Urban	F	1011101000010101	0000000000000000	-	car	15.030	14.614	0.000	0.000	179.133	699.991	520.996	-0.000	Terminate	
Unknown	174.98683	10/29/0116 09:39.20	00010499	0.912	Inter688t27-1	-0.166	LT1	1	179.909	11.111	6.0	0.000	0.000	D	F	477.5	179.782	0.204	-0.000	700.127	537.422	0.028	-	0.001	-0.090	-	-	-	car	12.835	11.707	12.835	PAVEMENT_GENERAL	Urban	F	1011101000010101	0000000000000000	-	car	14.067	15.424	0.000	0.000	179.133	699.991	520.996	-0.000	Terminate	
Unknown	175.98685	10/29/0116 09:39.21	00010559	0.838	Inter688t27-1	-0.164	LT1	1	179.909	11.111	6.1	0.000	0.000	D	F	477.5	179.897	0.202	0.000	700.126	536.549	0.027	L	0.000	-0.063	-	-	-	car	14.106	11.817	-	PAVEMENT_GENERAL	Urban	F	1011101000110101	0000000000000000	-	car	14.177	-12.213	2.000	2.000	178.201	700.021	520.013	-0.000	Terminate	
Unknown	176.98688	10/29/0116 09:39.22	00010619	2.371	Inter688t27-1	-0.158	LT1	1	179.909	11.111	5.9	0.143	0.000	D	F	1395.5	180.057	0.203	-0.003	700.122	535.298	0.015	L	0.020	2.662	-	-	-	car	5.713	13.547	-	PAVEMENT_GENERAL	Urban	F	1011101000110101	0000000000000000	-	car	15.900	-9.844	4.000	2.000	174.899	700.250	517.038	-0.000	Terminate	
Unknown	177.98689	10/29/0116 09:39.23	00010679	4.711	Inter688t27-1	-0.124	LT1	1	179.909	11.111	5.9	0.175	0.000	D	F	1741.0	180.499	0.215	-0.007	700.094	531.716	0.016	L	0.049	2.107	-	-	-	car	3.183	14.993	-	PAVEMENT_GENERAL	Urban	F	1011101000110101	0000000000000000	-	car	17.226	-14.655	6.000	2.000	164.801	701.281	512.167	-0.000	Terminate	
