"Name"	"Project"	"Time"	ZoneName	Time	SystemTime	Frame	Velocity	LaneName	LanePos	LaneIndex	LaneCount	LaneHeading	SpeedLimit	Steer	Accel	Brake	Gear	Horn	SubjectEngineRPM	SubjectHeading	SubjectPitch	SubjectRoll	SubjectX	SubjectY	SubjectZ	Signal	LatAccel	LongAccel	Collision	CollisionAngle	CollisionVelocity	VehAhead	HeadwayTime	HeadwayDist	TTC	TerrainType	CultureType	Slip	DigitalInputs	DigitalInputs2	ActiveTrigger	EntityName	DistToEntity	TimeToEntity	EntityVelocity	EntityAccel	EntityHeading	EntityX	EntityY	EntityZ	GrabData	
"Student8Mode1"	"Seema_Shokoufeh_Track2"	"Nov 29, 2016 09:47:17 AM"	Unknown	0.98335	10/29/0116 09:47.21	00000059	0.002	Inter625t13-0	-0.088	1	2	0.000	11.111	3.3	0.009	0.000	D	F	0.0	0.001	0.153	-0.001	1503.500	523.206	0.019	-	-0.000	0.000	-	-	-	-	-	-	-	PAVEMENT_GENERAL	Urban	F	1011101000010101	0000000000000000	-	-	-	-	-	-	-	-	-	-	Terminate	
"Student8Mode1"	"Seema_Shokoufeh_Track2"	"Nov 29, 2016 09:47:17 AM"	Unknown	1.98337	10/29/0116 09:47.22	00000119	0.001	Inter625t13-0	-0.088	1	2	0.000	11.111	3.2	0.018	0.000	D	F	127.8	0.001	0.197	-0.000	1503.500	523.208	0.026	-	0.000	0.001	-	-	-	-	-	-	-	PAVEMENT_GENERAL	Urban	F	1011101000010111	0000000000000000	-	-	-	-	-	-	-	-	-	-	Terminate	
"Student8Mode1"	"Seema_Shokoufeh_Track2"	"Nov 29, 2016 09:47:17 AM"	Unknown	2.98339	10/29/0116 09:47.23	00000179	0.002	Inter625t13-0	-0.088	1	2	0.000	11.111	0.6	0.023	0.000	D	F	461.1	0.001	0.207	-0.000	1503.500	523.209	0.028	-	0.000	0.005	-	-	-	-	-	-	-	PAVEMENT_GENERAL	Urban	F	1011101000010101	0000000000000000	-	-	-	-	-	-	-	-	-	-	Terminate	
"Student8Mode1"	"Seema_Shokoufeh_Track2"	"Nov 29, 2016 09:47:17 AM"	Unknown	3.98341	10/29/0116 09:47.24	00000239	0.079	Inter625t13-0	-0.088	1	2	0.000	11.111	4.4	0.019	0.000	D	F	518.8	0.003	0.205	-0.000	1503.500	523.234	0.025	-	0.001	0.196	-	-	-	-	-	-	-	PAVEMENT_GENERAL	Urban	F	1011101000010101	0000000000000000	-	-	-	-	-	-	-	-	-	-	Terminate	
"Student8Mode1"	"Seema_Shokoufeh_Track2"	"Nov 29, 2016 09:47:17 AM"	Unknown	4.98343	10/29/0116 09:47.25	00000299	0.299	Inter625t13-0	-0.087	1	2	0.000	11.111	6.5	0.000	0.000	D	F	477.5	0.026	0.205	-0.000	1503.501	523.428	0.025	-	0.001	0.186	-	-	-	-	-	-	-	PAVEMENT_GENERAL	Urban	F	1011101000010101	0000000000000000	-	-	-	-	-	-	-	-	-	-	Terminate	
"Student8Mode1"	"Seema_Shokoufeh_Track2"	"Nov 29, 2016 09:47:17 AM"	Unknown	5.98345	10/29/0116 09:47.26	00000359	0.433	Inter625t13-0	-0.087	1	2	0.000	11.111	-7.2	0.000	0.000	D	F	477.5	0.017	0.204	0.000	1503.501	523.803	0.026	-	0.002	0.091	-	-	-	-	-	-	-	PAVEMENT_GENERAL	Urban	F	1011101000010101	0000000000000000	-	-	-	-	-	-	-	-	-	-	Terminate	
"Student8Mode1"	"Seema_Shokoufeh_Track2"	"Nov 29, 2016 09:47:17 AM"	Unknown	6.98347	10/29/0116 09:47.27	00000419	0.493	Inter625t13-0	-0.088	1	2	0.000	11.111	-3.7	0.000	0.000	D	F	477.5	0.000	0.204	0.001	1503.500	524.270	0.026	-	-0.001	0.038	-	-	-	-	-	-	-	PAVEMENT_GENERAL	Urban	F	1011101000010101	0000000000000000	-	-	-	-	-	-	-	-	-	-	Terminate	
"Student8Mode1"	"Seema_Shokoufeh_Track2"	"Nov 29, 2016 09:47:17 AM"	Unknown	7.98349	10/29/0116 09:47.28	00000479	0.613	Inter625t13-0	-0.090	1	2	0.000	11.111	4.1	0.034	0.000	D	F	643.7	359.949	0.202	-0.001	1503.498	524.802	0.025	-	0.002	0.220	-	-	-	-	-	-	-	PAVEMENT_GENERAL	Urban	F	1011101000010101	0000000000000000	-	-	-	-	-	-	-	-	-	-	Terminate	
"Student8Mode1"	"Seema_Shokoufeh_Track2"	"Nov 29, 2016 09:47:17 AM"	Unknown	8.98351	10/29/0116 09:47.29	00000539	3.340	Inter625t13-0	-0.087	1	2	0.000	11.111	3.3	0.175	0.000	D	F	1586.3	0.036	0.205	-0.005	1503.501	526.617	0.013	-	0.029	2.737	-	-	-	-	-	-	-	PAVEMENT_GENERAL	Urban	F	1011101000010101	0000000000000000	-	-	-	-	-	-	-	-	-	-	Terminate	
"Student8Mode1"	"Seema_Shokoufeh_Track2"	"Nov 29, 2016 09:47:17 AM"	Unknown	9.98353	10/29/0116 09:47.30	00000599	5.807	Inter625t13-0	-0.066	1	2	0.000	11.111	2.5	0.201	0.000	D	F	1957.3	0.323	0.220	-0.004	1503.522	531.268	0.016	-	0.029	2.061	-	-	-	-	-	-	-	PAVEMENT_GENERAL	Urban	F	1111101000010101	0000000000000000	-	-	-	-	-	-	-	-	-	-	Terminate	
"Student8Mode1"	"Seema_Shokoufeh_Track2"	"Nov 29, 2016 09:47:17 AM"	Unknown	10.98355	10/29/0116 09:47.31	00000659	7.677	Inter625t49-0	-0.006	1	1	0.006	11.111	2.8	0.208	0.000	D	F	1834.7	0.619	0.214	-0.007	1503.583	538.047	0.018	-	0.055	1.564	-	-	-	-	-	-	-	PAVEMENT_GENERAL	Urban	F	1011101000010101	0000000000000000	-	-	-	-	-	-	-	-	-	-	Terminate	
"Student8Mode1"	"Seema_Shokoufeh_Track2"	"Nov 29, 2016 09:47:17 AM"	Unknown	11.98357	10/29/0116 09:47.32	00000719	9.065	Inter625t49-0	0.117	1	1	0.008	11.111	-1.4	0.219	0.000	D	F	1896.3	0.942	0.215	0.005	1503.706	546.436	0.020	-	-0.026	1.332	-	-	-	-	-	-	-	PAVEMENT_GENERAL	Urban	F	1011101000010101	0000000000000000	-	-	-	-	-	-	-	-	-	-	Terminate	
"Student8Mode1"	"Seema_Shokoufeh_Track2"	"Nov 29, 2016 09:47:17 AM"	Unknown	12.98359	10/29/0116 09:47.33	00000779	10.352	Inter625t49-0	0.192	1	1	0.007	11.111	-0.4	0.266	0.000	D	F	2035.8	359.855	0.213	-0.002	1503.782	556.149	0.020	-	-0.069	1.289	-	-	-	-	-	-	-	PAVEMENT_GENERAL	Urban	F	1011101000010101	0000000000000000	-	-	-	-	-	-	-	-	-	-	Terminate	
"Student8Mode1"	"Seema_Shokoufeh_Track2"	"Nov 29, 2016 09:47:17 AM"	Unknown	13.98361	10/29/0116 09:47.34	00000839	11.608	Inter625t49-0	0.241	1	1	0.005	11.111	2.5	0.268	0.000	D	F	2140.6	0.664	0.209	-0.011	1503.833	567.140	0.021	-	0.106	1.184	-	-	-	-	-	-	-	PAVEMENT_GENERAL	Urban	F	1011101000010101	0000000000000000	-	-	-	-	-	-	-	-	-	-	Terminate	
"Student8Mode1"	"Seema_Shokoufeh_Track2"	"Nov 29, 2016 09:47:17 AM"	Unknown	14.98363	10/29/0116 09:47.35	00000899	12.743	Inter625t49-0	0.374	1	1	0.005	11.111	-2.1	0.268	0.000	D	F	2273.9	0.393	0.208	0.010	1503.967	579.321	0.021	-	-0.110	1.105	-	-	-	-	-	-	-	PAVEMENT_GENERAL	Urban	F	1011101000010101	0000000000000000	-	-	-	-	-	-	-	-	-	-	Terminate	
"Student8Mode1"	"Seema_Shokoufeh_Track2"	"Nov 29, 2016 09:47:17 AM"	Unknown	15.98365	10/29/0116 09:47.36	00000959	13.822	Inter625t15-0	0.438	1	2	0.000	11.111	-1.0	0.272	0.000	D	F	2403.9	0.198	0.207	0.006	1504.031	592.606	0.022	-	-0.039	1.068	-	-	-	-	-	-	-	PAVEMENT_GENERAL	Urban	F	1011101000010101	0000000000000000	-	-	-	-	-	-	-	-	-	-	Terminate	
"Student8Mode1"	"Seema_Shokoufeh_Track2"	"Nov 29, 2016 09:47:17 AM"	Unknown	16.98367	10/29/0116 09:47.37	00001019	14.885	Inter614t1-0	0.454	1	2	0.000	11.111	-0.7	0.282	0.000	D	F	2562.5	359.906	0.206	0.006	1504.047	606.960	0.022	-	-0.056	1.068	-	-	-	-	-	-	-	PAVEMENT_GENERAL	Urban	F	1011101000010101	0000000000000000	-	-	-	-	-	-	-	-	-	-	Terminate	
"Student8Mode1"	"Seema_Shokoufeh_Track2"	"Nov 29, 2016 09:47:17 AM"	Unknown	17.98369	10/29/0116 09:47.38	00001079	15.940	Inter614t1-0	0.407	1	2	0.000	11.111	-1.1	0.284	0.000	D	F	2714.5	359.717	0.204	0.008	1504.001	622.376	0.022	-	-0.062	1.038	-	-	-	-	-	-	-	PAVEMENT_GENERAL	Urban	F	1011101000010101	0000000000000000	-	-	-	-	-	-	-	-	-	-	Terminate	
"Student8Mode1"	"Seema_Shokoufeh_Track2"	"Nov 29, 2016 09:47:17 AM"	Unknown	18.98371	10/29/0116 09:47.39	00001139	16.971	Inter614t1-0	0.294	1	2	0.000	11.111	2.3	0.286	0.000	D	F	2859.4	359.543	0.202	-0.011	1503.887	638.833	0.022	-	0.063	1.011	-	-	-	-	-	-	-	PAVEMENT_GENERAL	Urban	F	1011101000010101	0000000000000000	-	-	-	-	-	-	-	-	-	-	Terminate	
"Student8Mode1"	"Seema_Shokoufeh_Track2"	"Nov 29, 2016 09:47:17 AM"	Unknown	19.98373	10/29/0116 09:47.40	00001199	18.001	Inter614t1-0	0.225	1	2	0.000	11.111	1.0	0.296	0.000	D	F	2836.6	0.000	0.202	-0.008	1503.818	656.315	0.022	-	0.076	1.204	-	-	-	-	-	-	-	PAVEMENT_GENERAL	Urban	F	1011101000010101	0000000000000000	-	-	-	-	-	-	-	-	-	-	Terminate	
"Student8Mode1"	"Seema_Shokoufeh_Track2"	"Nov 29, 2016 09:47:17 AM"	Unknown	20.98375	10/29/0116 09:47.41	00001259	18.744	Inter614t1-0	0.239	1	2	0.000	11.111	-0.8	0.296	0.000	D	F	2223.6	0.088	0.195	0.002	1503.832	674.732	0.024	-	-0.013	0.598	-	-	-	-	-	-	-	PAVEMENT_GENERAL	Urban	F	1011101000010101	0000000000000000	-	-	-	-	-	-	-	-	-	-	Terminate	
"Student8Mode1"	"Seema_Shokoufeh_Track2"	"Nov 29, 2016 09:47:17 AM"	Unknown	21.98377	10/29/0116 09:47.42	00001319	19.325	Inter614t1-0	0.233	1	2	0.000	11.111	-3.5	0.291	0.000	D	F	2256.3	359.824	0.194	0.020	1503.826	693.769	0.024	-	-0.154	0.568	-	-	-	-	-	-	-	PAVEMENT_GENERAL	Urban	F	1011101000010101	0000000000000000	-	-	-	-	-	-	-	-	-	-	Terminate	
"Student8Mode1"	"Seema_Shokoufeh_Track2"	"Nov 29, 2016 09:47:17 AM"	Unknown	22.98379	10/29/0116 09:47.43	00001379	19.865	Inter614t1-0	0.103	1	2	0.000	11.111	0.1	0.289	0.000	D	F	2294.2	359.479	0.193	0.001	1503.696	713.365	0.024	-	-0.021	0.532	-	-	-	-	-	-	-	PAVEMENT_GENERAL	Urban	F	1111101000010101	0000000000000000	-	-	-	-	-	-	-	-	-	-	Terminate	
"Student8Mode1"	"Seema_Shokoufeh_Track2"	"Nov 29, 2016 09:47:17 AM"	Unknown	23.98381	10/29/0116 09:47.44	00001439	20.366	Inter614t1-0	-0.058	1	2	0.000	11.111	2.6	0.257	0.000	D	F	2304.3	359.738	0.191	-0.023	1503.535	733.490	0.025	-	0.170	0.440	-	-	-	-	-	-	-	PAVEMENT_GENERAL	Urban	F	1011101000010101	0000000000000000	-	-	-	-	-	-	-	-	-	-	Terminate	
"Student8Mode1"	"Seema_Shokoufeh_Track2"	"Nov 29, 2016 09:47:17 AM"	Unknown	24.98383	10/29/0116 09:47.45	00001499	20.567	Inter614t1-0	-0.059	1	2	0.000	11.111	3.5	0.037	0.000	D	F	1602.5	0.409	0.176	-0.034	1503.535	754.028	0.027	-	0.265	-0.359	-	-	-	12	4.137	85.091	31.682	PAVEMENT_GENERAL	Urban	F	1011101000010101	0000000000000000	-	-	-	-	-	-	-	-	-	-	Terminate	
"Student8Mode1"	"Seema_Shokoufeh_Track2"	"Nov 29, 2016 09:47:17 AM"	Unknown	25.98385	10/29/0116 09:47.46	00001559	19.986	Inter614t1-0	0.190	1	2	0.000	11.111	1.4	0.000	0.000	D	F	1366.1	1.130	0.181	-0.027	1503.783	774.310	0.029	-	0.209	-0.600	-	-	-	12	4.177	83.474	485.966	PAVEMENT_GENERAL	Urban	F	1011101000010101	0000000000000000	-	-	-	-	-	-	-	-	-	-	Terminate	
"Student8Mode1"	"Seema_Shokoufeh_Track2"	"Nov 29, 2016 09:47:17 AM"	Unknown	26.98387	10/29/0116 09:47.47	00001619	19.401	Inter614t1-0	0.544	1	2	0.000	11.111	-7.8	0.005	0.000	D	F	1323.2	0.299	0.181	0.101	1504.138	793.999	0.029	-	-0.703	-0.574	-	-	-	12	4.347	84.327	-	PAVEMENT_GENERAL	Urban	F	1111101000010101	0000000000000000	-	-	-	-	-	-	-	-	-	-	Terminate	
"Student8Mode1"	"Seema_Shokoufeh_Track2"	"Nov 29, 2016 09:47:17 AM"	Unknown	27.98389	10/29/0116 09:47.48	00001679	18.851	Inter612t1-0	0.543	1	2	0.000	11.111	3.6	0.018	0.000	D	F	1287.0	0.172	0.184	-0.040	1504.136	813.118	0.029	-	0.306	-0.517	-	-	-	12	4.597	86.666	-	PAVEMENT_GENERAL	Urban	F	1011101000010101	0000000000000000	-	-	-	-	-	-	-	-	-	-	Terminate	
"Student8Mode1"	"Seema_Shokoufeh_Track2"	"Nov 29, 2016 09:47:17 AM"	Unknown	28.98391	10/29/0116 09:47.49	00001739	18.358	Inter612t1-0	0.643	1	2	0.000	11.111	-0.9	0.025	0.000	D	F	1286.1	0.107	0.186	0.022	1504.237	831.717	0.029	-	-0.176	-0.464	-	-	-	12	4.905	90.044	-	PAVEMENT_GENERAL	Urban	F	1011101000010101	0000000000000000	-	-	-	-	-	-	-	-	-	-	Terminate	
"Student8Mode1"	"Seema_Shokoufeh_Track2"	"Nov 29, 2016 09:47:17 AM"	Unknown	29.98393	10/29/0116 09:47.50	00001799	17.905	Inter612t1-0	0.667	1	2	0.000	11.111	-1.0	0.030	0.000	D	F	1280.8	0.045	0.186	0.006	1504.261	849.847	0.029	-	-0.034	-0.442	-	-	-	12	5.264	94.252	-	PAVEMENT_GENERAL	Urban	F	1011101000010101	0000000000000000	-	-	-	-	-	-	-	-	-	-	Terminate	
"Student8Mode1"	"Seema_Shokoufeh_Track2"	"Nov 29, 2016 09:47:17 AM"	Unknown	30.98395	10/29/0116 09:47.51	00001859	17.469	Inter612t1-0	0.669	1	2	0.000	11.111	0.2	0.028	0.000	D	F	1258.9	0.002	0.187	-0.001	1504.262	867.534	0.029	-	0.008	-0.433	-	-	-	12	5.663	98.918	-	PAVEMENT_GENERAL	Urban	F	1011101000010101	0000000000000000	-	-	-	-	-	-	-	-	-	-	Terminate	
"Student8Mode1"	"Seema_Shokoufeh_Track2"	"Nov 29, 2016 09:47:17 AM"	Unknown	31.98397	10/29/0116 09:47.52	00001919	17.071	Inter612t1-0	0.674	1	2	0.000	11.111	0.4	0.044	0.000	D	F	1283.1	0.063	0.188	-0.004	1504.268	884.799	0.028	-	0.028	-0.367	-	-	-	12	6.093	104.007	-	PAVEMENT_GENERAL	Urban	F	1011101000010101	0000000000000000	-	-	-	-	-	-	-	-	-	-	Terminate	
"Student8Mode1"	"Seema_Shokoufeh_Track2"	"Nov 29, 2016 09:47:17 AM"	Unknown	32.98399	10/29/0116 09:47.53	00001979	16.731	Inter612t1-0	0.706	1	2	0.000	11.111	-2.6	0.049	0.000	D	F	1279.8	0.165	0.189	0.001	1504.299	901.697	0.028	-	-0.045	-0.318	-	-	-	12	6.542	109.463	-	PAVEMENT_GENERAL	Urban	F	1011101000010101	0000000000000000	-	-	-	-	-	-	-	-	-	-	Terminate	
"Student8Mode1"	"Seema_Shokoufeh_Track2"	"Nov 29, 2016 09:47:17 AM"	Unknown	33.98401	10/29/0116 09:47.54	00002039	16.582	Inter612t1-0	0.559	1	2	0.000	11.111	-0.8	0.152	0.000	D	F	1601.5	358.387	0.193	0.048	1504.152	918.303	0.026	-	-0.379	0.140	-	-	-	12	6.948	115.210	-	PAVEMENT_GENERAL	Urban	F	1111101000010101	0000000000000000	-	-	-	-	-	-	-	-	-	-	Terminate	
"Student8Mode1"	"Seema_Shokoufeh_Track2"	"Nov 29, 2016 09:47:17 AM"	Unknown	34.98403	10/29/0116 09:47.55	00002099	16.685	Inter612t1-0	0.230	1	2	0.000	11.111	1.4	0.189	0.000	D	F	1713.0	359.511	0.201	-0.018	1503.824	934.928	0.026	-	0.202	0.290	-	-	-	12	7.248	120.939	-	PAVEMENT_GENERAL	Urban	F	1011101000010101	0000000000000000	-	-	-	-	-	-	-	-	-	-	Terminate	
"Student8Mode1"	"Seema_Shokoufeh_Track2"	"Nov 29, 2016 09:47:17 AM"	Unknown	35.98405	10/29/0116 09:47.56	00002159	16.950	Inter612t1-0	0.108	1	2	0.000	11.111	3.0	0.190	0.000	D	F	1719.5	359.793	0.195	-0.024	1503.701	951.745	0.025	-	0.167	0.271	-	-	-	12	7.461	126.476	-	PAVEMENT_GENERAL	Urban	F	1011101000010101	0000000000000000	-	-	-	-	-	-	-	-	-	-	Terminate	
"Student8Mode1"	"Seema_Shokoufeh_Track2"	"Nov 29, 2016 09:47:17 AM"	Unknown	36.98407	10/29/0116 09:47.57	00002219	17.209	Inter612t1-0	0.091	1	2	0.000	11.111	0.7	0.189	0.000	D	F	1725.2	0.061	0.195	-0.007	1503.685	968.828	0.025	-	0.043	0.260	-	-	-	12	7.655	131.745	-	PAVEMENT_GENERAL	Urban	F	1011101000010101	0000000000000000	-	-	-	-	-	-	-	-	-	-	Terminate	
"Student8Mode1"	"Seema_Shokoufeh_Track2"	"Nov 29, 2016 09:47:17 AM"	Unknown	37.98409	10/29/0116 09:47.58	00002279	17.376	Inter612t1-0	0.130	1	2	0.000	11.111	0.5	0.173	0.000	D	F	1676.8	0.218	0.193	-0.005	1503.723	986.133	0.026	-	0.039	0.172	-	-	-	12	7.873	136.794	-	PAVEMENT_GENERAL	Urban	F	1011101000010101	0000000000000000	-	-	-	-	-	-	-	-	-	-	Terminate	
"Student8Mode1"	"Seema_Shokoufeh_Track2"	"Nov 29, 2016 09:47:17 AM"	Unknown	38.98411	10/29/0116 09:47.59	00002339	17.527	Inter613t1-0	0.200	1	2	0.000	11.111	-0.3	0.168	0.000	D	F	1668.8	0.214	0.192	0.002	1503.794	1003.587	0.026	-	-0.019	0.130	-	-	-	12	8.084	141.694	-	PAVEMENT_GENERAL	Urban	F	1011101000010101	0000000000000000	-	-	-	-	-	-	-	-	-	-	Terminate	
"Student8Mode1"	"Seema_Shokoufeh_Track2"	"Nov 29, 2016 09:47:17 AM"	Unknown	39.98413	10/29/0116 09:48.00	00002399	17.482	Inter613t1-0	0.247	1	2	0.000	11.111	-1.2	0.034	0.000	D	F	1279.9	0.000	0.184	0.016	1503.840	1021.139	0.028	-	-0.111	-0.375	-	-	-	12	8.380	146.496	-	PAVEMENT_GENERAL	Urban	F	1011101000010101	0000000000000000	-	-	-	-	-	-	-	-	-	-	Terminate	
"Student8Mode1"	"Seema_Shokoufeh_Track2"	"Nov 29, 2016 09:47:17 AM"	Unknown	40.98415	10/29/0116 09:48.01	00002459	17.017	Inter613t1-0	0.212	1	2	0.000	11.111	0.5	0.032	0.000	D	F	1240.2	359.849	0.188	-0.003	1503.805	1038.390	0.029	-	0.024	-0.426	-	-	-	12	8.908	151.598	-	PAVEMENT_GENERAL	Urban	F	1011101000010101	0000000000000000	-	-	-	-	-	-	-	-	-	-	Terminate	
"Student8Mode1"	"Seema_Shokoufeh_Track2"	"Nov 29, 2016 09:47:17 AM"	Unknown	41.98417	10/29/0116 09:48.02	00002519	16.650	Inter613t1-0	0.170	1	2	0.000	11.111	0.0	0.053	0.000	D	F	1291.7	359.846	0.190	0.001	1503.764	1055.215	0.028	-	-0.006	-0.306	-	-	-	12	9.437	157.126	-	PAVEMENT_GENERAL	Urban	F	1011101000010101	0000000000000000	-	-	-	-	-	-	-	-	-	-	Terminate	
"Student8Mode1"	"Seema_Shokoufeh_Track2"	"Nov 29, 2016 09:47:17 AM"	Unknown	42.98419	10/29/0116 09:48.03	00002579	16.375	Inter613t1-0	0.127	1	2	0.000	11.111	0.1	0.065	0.000	D	F	1311.8	359.859	0.190	-0.001	1503.720	1071.721	0.028	-	0.006	-0.253	-	-	-	12	9.953	162.973	-	PAVEMENT_GENERAL	Urban	F	1011101000010101	0000000000000000	-	-	-	-	-	-	-	-	-	-	Terminate	
"Student8Mode1"	"Seema_Shokoufeh_Track2"	"Nov 29, 2016 09:47:17 AM"	Unknown	43.98421	10/29/0116 09:48.04	00002639	16.148	Inter613t1-0	0.088	1	2	0.000	11.111	1.9	0.076	0.000	D	F	1345.8	359.944	0.192	-0.013	1503.681	1087.978	0.028	-	0.094	-0.203	-	-	-	12	10.470	169.071	-	PAVEMENT_GENERAL	Urban	F	1011101000010101	0000000000000000	-	-	-	-	-	-	-	-	-	-	Terminate	
"Student8Mode1"	"Seema_Shokoufeh_Track2"	"Nov 29, 2016 09:47:17 AM"	Unknown	44.98423	10/29/0116 09:48.05	00002699	15.963	Inter613t1-0	0.120	1	2	0.000	11.111	0.8	0.078	0.000	D	F	1351.5	0.293	0.192	-0.009	1503.713	1104.031	0.027	-	0.069	-0.182	-	-	-	12	10.986	175.370	-	PAVEMENT_GENERAL	Urban	F	1011101000010101	0000000000000000	-	-	-	-	-	-	-	-	-	-	Terminate	
"Student8Mode1"	"Seema_Shokoufeh_Track2"	"Nov 29, 2016 09:47:17 AM"	Unknown	45.98425	10/29/0116 09:48.06	00002759	15.804	Inter613t1-0	0.188	1	2	0.000	11.111	-0.5	0.086	0.000	D	F	1383.2	0.137	0.193	0.002	1503.781	1119.912	0.027	-	-0.049	-0.137	-	-	-	12	11.506	181.843	-	PAVEMENT_GENERAL	Urban	F	1011101000010101	0000000000000000	-	-	-	-	-	-	-	-	-	-	Terminate	
"Student8Mode1"	"Seema_Shokoufeh_Track2"	"Nov 29, 2016 09:47:17 AM"	Unknown	46.98427	10/29/0116 09:48.07	00002819	15.698	Inter613t1-0	0.206	1	2	0.000	11.111	-1.1	0.092	0.000	D	F	1405.6	0.000	0.193	0.006	1503.799	1135.660	0.027	-	-0.058	-0.093	-	-	-	12	12.005	188.448	-	PAVEMENT_GENERAL	Urban	F	1011101000010101	0000000000000000	-	-	-	-	-	-	-	-	-	-	Terminate	
"Student8Mode1"	"Seema_Shokoufeh_Track2"	"Nov 29, 2016 09:47:17 AM"	Unknown	47.98429	10/29/0116 09:48.08	00002879	15.722	Inter613t1-0	0.180	1	2	0.000	11.111	3.5	0.146	0.000	D	F	1553.3	0.000	0.193	-0.027	1503.773	1151.339	0.026	-	0.152	0.130	-	-	-	12	12.411	195.124	-	PAVEMENT_GENERAL	Urban	F	1011101000010101	0000000000000000	-	-	-	-	-	-	-	-	-	-	Terminate	
"Student8Mode1"	"Seema_Shokoufeh_Track2"	"Nov 29, 2016 09:47:17 AM"	Unknown	48.98431	10/29/0116 09:48.09	00002939	15.861	Inter613t1-0	0.232	1	2	0.000	11.111	0.4	0.164	0.000	D	F	1601.8	0.300	0.195	-0.003	1503.825	1167.127	0.026	-	0.023	0.156	-	-	-	12	12.716	201.688	-	PAVEMENT_GENERAL	Urban	F	1011101000010101	0000000000000000	-	-	-	-	-	-	-	-	-	-	Terminate	
"Student8Mode1"	"Seema_Shokoufeh_Track2"	"Nov 29, 2016 09:47:17 AM"	Unknown	49.98433	10/29/0116 09:48.10	00002999	16.167	Inter613t1-0	0.326	1	2	0.000	11.111	-0.3	0.203	0.000	D	F	1912.0	0.386	0.197	0.000	1503.920	1183.120	0.025	-	0.002	0.396	-	-	-	12	12.868	208.049	-	PAVEMENT_GENERAL	Urban	F	1011101000010101	0000000000000000	-	-	-	-	-	-	-	-	-	-	Terminate	
"Student8Mode1"	"Seema_Shokoufeh_Track2"	"Nov 29, 2016 09:47:17 AM"	Unknown	50.98435	10/29/0116 09:48.11	00003059	16.553	Inter613t1-0	0.398	1	2	0.000	11.111	-3.8	0.190	0.000	D	F	1939.0	359.937	0.196	0.031	1503.992	1199.484	0.025	-	-0.226	0.359	-	-	-	12	12.727	210.671	-	PAVEMENT_GENERAL	Urban	F	1011101000010101	0000000000000000	-	-	-	-	-	-	-	-	-	-	Terminate	
"Student8Mode1"	"Seema_Shokoufeh_Track2"	"Nov 29, 2016 09:47:17 AM"	Unknown	51.98437	10/29/0116 09:48.12	00003119	16.915	Inter746t1-0	0.381	1	2	0.000	11.111	1.2	0.198	0.000	D	F	1977.4	0.143	0.196	-0.013	1503.974	1216.217	0.025	-	0.109	0.359	-	-	-	12	12.641	213.816	149.583	PAVEMENT_GENERAL	Urban	F	1011101000010101	0000000000000000	-	-	-	-	-	-	-	-	-	-	Terminate	
"Student8Mode1"	"Seema_Shokoufeh_Track2"	"Nov 29, 2016 09:47:17 AM"	Unknown	52.98439	10/29/0116 09:48.13	00003179	17.265	Inter746t1-0	0.449	1	2	0.000	11.111	0.8	0.198	0.000	D	F	2005.1	0.339	0.196	-0.004	1504.042	1233.308	0.025	-	0.053	0.348	-	-	-	12	12.181	210.314	40.211	PAVEMENT_GENERAL	Urban	F	1111101000010101	0000000000000000	-	-	-	-	-	-	-	-	-	-	Terminate	
"Student8Mode1"	"Seema_Shokoufeh_Track2"	"Nov 29, 2016 09:47:17 AM"	Unknown	53.98441	10/29/0116 09:48.15	00003239	17.624	Inter746t1-0	0.555	1	2	0.000	11.111	-1.5	0.203	0.000	D	F	2037.6	0.304	0.195	0.007	1504.148	1250.752	0.025	-	-0.063	0.351	-	-	-	12	11.600	204.428	31.547	PAVEMENT_GENERAL	Urban	F	1011101000010101	0000000000000000	-	-	-	-	-	-	-	-	-	-	Terminate	
"Student8Mode1"	"Seema_Shokoufeh_Track2"	"Nov 29, 2016 09:47:17 AM"	Unknown	54.98443	10/29/0116 09:48.16	00003299	17.970	Inter746t1-0	0.577	1	2	0.000	11.111	-1.6	0.189	0.000	D	F	2046.1	359.757	0.194	0.018	1504.170	1268.550	0.025	-	-0.141	0.327	-	-	-	-	-	-	-	PAVEMENT_GENERAL	Urban	F	1011101000010101	0000000000000000	-	-	-	-	-	-	-	-	-	-	Terminate	
"Student8Mode1"	"Seema_Shokoufeh_Track2"	"Nov 29, 2016 09:47:17 AM"	Unknown	55.98445	10/29/0116 09:48.17	00003359	18.021	Inter746t1-0	0.483	1	2	0.000	11.111	0.5	0.120	0.000	D	F	1937.7	359.691	0.192	-0.003	1504.076	1286.569	0.027	-	0.026	-0.046	-	-	-	-	-	-	-	PAVEMENT_GENERAL	Urban	F	1011101000010101	0000000000000000	-	-	-	-	-	-	-	-	-	-	Terminate	
"Student8Mode1"	"Seema_Shokoufeh_Track2"	"Nov 29, 2016 09:47:17 AM"	Unknown	56.98447	10/29/0116 09:48.18	00003419	17.786	Inter746t1-0	0.382	1	2	0.000	11.111	1.2	0.060	0.000	D	F	1765.7	359.589	0.187	0.000	1503.975	1304.505	0.028	-	-0.007	-0.373	-	-	-	-	-	-	-	PAVEMENT_GENERAL	Urban	F	1011101000010101	0000000000000000	-	-	-	-	-	-	-	-	-	-	Terminate	
"Student8Mode1"	"Seema_Shokoufeh_Track2"	"Nov 29, 2016 09:47:17 AM"	Unknown	57.98449	10/29/0116 09:48.19	00003479	17.568	Inter746t1-0	0.279	1	2	0.000	11.111	-0.7	0.104	0.000	D	F	1875.0	359.723	0.190	0.001	1503.872	1322.163	0.027	-	-0.004	-0.114	-	-	-	-	-	-	-	PAVEMENT_GENERAL	Urban	F	1111101000010101	0000000000000000	-	-	-	-	-	-	-	-	-	-	Terminate	
"Student8Mode1"	"Seema_Shokoufeh_Track2"	"Nov 29, 2016 09:47:17 AM"	Unknown	58.98451	10/29/0116 09:48.20	00003539	17.295	Inter746t1-0	0.163	1	2	0.000	11.111	-0.1	0.019	0.000	D	F	1700.1	359.464	0.183	0.008	1503.756	1339.629	0.028	-	-0.058	-0.505	-	-	-	-	-	-	-	PAVEMENT_GENERAL	Urban	F	1011101000010101	0000000000000000	-	-	-	-	-	-	-	-	-	-	Terminate	
"Student8Mode1"	"Seema_Shokoufeh_Track2"	"Nov 29, 2016 09:47:17 AM"	Unknown	59.98453	10/29/0116 09:48.21	00003599	16.803	Inter746t1-0	0.055	1	2	0.000	11.111	1.8	0.025	0.000	D	F	1653.1	0.025	0.187	-0.028	1503.648	1356.670	0.029	-	0.205	-0.476	-	-	-	-	-	-	-	PAVEMENT_GENERAL	Urban	F	1011101000010101	0000000000000000	-	-	-	-	-	-	-	-	-	-	Terminate	
"Student8Mode1"	"Seema_Shokoufeh_Track2"	"Nov 29, 2016 09:47:17 AM"	Unknown	60.98455	10/29/0116 09:48.22	00003659	16.383	Inter746t1-0	0.042	1	2	0.000	11.111	-1.3	0.035	0.000	D	F	1614.4	359.785	0.190	0.007	1503.635	1373.254	0.028	-	-0.084	-0.374	-	-	-	-	-	-	-	PAVEMENT_GENERAL	Urban	F	1011101000010101	0000000000000000	-	-	-	-	-	-	-	-	-	-	Terminate	
"Student8Mode1"	"Seema_Shokoufeh_Track2"	"Nov 29, 2016 09:47:17 AM"	Unknown	61.98457	10/29/0116 09:48.23	00003719	15.754	Inter746t1-0	-0.103	1	2	0.000	11.111	-3.7	0.000	0.143	D	F	1521.2	359.003	0.174	0.032	1503.490	1389.351	0.029	-	-0.219	-1.495	-	-	-	-	-	-	-	PAVEMENT_GENERAL	Urban	F	1011101000010101	0000000000000000	-	-	-	-	-	-	-	-	-	-	Terminate	
"Student8Mode1"	"Seema_Shokoufeh_Track2"	"Nov 29, 2016 09:47:17 AM"	Unknown	62.98459	10/29/0116 09:48.24	00003779	14.183	Inter749t9-0	-0.451	1	2	0.000	11.111	-7.2	0.000	0.000	D	F	1393.0	358.061	0.192	0.053	1503.142	1404.018	0.029	-	-0.377	-0.562	-	-	-	-	-	-	-	PAVEMENT_GENERAL	Urban	F	1011101000010101	0000000000000000	-	-	-	-	-	-	-	-	-	-	Terminate	
"Student8Mode1"	"Seema_Shokoufeh_Track2"	"Nov 29, 2016 09:47:17 AM"	Unknown	63.98461	10/29/0116 09:48.25	00003839	13.588	Inter749t31-0	-1.067	1	1	356.722	11.111	-4.1	0.000	0.018	D	F	1332.5	356.316	0.184	0.039	1502.466	1417.900	0.029	-	-0.300	-0.714	-	-	-	12	5.300	72.022	12.737	PAVEMENT_GENERAL	Urban	F	1011101000010101	0000000000000000	-	-	-	-	-	-	-	-	-	-	Terminate	
"Student8Mode1"	"Seema_Shokoufeh_Track2"	"Nov 29, 2016 09:47:17 AM"	Unknown	64.98463	10/29/0116 09:48.26	00003899	12.727	Inter749t31-0	-1.225	1	1	354.660	11.111	9.8	0.000	0.039	D	F	1245.2	356.535	0.183	-0.057	1501.595	1431.058	0.030	-	0.386	-0.959	-	-	-	12	5.297	67.407	18.588	PAVEMENT_GENERAL	Urban	F	1011101000010101	0000000000000000	-	-	-	-	-	-	-	-	-	-	Terminate	
"Student8Mode1"	"Seema_Shokoufeh_Track2"	"Nov 29, 2016 09:47:17 AM"	Unknown	65.98465	10/29/0116 09:48.27	00003959	11.764	Inter749t31-0	-0.622	1	1	355.763	11.111	3.7	0.000	0.030	D	F	1151.7	358.653	0.187	-0.021	1501.090	1443.283	0.030	-	0.237	-0.845	-	-	-	12	5.486	64.536	31.018	PAVEMENT_GENERAL	Urban	F	1011101000010101	0000000000000000	-	-	-	-	-	-	-	-	-	-	Terminate	
"Student8Mode1"	"Seema_Shokoufeh_Track2"	"Nov 29, 2016 09:47:17 AM"	Unknown	66.98467	10/29/0116 09:48.28	00004019	10.939	Inter749t31-0	0.082	1	1	356.903	11.111	-1.7	0.007	0.030	D	F	1072.8	358.672	0.190	0.010	1500.843	1454.628	0.029	-	-0.068	-0.775	-	-	-	12	5.901	64.548	-	PAVEMENT_GENERAL	Urban	F	1011101000010101	0000000000000000	-	-	-	-	-	-	-	-	-	-	Terminate	
"Student8Mode1"	"Seema_Shokoufeh_Track2"	"Nov 29, 2016 09:47:17 AM"	Unknown	67.98470	10/29/0116 09:48.29	00004079	10.127	Inter749t31-0	0.396	1	1	356.903	11.111	-0.4	0.009	0.093	D	F	999.2	358.552	0.179	0.004	1500.586	1465.193	0.029	-	-0.017	-1.315	-	-	-	12	6.341	64.217	-	PAVEMENT_GENERAL	Urban	F	1011101000010101	0000000000000000	-	-	-	-	-	-	-	-	-	-	Terminate	
"Student8Mode1"	"Seema_Shokoufeh_Track2"	"Nov 29, 2016 09:47:17 AM"	Unknown	68.98471	10/29/0116 09:48.30	00004139	7.540	Inter749t11-0	0.299	LT1	2	0.000	11.111	2.2	0.009	0.287	D	F	781.3	358.635	0.128	-0.007	1500.361	1474.153	0.034	-	0.043	-3.596	-	-	-	12	9.587	72.284	-	PAVEMENT_GENERAL	Urban	F	1111101000010101	0000000000000000	-	-	-	-	-	-	-	-	-	-	Terminate	
"Student8Mode1"	"Seema_Shokoufeh_Track2"	"Nov 29, 2016 09:47:17 AM"	Unknown	69.98473	10/29/0116 09:48.31	00004199	3.138	Inter749t11-0	0.181	LT1	2	0.000	11.111	-0.6	0.016	0.349	D	F	582.5	358.754	0.132	0.003	1500.243	1479.497	0.038	-	-0.004	-4.364	-	-	-	12	25.888	81.222	-	PAVEMENT_GENERAL	Urban	F	1011101000010101	0000000000000000	-	-	-	-	-	-	-	-	-	-	Terminate	
"Student8Mode1"	"Seema_Shokoufeh_Track2"	"Nov 29, 2016 09:47:17 AM"	Unknown	70.98476	10/29/0116 09:48.32	00004259	0.003	Inter749t11-0	0.152	LT1	2	0.000	11.111	-17.5	0.014	0.349	D	F	477.5	358.668	0.286	0.000	1500.215	1480.684	0.036	-	-0.000	-0.128	-	-	-	12	-	98.720	-	PAVEMENT_GENERAL	Urban	F	1011101000010101	0000000000000000	-	-	-	-	-	-	-	-	-	-	Terminate	
"Student8Mode1"	"Seema_Shokoufeh_Track2"	"Nov 29, 2016 09:47:17 AM"	Unknown	71.98477	10/29/0116 09:48.33	00004319	-0.001	Inter749t11-0	0.152	LT1	2	0.000	11.111	-43.3	0.072	0.000	D	F	919.2	358.667	0.229	0.002	1500.215	1480.682	0.031	-	-0.000	0.007	-	-	-	12	-	119.166	-	PAVEMENT_GENERAL	Urban	F	1011101000010101	0000000000000000	-	-	-	-	-	-	-	-	-	-	Terminate	
"Student8Mode1"	"Seema_Shokoufeh_Track2"	"Nov 29, 2016 09:47:17 AM"	Unknown	72.98479	10/29/0116 09:48.34	00004379	2.527	Inter749t11-0	0.077	LT1	2	0.000	11.111	-68.6	0.190	0.000	D	F	1551.0	357.131	0.202	0.038	1500.140	1481.556	0.008	-	-0.268	3.460	-	-	-	12	55.281	139.701	-	PAVEMENT_GENERAL	Urban	F	1011101000010101	0000000000000000	-	-	-	-	-	-	-	-	-	-	Terminate	
"Student8Mode1"	"Seema_Shokoufeh_Track2"	"Nov 29, 2016 09:47:17 AM"	Unknown	73.98481	10/29/0116 09:48.35	00004439	3.952	Inter749t65-0	0.031	1	1	347.645	11.111	32.5	0.005	0.000	D	F	700.6	353.947	0.183	-0.063	1499.731	1485.204	0.025	-	0.430	-0.399	-	-	-	12	40.550	160.270	-	PAVEMENT_GENERAL	Urban	F	1011101000010101	0000000000000000	-	-	-	-	-	-	-	-	-	-	Terminate	
"Student8Mode1"	"Seema_Shokoufeh_Track2"	"Nov 29, 2016 09:47:17 AM"	Unknown	74.98483	10/29/0116 09:48.36	00004499	3.915	Inter749t65-0	0.984	1	1	338.540	11.111	60.4	0.034	0.000	D	F	858.9	359.019	0.199	-0.036	1499.603	1489.068	0.025	-	0.214	0.047	-	-	-	12	45.706	178.916	-	PAVEMENT_GENERAL	Urban	F	1011101000010101	0000000000000000	-	-	-	-	-	-	-	-	-	-	Terminate	
"Student8Mode1"	"Seema_Shokoufeh_Track2"	"Nov 29, 2016 09:47:17 AM"	Unknown	75.98486	10/29/0116 09:48.37	00004559	4.011	-Inter749t61-0	-0.136	-1	1	89.733	11.111	-76.5	0.106	0.000	D	F	1292.8	358.676	0.223	0.093	1499.579	1492.950	0.024	-	-0.648	0.938	-	-	-	12	49.773	199.650	-	PAVEMENT_GENERAL	Urban	F	1011101000010101	0000000000000000	-	-	-	-	-	-	-	-	-	-	Terminate	
"Student8Mode1"	"Seema_Shokoufeh_Track2"	"Nov 29, 2016 09:47:17 AM"	Unknown	76.98487	10/29/0116 09:48.38	00004619	5.098	-Inter749t59-0	-1.049	-1	1	89.733	11.111	-242.1	0.116	0.000	D	F	1388.1	345.280	0.192	0.369	1498.719	1497.459	0.022	-	-2.632	0.647	-	-	-	-	-	-	-	PAVEMENT_GENERAL	Urban	F	1011101000010101	0000000000000000	-	-	-	-	-	-	-	-	-	-	Terminate	
"Student8Mode1"	"Seema_Shokoufeh_Track2"	"Nov 29, 2016 09:47:17 AM"	Unknown	77.98489	10/29/0116 09:48.39	00004679	5.901	-Inter749t83-0	1.062	-1	1	179.883	11.111	-301.7	0.122	0.000	D	F	1436.9	312.765	0.159	0.486	1495.359	1501.779	0.025	-	-3.652	0.324	-	-	-	Ambient270	4.703	27.752	-	PAVEMENT_GENERAL	Urban	F	1011101000010101	0000000000000000	-	-	-	-	-	-	-	-	-	-	Terminate	
"Student8Mode1"	"Seema_Shokoufeh_Track2"	"Nov 29, 2016 09:47:17 AM"	Unknown	78.98492	10/29/0116 09:48.40	00004739	6.439	Inter749t75-0	0.253	1	1	269.734	11.111	-176.1	0.088	0.000	D	F	1357.6	280.725	0.176	0.255	1489.541	1503.820	0.025	-	-2.253	0.349	-	-	-	-	-	-	-	PAVEMENT_GENERAL	Urban	F	1011101000010101	0000000000000000	-	-	-	-	-	-	-	-	-	-	Terminate	
"Student8Mode1"	"Seema_Shokoufeh_Track2"	"Nov 29, 2016 09:47:17 AM"	Unknown	79.98493	10/29/0116 09:48.41	00004799	7.053	Inter749t75-0	0.334	1	1	269.734	11.111	1.0	0.109	0.000	D	F	1473.3	268.724	0.208	-0.023	1482.804	1503.870	0.023	-	0.092	0.629	-	-	-	-	-	-	-	PAVEMENT_GENERAL	Urban	F	1011101000010101	0000000000000000	-	-	-	-	-	-	-	-	-	-	Terminate	
"Student8Mode1"	"Seema_Shokoufeh_Track2"	"Nov 29, 2016 09:47:17 AM"	Unknown	80.98495	10/29/0116 09:48.42	00004859	7.956	Inter749t3-3	0.310	1	2	270.000	11.111	5.9	0.183	0.000	D	F	1719.6	270.442	0.214	-0.001	1475.357	1503.841	0.021	-	0.106	1.133	-	-	-	-	-	-	-	PAVEMENT_GENERAL	Urban	F	1011101000010101	0000000000000000	-	-	-	-	-	-	-	-	-	-	Terminate	
"Student8Mode1"	"Seema_Shokoufeh_Track2"	"Nov 29, 2016 09:47:17 AM"	Unknown	81.98497	10/29/0116 09:48.43	00004919	8.992	Inter749t19-0	0.463	1	1	270.062	11.111	-0.9	0.180	0.000	D	F	1786.4	271.263	0.209	0.005	1466.873	1503.994	0.022	-	-0.015	0.969	-	-	-	-	-	-	-	PAVEMENT_GENERAL	Urban	F	1011101000010101	0000000000000000	-	-	-	-	-	-	-	-	-	-	Terminate	
"Student8Mode1"	"Seema_Shokoufeh_Track2"	"Nov 29, 2016 09:47:17 AM"	Unknown	82.98499	10/29/0116 09:48.44	00004979	9.912	Inter749t19-0	0.638	1	1	270.092	11.111	-0.7	0.183	0.000	D	F	1865.3	270.987	0.209	0.004	1457.417	1504.179	0.022	-	-0.029	0.887	-	-	-	-	-	-	-	PAVEMENT_GENERAL	Urban	F	1011101000010101	0000000000000000	-	-	-	-	-	-	-	-	-	-	Terminate	
"Student8Mode1"	"Seema_Shokoufeh_Track2"	"Nov 29, 2016 09:47:17 AM"	Unknown	83.98502	10/29/0116 09:48.45	00005039	10.761	Inter749t19-0	0.777	1	1	270.103	11.111	-9.2	0.192	0.000	D	F	1956.5	270.613	0.208	0.035	1447.080	1504.333	0.022	-	-0.258	0.856	-	-	-	-	-	-	-	PAVEMENT_GENERAL	Urban	F	1011101000010101	0000000000000000	-	-	-	-	-	-	-	-	-	-	Terminate	
"Student8Mode1"	"Seema_Shokoufeh_Track2"	"Nov 29, 2016 09:47:17 AM"	Unknown	84.98503	10/29/0116 09:48.46	00005099	11.599	Inter749t19-0	0.653	1	1	270.068	11.111	-1.6	0.189	0.000	D	F	2042.9	268.628	0.206	0.018	1435.898	1504.231	0.023	-	-0.144	0.797	-	-	-	-	-	-	-	PAVEMENT_GENERAL	Urban	F	1011101000010101	0000000000000000	-	-	-	-	-	-	-	-	-	-	Terminate	
"Student8Mode1"	"Seema_Shokoufeh_Track2"	"Nov 29, 2016 09:47:17 AM"	Unknown	85.98505	10/29/0116 09:48.47	00005159	12.363	Inter749t19-0	0.442	1	1	270.061	11.111	3.6	0.198	0.000	D	F	2137.0	269.644	0.205	-0.021	1423.921	1504.035	0.023	-	0.188	0.760	-	-	-	-	-	-	-	PAVEMENT_GENERAL	Urban	F	1011101000010101	0000000000000000	-	-	-	-	-	-	-	-	-	-	Terminate	
"Student8Mode1"	"Seema_Shokoufeh_Track2"	"Nov 29, 2016 09:47:17 AM"	Unknown	86.98507	10/29/0116 09:48.48	00005219	13.113	Inter749t1-2	0.355	1	2	270.000	11.111	-4.8	0.199	0.000	D	F	1880.2	269.333	0.202	0.027	1411.181	1503.955	0.023	-	-0.206	0.684	-	-	-	-	-	-	-	PAVEMENT_GENERAL	Urban	F	1011101000010101	0000000000000000	-	-	-	-	-	-	-	-	-	-	Terminate	
"Student8Mode1"	"Seema_Shokoufeh_Track2"	"Nov 29, 2016 09:47:17 AM"	Unknown	87.98509	10/29/0116 09:48.49	00005279	13.726	Inter747t1-2	0.107	1	2	270.000	11.111	-3.3	0.199	0.000	D	F	1826.9	268.661	0.202	0.020	1397.755	1503.714	0.024	-	-0.148	0.568	-	-	-	-	-	-	-	PAVEMENT_GENERAL	Urban	F	1011101000010101	0000000000000000	-	-	-	-	-	-	-	-	-	-	Terminate	
"Student8Mode1"	"Seema_Shokoufeh_Track2"	"Nov 29, 2016 09:47:17 AM"	Unknown	88.98512	10/29/0116 09:48.50	00005339	14.268	Inter747t1-2	-0.289	1	2	270.000	11.111	1.3	0.196	0.000	D	F	1845.3	268.187	0.200	-0.002	1383.760	1503.318	0.024	-	0.008	0.520	-	-	-	-	-	-	-	PAVEMENT_GENERAL	Urban	F	1011101000010101	0000000000000000	-	-	-	-	-	-	-	-	-	-	Terminate	
"Student8Mode1"	"Seema_Shokoufeh_Track2"	"Nov 29, 2016 09:47:17 AM"	Unknown	89.98513	10/29/0116 09:48.51	00005399	14.785	Inter747t1-2	-0.667	1	2	270.000	11.111	14.3	0.203	0.000	D	F	1882.3	269.096	0.200	-0.073	1369.237	1502.939	0.024	-	0.560	0.519	-	-	-	-	-	-	-	PAVEMENT_GENERAL	Urban	F	1011101000010101	0000000000000000	-	-	-	-	-	-	-	-	-	-	Terminate	
"Student8Mode1"	"Seema_Shokoufeh_Track2"	"Nov 29, 2016 09:47:17 AM"	Unknown	90.98515	10/29/0116 09:48.52	00005459	15.276	Inter747t1-2	-0.565	1	2	270.000	11.111	-0.3	0.201	0.000	D	F	1901.0	271.320	0.199	-0.024	1354.206	1503.042	0.024	-	0.143	0.478	-	-	-	-	-	-	-	PAVEMENT_GENERAL	Urban	F	1011101000010101	0000000000000000	-	-	-	-	-	-	-	-	-	-	Terminate	
"Student8Mode1"	"Seema_Shokoufeh_Track2"	"Nov 29, 2016 09:47:17 AM"	Unknown	91.98518	10/29/0116 09:48.53	00005519	15.743	Inter747t1-2	-0.261	1	2	270.000	11.111	0.6	0.198	0.000	D	F	1920.4	270.962	0.197	-0.003	1338.698	1503.345	0.024	-	-0.006	0.437	-	-	-	-	-	-	-	PAVEMENT_GENERAL	Urban	F	1011101000010101	0000000000000000	-	-	-	-	-	-	-	-	-	-	Terminate	
"Student8Mode1"	"Seema_Shokoufeh_Track2"	"Nov 29, 2016 09:47:17 AM"	Unknown	92.98519	10/29/0116 09:48.54	00005579	16.180	Inter747t1-2	-0.007	1	2	270.000	11.111	-4.4	0.208	0.000	D	F	1962.6	270.665	0.198	0.028	1322.739	1503.600	0.024	-	-0.215	0.454	-	-	-	-	-	-	-	PAVEMENT_GENERAL	Urban	F	1011101000010101	0000000000000000	-	-	-	-	-	-	-	-	-	-	Terminate	
"Student8Mode1"	"Seema_Shokoufeh_Track2"	"Nov 29, 2016 09:47:17 AM"	Unknown	93.98521	10/29/0116 09:48.55	00005639	16.631	Inter747t1-2	0.141	1	2	270.000	11.111	-1.9	0.208	0.000	D	F	1987.6	270.472	0.197	0.006	1306.331	1503.747	0.025	-	-0.048	0.435	-	-	-	-	-	-	-	PAVEMENT_GENERAL	Urban	F	1011101000010101	0000000000000000	-	-	-	-	-	-	-	-	-	-	Terminate	
"Student8Mode1"	"Seema_Shokoufeh_Track2"	"Nov 29, 2016 09:47:17 AM"	Unknown	94.98523	10/29/0116 09:48.56	00005699	17.071	Inter747t1-2	0.223	1	2	270.000	11.111	-0.6	0.213	0.000	D	F	2018.7	270.083	0.196	0.005	1289.479	1503.829	0.025	-	-0.059	0.434	-	-	-	-	-	-	-	PAVEMENT_GENERAL	Urban	F	1011101000010101	0000000000000000	-	-	-	-	-	-	-	-	-	-	Terminate	
"Student8Mode1"	"Seema_Shokoufeh_Track2"	"Nov 29, 2016 09:47:17 AM"	Unknown	95.98525	10/29/0116 09:48.57	00005759	17.505	Inter747t1-2	0.232	1	2	270.000	11.111	-0.8	0.213	0.000	D	F	2044.3	269.939	0.195	0.007	1272.189	1503.839	0.025	-	-0.051	0.407	-	-	-	-	-	-	-	PAVEMENT_GENERAL	Urban	F	1011101000010101	0000000000000000	-	-	-	-	-	-	-	-	-	-	Terminate	
"Student8Mode1"	"Seema_Shokoufeh_Track2"	"Nov 29, 2016 09:47:17 AM"	Unknown	96.98528	10/29/0116 09:48.58	00005819	17.428	Inter747t1-2	0.192	1	2	270.000	11.111	0.8	0.018	0.000	D	F	1268.9	269.828	0.185	-0.005	1254.614	1503.799	0.029	-	0.019	-0.480	-	-	-	-	-	-	-	PAVEMENT_GENERAL	Urban	F	1011101000010101	0000000000000000	-	-	-	-	-	-	-	-	-	-	Terminate	
"Student8Mode1"	"Seema_Shokoufeh_Track2"	"Nov 29, 2016 09:47:17 AM"	Unknown	97.98529	10/29/0116 09:48.59	00005879	17.051	Inter747t1-2	0.157	1	2	270.000	11.111	-1.0	0.088	0.000	D	F	1434.6	269.923	0.193	0.002	1237.401	1503.764	0.028	-	-0.018	-0.155	-	-	-	-	-	-	-	PAVEMENT_GENERAL	Urban	F	1011101000010101	0000000000000000	-	-	-	-	-	-	-	-	-	-	Terminate	
"Student8Mode1"	"Seema_Shokoufeh_Track2"	"Nov 29, 2016 09:47:17 AM"	Unknown	98.98531	10/29/0116 09:49.00	00005939	16.919	Inter747t1-2	0.149	1	2	270.000	11.111	1.6	0.099	0.000	D	F	1465.2	270.202	0.191	-0.017	1220.419	1503.756	0.027	-	0.134	-0.111	-	-	-	-	-	-	-	PAVEMENT_GENERAL	Urban	F	1111101000010101	0000000000000000	-	-	-	-	-	-	-	-	-	-	Terminate	
"Student8Mode1"	"Seema_Shokoufeh_Track2"	"Nov 29, 2016 09:47:17 AM"	Unknown	99.98534	10/29/0116 09:49.01	00005999	16.814	Inter747t1-2	0.232	1	2	270.000	11.111	-0.2	0.101	0.000	D	F	1468.2	270.358	0.191	-0.000	1203.554	1503.839	0.027	-	0.011	-0.093	-	-	-	-	-	-	-	PAVEMENT_GENERAL	Urban	F	1011101000010101	0000000000000000	-	-	-	-	-	-	-	-	-	-	Terminate	
"Student8Mode1"	"Seema_Shokoufeh_Track2"	"Nov 29, 2016 09:47:17 AM"	Unknown	100.98535	10/29/0116 09:49.02	00006059	16.736	Inter748t1-2	0.249	1	2	270.000	11.111	1.6	0.109	0.000	D	F	1496.4	269.635	0.192	-0.002	1186.781	1503.856	0.027	-	-0.051	-0.055	-	-	-	-	-	-	-	PAVEMENT_GENERAL	Urban	F	1011101000010101	0000000000000000	-	-	-	-	-	-	-	-	-	-	Terminate	
"Student8Mode1"	"Seema_Shokoufeh_Track2"	"Nov 29, 2016 09:47:17 AM"	Unknown	101.98537	10/29/0116 09:49.03	00006119	16.693	Inter748t1-2	0.188	1	2	270.000	11.111	-0.5	0.111	0.000	D	F	1504.6	269.839	0.192	0.003	1170.069	1503.794	0.027	-	-0.016	-0.036	-	-	-	-	-	-	-	PAVEMENT_GENERAL	Urban	F	1011101000010101	0000000000000000	-	-	-	-	-	-	-	-	-	-	Terminate	
"Student8Mode1"	"Seema_Shokoufeh_Track2"	"Nov 29, 2016 09:47:17 AM"	Unknown	102.98539	10/29/0116 09:49.04	00006179	16.614	Inter748t1-2	0.148	1	2	270.000	11.111	3.2	0.088	0.000	D	F	1401.4	270.039	0.187	-0.024	1153.402	1503.755	0.027	-	0.162	-0.190	-	-	-	-	-	-	-	PAVEMENT_GENERAL	Urban	F	1011101000010101	0000000000000000	-	-	-	-	-	-	-	-	-	-	Terminate	
"Student8Mode1"	"Seema_Shokoufeh_Track2"	"Nov 29, 2016 09:47:17 AM"	Unknown	103.98541	10/29/0116 09:49.05	00006239	16.334	Inter748t1-2	0.206	1	2	270.000	11.111	-0.1	0.041	0.000	D	F	1234.2	270.302	0.189	-0.002	1136.906	1503.812	0.028	-	0.014	-0.362	-	-	-	-	-	-	-	PAVEMENT_GENERAL	Urban	F	1011101000010101	0000000000000000	-	-	-	-	-	-	-	-	-	-	Terminate	
"Student8Mode1"	"Seema_Shokoufeh_Track2"	"Nov 29, 2016 09:47:17 AM"	Unknown	104.98544	10/29/0116 09:49.06	00006299	16.006	Inter748t1-2	0.291	1	2	270.000	11.111	-0.8	0.060	0.000	D	F	1282.4	270.300	0.192	0.004	1120.743	1503.898	0.028	-	-0.025	-0.265	-	-	-	-	-	-	-	PAVEMENT_GENERAL	Urban	F	1011101000010101	0000000000000000	-	-	-	-	-	-	-	-	-	-	Terminate	
"Student8Mode1"	"Seema_Shokoufeh_Track2"	"Nov 29, 2016 09:47:17 AM"	Unknown	105.98545	10/29/0116 09:49.07	00006359	15.760	Inter748t1-2	0.360	1	2	270.000	11.111	1.6	0.065	0.000	D	F	1296.5	270.255	0.192	-0.008	1104.862	1503.967	0.028	-	0.056	-0.233	-	-	-	-	-	-	-	PAVEMENT_GENERAL	Urban	F	1111101000010101	0000000000000000	-	-	-	-	-	-	-	-	-	-	Terminate	
"Student8Mode1"	"Seema_Shokoufeh_Track2"	"Nov 29, 2016 09:47:17 AM"	Unknown	106.98547	10/29/0116 09:49.08	00006419	15.569	Inter748t1-2	0.475	1	2	270.000	11.111	2.4	0.078	0.000	D	F	1345.7	270.628	0.192	-0.015	1089.203	1504.082	0.027	-	0.117	-0.162	-	-	-	-	-	-	-	PAVEMENT_GENERAL	Urban	F	1011101000010101	0000000000000000	-	-	-	-	-	-	-	-	-	-	Terminate	
"Student8Mode1"	"Seema_Shokoufeh_Track2"	"Nov 29, 2016 09:47:17 AM"	Unknown	107.98550	10/29/0116 09:49.09	00006479	15.422	Inter748t1-2	0.713	1	2	270.000	11.111	2.7	0.078	0.000	D	F	1356.2	271.137	0.193	-0.019	1073.712	1504.320	0.027	-	0.126	-0.137	-	-	-	-	-	-	-	PAVEMENT_GENERAL	Urban	F	1011101000010101	0000000000000000	-	-	-	-	-	-	-	-	-	-	Terminate	
"Student8Mode1"	"Seema_Shokoufeh_Track2"	"Nov 29, 2016 09:47:17 AM"	Unknown	108.98551	10/29/0116 09:49.10	00006539	15.292	Inter748t1-2	1.108	1	2	270.000	11.111	3.6	0.085	0.000	D	F	1375.7	271.910	0.194	-0.026	1058.362	1504.715	0.027	-	0.209	-0.106	-	-	-	-	-	-	-	PAVEMENT_GENERAL	Urban	F	1011101000010101	0000000000000000	-	-	-	-	-	-	-	-	-	-	Terminate	
"Student8Mode1"	"Seema_Shokoufeh_Track2"	"Nov 29, 2016 09:47:17 AM"	Unknown	109.98553	10/29/0116 09:49.11	00006599	15.209	Inter748t1-2	1.644	1	2	270.000	11.111	-3.6	0.095	0.000	D	F	1406.2	271.861	0.194	0.027	1043.126	1505.250	0.027	-	-0.181	-0.056	-	-	-	-	-	-	-	PAVEMENT_GENERAL	Urban	F	1011101000010101	0000000000000000	-	-	-	-	-	-	-	-	-	-	Terminate	
"Student8Mode1"	"Seema_Shokoufeh_Track2"	"Nov 29, 2016 09:47:17 AM"	Unknown	110.98555	10/29/0116 09:49.12	00006659	15.167	Inter748t1-3	-1.405	2	2	270.000	11.111	4.8	0.108	0.000	D	F	1441.9	272.795	0.195	-0.037	1027.952	1505.802	0.027	-	0.351	-0.010	-	-	-	-	-	-	-	PAVEMENT_GENERAL	Urban	F	1111101000010101	0000000000000000	-	-	-	-	-	-	-	-	-	-	Terminate	
"Student8Mode1"	"Seema_Shokoufeh_Track2"	"Nov 29, 2016 09:47:17 AM"	Unknown	111.98557	10/29/0116 09:49.13	00006719	15.176	Inter748t1-3	-0.659	2	2	270.000	11.111	-9.0	0.111	0.000	D	F	1458.3	272.285	0.194	0.064	1012.802	1506.548	0.026	-	-0.471	0.016	-	-	-	-	-	-	-	PAVEMENT_GENERAL	Urban	F	1011101000010101	0000000000000000	-	-	-	-	-	-	-	-	-	-	Terminate	
"Student8Mode1"	"Seema_Shokoufeh_Track2"	"Nov 29, 2016 09:47:17 AM"	Unknown	112.98560	10/29/0116 09:49.14	00006779	15.189	Inter752t1-3	-0.964	2	2	269.994	24.444	-3.4	0.118	0.000	D	F	1468.3	270.616	0.428	0.008	997.622	1506.935	0.033	-	-0.313	0.013	-	-	-	-	-	-	-	FREEWAY_SMOOTH	Urban	F	1011101000010101	0000000000000000	-	-	-	-	-	-	-	-	-	-	Terminate	
"Student8Mode1"	"Seema_Shokoufeh_Track2"	"Nov 29, 2016 09:47:17 AM"	Unknown	113.98561	10/29/0116 09:49.15	00006839	15.249	Inter752t1-3	-0.821	2	2	269.783	24.444	-0.7	0.116	0.000	D	F	1473.5	270.358	0.465	-0.389	982.406	1507.057	0.070	-	-0.064	0.091	-	-	-	-	-	-	-	FREEWAY_SMOOTH	Urban	F	1011101000010101	0000000000000000	-	-	-	-	-	-	-	-	-	-	Terminate	
"Student8Mode1"	"Seema_Shokoufeh_Track2"	"Nov 29, 2016 09:47:17 AM"	Unknown	114.98563	10/29/0116 09:49.16	00006899	15.332	Inter752t1-3	-0.681	2	2	269.146	24.444	-5.8	0.116	0.000	D	F	1477.6	269.511	0.376	-0.732	967.118	1507.058	0.120	-	-0.350	0.088	-	-	-	-	-	-	-	FREEWAY_SMOOTH	Urban	F	1111101000010101	0000000000000000	-	-	-	-	-	-	-	-	-	-	Terminate	
"Student8Mode1"	"Seema_Shokoufeh_Track2"	"Nov 29, 2016 09:47:17 AM"	Unknown	115.98566	10/29/0116 09:49.17	00006959	15.416	Inter752t1-3	-0.624	2	2	268.087	24.444	-5.9	0.122	0.000	D	F	1487.6	268.243	0.379	-1.111	951.747	1506.743	0.169	-	-0.369	0.092	-	-	-	-	-	-	-	FREEWAY_SMOOTH	Urban	F	1111101000010101	0000000000000000	-	-	-	-	-	-	-	-	-	-	Terminate	
"Student8Mode1"	"Seema_Shokoufeh_Track2"	"Nov 29, 2016 09:47:17 AM"	Unknown	116.98567	10/29/0116 09:49.18	00007019	15.506	Inter752t1-3	-0.617	2	2	266.599	24.444	-7.6	0.120	0.000	D	F	1492.8	266.427	0.365	-1.476	936.304	1506.029	0.217	-	-0.545	0.090	-	-	-	-	-	-	-	FREEWAY_SMOOTH	Urban	F	1011101000010101	0000000000000000	-	-	-	-	-	-	-	-	-	-	Terminate	
"Student8Mode1"	"Seema_Shokoufeh_Track2"	"Nov 29, 2016 09:47:17 AM"	Unknown	117.98569	10/29/0116 09:49.19	00007079	15.595	Inter752t1-3	-0.730	2	2	264.698	24.444	-11.5	0.120	0.000	D	F	1492.5	263.848	0.336	-1.826	920.809	1504.727	0.261	-	-0.810	0.079	-	-	-	-	-	-	-	FREEWAY_SMOOTH	Urban	F	1111101000010101	0000000000000000	-	-	-	-	-	-	-	-	-	-	Terminate	
"Student8Mode1"	"Seema_Shokoufeh_Track2"	"Nov 29, 2016 09:47:17 AM"	Unknown	118.98571	10/29/0116 09:49.20	00007139	15.685	Inter752t1-3	-1.017	2	2	262.343	24.444	-10.4	0.123	0.000	D	F	1500.1	261.155	0.326	-2.222	905.307	1502.662	0.297	-	-0.734	0.099	-	-	-	-	-	-	-	FREEWAY_SMOOTH	Urban	F	1011101000010101	0000000000000000	-	-	-	-	-	-	-	-	-	-	Terminate	
"Student8Mode1"	"Seema_Shokoufeh_Track2"	"Nov 29, 2016 09:47:17 AM"	Unknown	119.98573	10/29/0116 09:49.21	00007199	15.773	Inter752t1-3	-1.310	2	2	259.555	24.444	-0.7	0.123	0.000	D	F	1499.8	258.939	0.328	-2.664	889.825	1499.880	0.329	-	-0.345	0.085	-	-	-	-	-	-	-	FREEWAY_SMOOTH	Urban	F	1011101000010101	0000000000000000	-	-	-	-	-	-	-	-	-	-	Terminate	
"Student8Mode1"	"Seema_Shokoufeh_Track2"	"Nov 29, 2016 09:47:17 AM"	Unknown	120.98576	10/29/0116 09:49.22	00007259	15.852	Inter752t1-3	-1.196	2	2	256.371	24.444	-3.7	0.123	0.000	D	F	1507.3	257.886	0.453	-3.029	874.340	1496.666	0.379	-	-0.385	0.067	-	-	-	-	-	-	-	FREEWAY_SMOOTH	Urban	F	1011101000010101	0000000000000000	-	-	-	-	-	-	-	-	-	-	Terminate	
"Student8Mode1"	"Seema_Shokoufeh_Track2"	"Nov 29, 2016 09:47:17 AM"	Unknown	121.98577	10/29/0116 09:49.23	00007319	15.921	Inter752t1-3	-0.626	2	2	252.702	24.444	-25.4	0.123	0.000	D	F	1512.3	254.460	0.484	-3.239	858.892	1492.944	0.458	-	-1.660	0.054	-	-	-	-	-	-	-	FREEWAY_SMOOTH	Urban	F	1011101000010101	0000000000000000	-	-	-	-	-	-	-	-	-	-	Terminate	
"Student8Mode1"	"Seema_Shokoufeh_Track2"	"Nov 29, 2016 09:47:17 AM"	Unknown	122.98579	10/29/0116 09:49.24	00007379	15.963	Inter752t1-3	-0.418	2	2	248.822	24.444	-18.1	0.132	0.000	D	F	1525.6	248.509	0.180	-3.324	843.798	1487.840	0.477	-	-1.429	0.051	-	-	-	-	-	-	-	FREEWAY_SMOOTH	Urban	F	1011101000010101	0000000000000000	-	-	-	-	-	-	-	-	-	-	Terminate	
"Student8Mode1"	"Seema_Shokoufeh_Track2"	"Nov 29, 2016 09:47:17 AM"	Unknown	123.98581	10/29/0116 09:49.25	00007439	16.022	Inter752t1-3	-0.490	2	2	244.848	24.444	-12.5	0.132	0.000	D	F	1536.5	244.651	0.188	-3.386	829.148	1481.431	0.472	-	-0.963	0.063	-	-	-	-	-	-	-	FREEWAY_SMOOTH	Urban	F	1011101000010101	0000000000000000	-	-	-	-	-	-	-	-	-	-	Terminate	
"Student8Mode1"	"Seema_Shokoufeh_Track2"	"Nov 29, 2016 09:47:17 AM"	Unknown	124.98583	10/29/0116 09:49.26	00007499	16.078	Inter752t1-3	-0.465	2	2	240.877	24.444	-10.9	0.134	0.000	D	F	1540.0	241.189	0.226	-3.394	814.878	1474.087	0.474	-	-0.901	0.067	-	-	-	-	-	-	-	FREEWAY_SMOOTH	Urban	F	1011101000010101	0000000000000000	-	-	-	-	-	-	-	-	-	-	Terminate	
"Student8Mode1"	"Seema_Shokoufeh_Track2"	"Nov 29, 2016 09:47:17 AM"	Unknown	125.98586	10/29/0116 09:49.27	00007559	16.137	Inter752t1-3	-0.243	2	2	236.903	24.444	-15.6	0.134	0.000	D	F	1544.6	238.028	0.271	-3.372	800.998	1465.915	0.487	-	-1.046	0.057	-	-	-	-	-	-	-	FREEWAY_SMOOTH	Urban	F	1011101000010101	0000000000000000	-	-	-	-	-	-	-	-	-	-	Terminate	
"Student8Mode1"	"Seema_Shokoufeh_Track2"	"Nov 29, 2016 09:47:17 AM"	Unknown	126.98587	10/29/0116 09:49.28	00007619	16.198	Inter752t1-3	-0.037	2	2	232.924	24.444	-21.1	0.138	0.000	D	F	1549.7	232.732	0.180	-3.305	787.682	1456.753	0.500	-	-1.610	0.066	-	-	-	-	-	-	-	FREEWAY_SMOOTH	Urban	F	1011101000010101	0000000000000000	-	-	-	-	-	-	-	-	-	-	Terminate	
"Student8Mode1"	"Seema_Shokoufeh_Track2"	"Nov 29, 2016 09:47:17 AM"	Unknown	127.98589	10/29/0116 09:49.29	00007679	16.252	Inter752t1-3	-0.193	2	2	228.928	24.444	-11.9	0.134	0.000	D	F	1546.3	228.240	0.160	-3.384	775.217	1446.371	0.490	-	-0.975	0.062	-	-	-	-	-	-	-	FREEWAY_SMOOTH	Urban	F	1011101000010101	0000000000000000	-	-	-	-	-	-	-	-	-	-	Terminate	
"Student8Mode1"	"Seema_Shokoufeh_Track2"	"Nov 29, 2016 09:47:17 AM"	Unknown	128.98592	10/29/0116 09:49.30	00007739	16.318	Inter752t1-3	-0.318	2	2	224.916	24.444	-15.4	0.139	0.000	D	F	1555.7	224.418	0.173	-3.355	763.442	1435.124	0.483	-	-1.185	0.067	-	-	-	-	-	-	-	FREEWAY_SMOOTH	Urban	F	1011101000010101	0000000000000000	-	-	-	-	-	-	-	-	-	-	Terminate	
"Student8Mode1"	"Seema_Shokoufeh_Track2"	"Nov 29, 2016 09:47:17 AM"	Unknown	129.98593	10/29/0116 09:49.31	00007799	16.390	Inter752t1-3	-0.445	2	2	220.888	24.444	-13.9	0.139	0.000	D	F	1559.8	220.390	0.181	-3.369	752.437	1423.027	0.475	-	-1.106	0.068	-	-	-	-	-	-	-	FREEWAY_SMOOTH	Urban	F	1011101000010101	0000000000000000	-	-	-	-	-	-	-	-	-	-	Terminate	
"Student8Mode1"	"Seema_Shokoufeh_Track2"	"Nov 29, 2016 09:47:17 AM"	Unknown	130.98595	10/29/0116 09:49.32	00007859	16.459	Inter752t1-3	-0.512	2	2	216.854	24.444	-13.6	0.138	0.000	D	F	1560.7	216.768	0.203	-3.374	742.222	1410.167	0.471	-	-1.043	0.065	-	-	-	-	-	-	-	FREEWAY_SMOOTH	Urban	F	1011101000010101	0000000000000000	-	-	-	-	-	-	-	-	-	-	Terminate	
"Student8Mode1"	"Seema_Shokoufeh_Track2"	"Nov 29, 2016 09:47:17 AM"	Unknown	131.98598	10/29/0116 09:49.33	00007919	16.519	Inter752t1-3	-0.471	2	2	212.826	24.444	-13.7	0.139	0.000	D	F	1567.6	212.972	0.218	-3.368	732.817	1396.625	0.474	-	-1.089	0.069	-	-	-	-	-	-	-	FREEWAY_SMOOTH	Urban	F	1011101000010101	0000000000000000	-	-	-	-	-	-	-	-	-	-	Terminate	
"Student8Mode1"	"Seema_Shokoufeh_Track2"	"Nov 29, 2016 09:47:17 AM"	Unknown	132.98599	10/29/0116 09:49.34	00007979	16.576	Inter752t1-3	-0.356	2	2	208.690	24.444	-15.9	0.134	0.000	D	F	1550.8	209.028	0.214	-3.351	724.303	1382.434	0.480	-	-1.217	0.025	-	-	-	-	-	-	-	FREEWAY_SMOOTH	Urban	F	1011101000010101	0000000000000000	-	-	-	-	-	-	-	-	-	-	Terminate	
"Student8Mode1"	"Seema_Shokoufeh_Track2"	"Nov 29, 2016 09:47:17 AM"	Unknown	133.98601	10/29/0116 09:49.35	00008039	16.611	Inter752t1-3	-0.283	2	2	204.618	24.444	-19.1	0.134	0.000	D	F	1556.5	204.446	0.183	-3.322	716.840	1367.616	0.485	-	-1.429	0.037	-	-	-	-	-	-	-	FREEWAY_SMOOTH	Urban	F	1011101000010101	0000000000000000	-	-	-	-	-	-	-	-	-	-	Terminate	
"Student8Mode1"	"Seema_Shokoufeh_Track2"	"Nov 29, 2016 09:47:17 AM"	Unknown	134.98604	10/29/0116 09:49.36	00008099	16.654	Inter752t1-3	-0.396	2	2	200.572	24.444	-15.5	0.138	0.000	D	F	1565.8	199.783	0.162	-3.348	710.610	1352.198	0.478	-	-1.249	0.054	-	-	-	-	-	-	-	FREEWAY_SMOOTH	Urban	F	1011101000010101	0000000000000000	-	-	-	-	-	-	-	-	-	-	Terminate	
"Student8Mode1"	"Seema_Shokoufeh_Track2"	"Nov 29, 2016 09:47:17 AM"	Unknown	135.98605	10/29/0116 09:49.37	00008159	16.700	Inter752t1-3	-0.585	2	2	196.452	24.444	-15.2	0.141	0.000	D	F	1574.6	195.641	-0.027	-3.192	705.557	1336.304	0.449	-	-1.183	0.016	-	-	-	-	-	-	-	FREEWAY_SMOOTH	Urban	F	1011101000010101	0000000000000000	-	-	-	-	-	-	-	-	-	-	Terminate	
"Student8Mode1"	"Seema_Shokoufeh_Track2"	"Nov 29, 2016 09:47:17 AM"	Unknown	136.98607	10/29/0116 09:49.38	00008219	16.712	Inter752t1-3	-0.815	2	2	192.681	24.444	-15.1	0.143	0.000	D	F	1574.9	191.624	-0.023	-2.795	701.635	1320.067	0.386	-	-1.151	0.015	-	-	-	-	-	-	-	FREEWAY_SMOOTH	Urban	F	1011101000010101	0000000000000000	-	-	-	-	-	-	-	-	-	-	Terminate	
"Student8Mode1"	"Seema_Shokoufeh_Track2"	"Nov 29, 2016 09:47:17 AM"	Unknown	137.98610	10/29/0116 09:49.39	00008279	16.728	Inter752t1-3	-1.179	2	2	189.450	24.444	-10.0	0.141	0.000	D	F	1578.9	187.785	-0.037	-2.420	698.834	1303.585	0.321	-	-0.924	0.032	-	-	-	-	-	-	-	FREEWAY_SMOOTH	Urban	F	1011101000010101	0000000000000000	-	-	-	-	-	-	-	-	-	-	Terminate	
"Student8Mode1"	"Seema_Shokoufeh_Track2"	"Nov 29, 2016 09:47:17 AM"	Unknown	138.98611	10/29/0116 09:49.40	00008339	16.747	Inter752t1-3	-1.486	2	2	186.623	24.444	2.1	0.143	0.000	D	F	1580.1	186.382	0.041	-2.111	696.845	1286.966	0.262	-	-0.127	0.023	-	-	-	-	-	-	-	FREEWAY_SMOOTH	Urban	F	1011101000010101	0000000000000000	-	-	-	-	-	-	-	-	-	-	Terminate	
"Student8Mode1"	"Seema_Shokoufeh_Track2"	"Nov 29, 2016 09:47:17 AM"	Unknown	139.98613	10/29/0116 09:49.41	00008399	16.834	Inter752t1-3	-1.266	2	2	184.298	24.444	-8.6	0.168	0.000	D	F	1657.2	185.835	0.085	-1.651	695.063	1270.279	0.222	-	-0.453	0.129	-	-	-	-	-	-	-	FREEWAY_SMOOTH	Urban	F	1011101000010101	0000000000000000	-	-	-	-	-	-	-	-	-	-	Terminate	
"Student8Mode1"	"Seema_Shokoufeh_Track2"	"Nov 29, 2016 09:47:17 AM"	Unknown	140.98616	10/29/0116 09:49.42	00008459	16.889	Inter752t1-3	-0.920	2	2	182.465	24.444	-13.5	0.132	0.000	D	F	1552.3	182.803	0.019	-1.166	693.752	1253.451	0.183	-	-0.996	-0.060	-	-	-	-	-	-	-	FREEWAY_SMOOTH	Urban	F	1011101000010101	0000000000000000	-	-	-	-	-	-	-	-	-	-	Terminate	
"Student8Mode1"	"Seema_Shokoufeh_Track2"	"Nov 29, 2016 09:47:17 AM"	Unknown	141.98618	10/29/0116 09:49.43	00008519	16.865	Inter752t1-3	-0.960	2	2	181.136	24.444	-1.1	0.141	0.000	D	F	1586.1	180.764	0.016	-0.851	693.285	1236.586	0.132	-	-0.215	0.007	-	-	-	-	-	-	-	FREEWAY_SMOOTH	Urban	F	1011101000010101	0000000000000000	-	-	-	-	-	-	-	-	-	-	Terminate	
"Student8Mode1"	"Seema_Shokoufeh_Track2"	"Nov 29, 2016 09:47:17 AM"	Unknown	142.98619	10/29/0116 09:49.44	00008579	16.881	Inter752t1-3	-0.971	2	2	180.315	24.444	1.0	0.145	0.000	D	F	1603.3	180.612	0.019	-0.457	693.103	1219.716	0.082	-	0.013	0.031	-	-	-	-	-	-	-	FREEWAY_SMOOTH	Urban	F	1011101000010101	0000000000000000	-	-	-	-	-	-	-	-	-	-	Terminate	
"Student8Mode1"	"Seema_Shokoufeh_Track2"	"Nov 29, 2016 09:47:17 AM"	Unknown	143.98621	10/29/0116 09:49.45	00008639	16.909	Inter752t1-3	-0.849	2	2	180.001	24.444	-4.4	0.146	0.000	D	F	1597.0	180.320	0.013	-0.004	692.949	1202.820	0.032	-	-0.202	0.025	-	-	-	-	-	-	-	FREEWAY_SMOOTH	Urban	F	1011101000010101	0000000000000000	-	-	-	-	-	-	-	-	-	-	Terminate	
"Student8Mode1"	"Seema_Shokoufeh_Track2"	"Nov 29, 2016 09:47:17 AM"	Unknown	144.98624	10/29/0116 09:49.46	00008699	16.986	Inter754t3-3	-0.292	2	2	180.000	11.111	-18.8	0.148	0.000	D	F	1609.1	178.071	0.191	0.152	693.085	1185.878	0.026	-	-1.116	0.092	-	-	-	Ambient376	3.765	63.958	10.405	PAVEMENT_GENERAL	Urban	F	1011101000010101	0000000000000000	-	-	-	-	-	-	-	-	-	-	Terminate	
"Student8Mode1"	"Seema_Shokoufeh_Track2"	"Nov 29, 2016 09:47:17 AM"	Unknown	145.98625	10/29/0116 09:49.47	00008759	17.084	Inter754t3-3	-1.445	2	2	180.000	11.111	10.2	0.153	0.000	D	F	1627.1	174.456	0.190	-0.025	694.238	1168.888	0.026	-	-0.010	0.113	-	-	-	Ambient376	3.384	57.807	9.257	PAVEMENT_GENERAL	Urban	F	1011101000010101	0000000000000000	-	-	-	-	-	-	-	-	-	-	Terminate	
"Student8Mode1"	"Seema_Shokoufeh_Track2"	"Nov 29, 2016 09:47:17 AM"	Unknown	146.98627	10/29/0116 09:49.48	00008819	17.009	Inter754t3-2	0.987	1	2	180.000	11.111	9.6	0.000	0.000	D	F	1158.7	178.035	0.171	-0.110	695.406	1151.821	0.028	-	0.888	-0.562	-	-	-	Ambient376	3.027	51.487	8.344	PAVEMENT_GENERAL	Urban	F	1011101000010101	0000000000000000	-	-	-	-	-	-	-	-	-	-	Terminate	
"Student8Mode1"	"Seema_Shokoufeh_Track2"	"Nov 29, 2016 09:47:17 AM"	Unknown	147.98630	10/29/0116 09:49.49	00008879	16.452	Inter754t3-2	0.660	1	2	180.000	11.111	-1.8	0.000	0.000	D	F	1122.0	179.723	0.186	-0.012	695.733	1135.095	0.029	-	0.129	-0.551	-	-	-	Ambient376	2.772	45.602	8.124	PAVEMENT_GENERAL	Urban	F	1111101000010101	0000000000000000	-	-	-	-	-	-	-	-	-	-	Terminate	
"Student8Mode1"	"Seema_Shokoufeh_Track2"	"Nov 29, 2016 09:47:17 AM"	Unknown	148.98631	10/29/0116 09:49.50	00008939	15.709	Inter754t3-2	0.493	1	2	180.000	11.111	-4.8	0.000	0.096	D	F	1057.8	178.931	0.143	0.033	695.900	1118.936	0.030	-	-0.272	-1.651	-	-	-	Ambient376	2.564	40.285	8.272	PAVEMENT_GENERAL	Urban	F	1011101000010101	0000000000000000	-	-	-	-	-	-	-	-	-	-	Terminate	
"Student8Mode1"	"Seema_Shokoufeh_Track2"	"Nov 29, 2016 09:47:17 AM"	Unknown	149.98633	10/29/0116 09:49.51	00008999	14.188	Inter754t3-2	0.106	1	2	180.000	11.111	0.1	0.000	0.060	D	F	960.1	178.051	0.169	0.009	696.287	1104.109	0.030	-	-0.085	-1.260	-	-	-	Ambient376	2.558	36.297	10.841	PAVEMENT_GENERAL	Urban	F	1011101000010101	0000000000000000	-	-	-	-	-	-	-	-	-	-	Terminate	
"Student8Mode1"	"Seema_Shokoufeh_Track2"	"Nov 29, 2016 09:47:17 AM"	Unknown	150.98636	10/29/0116 09:49.52	00009059	13.167	Inter754t9-0	-0.330	1	1	179.993	11.111	1.4	0.000	0.045	D	F	892.8	178.358	0.182	-0.011	696.723	1090.459	0.030	-	0.085	-1.026	-	-	-	Ambient376	2.543	33.486	14.386	PAVEMENT_GENERAL	Urban	F	1111101000010101	0000000000000000	-	-	-	-	-	-	-	-	-	-	Terminate	
"Student8Mode1"	"Seema_Shokoufeh_Track2"	"Nov 29, 2016 09:47:17 AM"	Unknown	151.98637	10/29/0116 09:49.53	00009119	12.224	Inter754t9-0	-0.731	1	1	179.990	11.111	-3.2	0.000	0.042	D	F	1182.9	177.841	0.189	0.021	697.126	1077.751	0.030	-	-0.149	-0.973	-	-	-	Ambient376	2.587	31.618	22.837	PAVEMENT_GENERAL	Urban	F	1011101000010101	0000000000000000	-	-	-	-	-	-	-	-	-	-	Terminate	
"Student8Mode1"	"Seema_Shokoufeh_Track2"	"Nov 29, 2016 09:47:17 AM"	Unknown	152.98639	10/29/0116 09:49.54	00009179	11.328	Inter754t9-0	-1.234	1	1	179.989	11.111	1.6	0.000	0.036	D	F	1108.5	177.253	0.188	0.008	697.631	1065.989	0.030	-	-0.023	-0.867	-	-	-	Ambient376	2.710	30.694	62.818	PAVEMENT_GENERAL	Urban	F	1011101000010101	0000000000000000	-	-	-	-	-	-	-	-	-	-	Terminate	
"Student8Mode1"	"Seema_Shokoufeh_Track2"	"Nov 29, 2016 09:47:17 AM"	Unknown	153.98642	10/29/0116 09:49.55	00009239	10.878	Inter754t9-0	-1.436	1	1	179.990	11.111	22.5	0.079	0.000	D	F	1329.3	181.224	0.197	-0.098	697.835	1054.954	0.027	-	0.875	-0.064	-	-	-	Ambient376	2.804	30.498	781.491	PAVEMENT_GENERAL	Urban	F	1011101000010101	0000000000000000	-	-	-	-	-	-	-	-	-	-	Terminate	
"Student8Mode1"	"Seema_Shokoufeh_Track2"	"Nov 29, 2016 09:47:17 AM"	Unknown	154.98643	10/29/0116 09:49.56	00009299	10.989	Inter754t9-0	-0.959	1	1	179.993	11.111	-16.8	0.076	0.000	D	F	1358.8	182.372	0.201	0.075	697.360	1044.029	0.026	-	-0.518	0.062	-	-	-	Ambient376	2.760	30.335	202.190	PAVEMENT_GENERAL	Urban	F	1011101000010101	0000000000000000	-	-	-	-	-	-	-	-	-	-	Terminate	
"Student8Mode1"	"Seema_Shokoufeh_Track2"	"Nov 29, 2016 09:47:17 AM"	Unknown	155.98645	10/29/0116 09:49.57	00009359	10.739	Inter754t9-0	-0.820	1	1	179.996	11.111	-4.2	0.030	0.000	D	F	1149.7	179.612	0.195	0.024	697.223	1033.151	0.028	-	-0.205	-0.303	-	-	-	Ambient376	2.827	30.357	-	PAVEMENT_GENERAL	Urban	F	1011101000010101	0000000000000000	-	-	-	-	-	-	-	-	-	-	Terminate	
"Student8Mode1"	"Seema_Shokoufeh_Track2"	"Nov 29, 2016 09:47:17 AM"	Unknown	156.98647	10/29/0116 09:49.58	00009419	10.551	Inter754t9-0	-0.874	1	1	179.996	11.111	1.6	0.058	0.000	D	F	1246.9	180.105	0.199	-0.003	697.278	1022.522	0.027	-	0.086	-0.106	-	-	-	Ambient376	2.897	30.570	-	PAVEMENT_GENERAL	Urban	F	1011101000010101	0000000000000000	-	-	-	-	-	-	-	-	-	-	Terminate	
"Student8Mode1"	"Seema_Shokoufeh_Track2"	"Nov 29, 2016 09:47:17 AM"	Unknown	157.98650	10/29/0116 09:49.59	00009479	10.451	Inter754t1-1	-0.851	1	1	180.000	11.111	0.3	0.063	0.000	D	F	1249.8	180.084	0.199	-0.001	697.255	1012.019	0.027	-	0.003	-0.085	-	-	-	Ambient376	2.959	30.928	-	PAVEMENT_GENERAL	Urban	F	1111101000010101	0000000000000000	-	-	-	-	-	-	-	-	-	-	Terminate	
"Student8Mode1"	"Seema_Shokoufeh_Track2"	"Nov 29, 2016 09:47:17 AM"	Unknown	158.98651	10/29/0116 09:50.00	00009539	10.370	Inter754t1-1	-0.833	1	1	180.000	11.111	-3.0	0.063	0.000	D	F	1263.1	180.000	0.199	0.012	697.237	1001.610	0.027	-	-0.086	-0.056	-	-	-	Ambient376	2.796	28.999	-	PAVEMENT_GENERAL	Urban	F	1011101000010101	0000000000000000	-	-	-	-	-	-	-	-	-	-	Terminate	
"Student8Mode1"	"Seema_Shokoufeh_Track2"	"Nov 29, 2016 09:47:17 AM"	Unknown	159.98653	10/29/0116 09:50.01	00009599	10.332	Inter686t1-0	-0.856	1	1	180.000	11.111	2.0	0.071	0.000	D	F	1287.7	180.058	0.200	-0.006	697.252	991.263	0.026	-	0.068	-0.011	-	-	-	Ambient376	3.083	31.852	-	PAVEMENT_GENERAL	Urban	F	1011101000010101	0000000000000000	-	-	-	-	-	-	-	-	-	-	Terminate	
"Student8Mode1"	"Seema_Shokoufeh_Track2"	"Nov 29, 2016 09:47:17 AM"	Unknown	160.98656	10/29/0116 09:50.02	00009659	10.338	Inter686t1-0	-0.827	1	1	180.000	11.111	2.2	0.072	0.000	D	F	1300.6	180.204	0.200	-0.012	697.223	980.930	0.026	-	0.060	0.018	-	-	-	Ambient376	3.130	32.359	-	PAVEMENT_GENERAL	Urban	F	1011101000010101	0000000000000000	-	-	-	-	-	-	-	-	-	-	Terminate	
"Student8Mode1"	"Seema_Shokoufeh_Track2"	"Nov 29, 2016 09:47:17 AM"	Unknown	161.98657	10/29/0116 09:50.03	00009719	10.351	Inter686t1-0	-0.792	1	1	180.000	11.111	-2.6	0.074	0.000	D	F	1297.4	180.047	0.199	0.010	697.188	970.589	0.026	-	-0.078	0.008	-	-	-	Ambient376	3.174	32.858	-	PAVEMENT_GENERAL	Urban	F	1011101000010101	0000000000000000	-	-	-	-	-	-	-	-	-	-	Terminate	
"Student8Mode1"	"Seema_Shokoufeh_Track2"	"Nov 29, 2016 09:47:17 AM"	Unknown	162.98659	10/29/0116 09:50.04	00009779	10.367	Inter686t1-0	-0.813	1	1	180.000	11.111	0.4	0.074	0.000	D	F	1320.9	179.847	0.200	-0.000	697.209	960.234	0.026	-	0.011	0.041	-	-	-	Ambient376	3.216	33.342	-	PAVEMENT_GENERAL	Urban	F	1011101000010101	0000000000000000	-	-	-	-	-	-	-	-	-	-	Terminate	
"Student8Mode1"	"Seema_Shokoufeh_Track2"	"Nov 29, 2016 09:47:17 AM"	Unknown	163.98662	10/29/0116 09:50.05	00009839	10.422	Inter686t1-0	-0.837	1	1	180.000	11.111	0.1	0.081	0.000	D	F	1343.6	179.871	0.201	-0.000	697.234	949.844	0.026	-	0.003	0.075	-	-	-	Ambient376	3.242	33.791	-	PAVEMENT_GENERAL	Urban	F	1011101000010101	0000000000000000	-	-	-	-	-	-	-	-	-	-	Terminate	
"Student8Mode1"	"Seema_Shokoufeh_Track2"	"Nov 29, 2016 09:47:17 AM"	Unknown	164.98663	10/29/0116 09:50.06	00009899	10.504	Inter686t1-0	-0.860	1	1	180.000	11.111	0.1	0.088	0.000	D	F	1366.0	179.887	0.200	-0.000	697.256	939.382	0.026	-	0.003	0.094	-	-	-	Ambient376	3.253	34.170	-	PAVEMENT_GENERAL	Urban	F	1011101000010101	0000000000000000	-	-	-	-	-	-	-	-	-	-	Terminate	
"Student8Mode1"	"Seema_Shokoufeh_Track2"	"Nov 29, 2016 09:47:17 AM"	Unknown	165.98665	10/29/0116 09:50.07	00009959	10.760	Inter686t1-0	-0.860	1	1	180.000	11.111	-1.4	0.168	0.000	D	F	1613.5	180.145	0.205	0.006	697.256	928.794	0.024	-	-0.018	0.566	-	-	-	Ambient376	3.199	34.422	-	PAVEMENT_GENERAL	Urban	F	1011101000010101	0000000000000000	-	-	-	-	-	-	-	-	-	-	Terminate	
"Student8Mode1"	"Seema_Shokoufeh_Track2"	"Nov 29, 2016 09:47:17 AM"	Unknown	166.98668	10/29/0116 09:50.08	00010019	11.229	Inter686t1-0	-0.895	1	1	180.000	11.111	6.8	0.108	0.000	D	F	1459.3	179.697	0.195	-0.035	697.291	917.771	0.025	-	0.185	0.178	-	-	-	Ambient376	3.049	34.238	87.892	PAVEMENT_GENERAL	Urban	F	1011101000010101	0000000000000000	-	-	-	-	-	-	-	-	-	-	Terminate	
