"Name"	"Project"	"Time"	ZoneName	Time	SystemTime	Frame	Velocity	LaneName	LanePos	LaneIndex	LaneCount	LaneHeading	SpeedLimit	Steer	Accel	Brake	Gear	Horn	SubjectEngineRPM	SubjectHeading	SubjectPitch	SubjectRoll	SubjectX	SubjectY	SubjectZ	Signal	LatAccel	LongAccel	Collision	CollisionAngle	CollisionVelocity	VehAhead	HeadwayTime	HeadwayDist	TTC	TerrainType	CultureType	Slip	DigitalInputs	DigitalInputs2	ActiveTrigger	EntityName	DistToEntity	TimeToEntity	EntityVelocity	EntityAccel	EntityHeading	EntityX	EntityY	EntityZ	GrabData	
"Student22mode2"	"Seema_Shokoufeh_Track3"	"Feb 15, 2017 10:43:03 AM"	Unknown	0.00000	01/15/0117 10:43.06	00000000	0.000	-	-	-	0	-	-	0.0	0.000	0.000	P	F	0.0	0.000	0.000	0.000	0.000	0.000	0.000	-	0.000	0.000	-	-	-	-	-	-	-	FREEWAY_SMOOTH	Urban	F	0000000000000000	0000000000000000	-	-	-	-	-	-	-	-	-	-	Terminate	
"Student22mode2"	"Seema_Shokoufeh_Track3"	"Feb 15, 2017 10:43:03 AM"	Unknown	0.01667	01/15/0117 10:43.06	00000001	0.008	Inter828t1-2	1.611	1	2	0.000	24.444	-12.6	0.000	0.000	D	F	0.0	0.000	0.002	-0.000	1905.911	404.964	0.000	-	-0.000	0.245	-	-	-	CAR1	-	13.011	-	FREEWAY_GENERAL	Urban	F	1011101000011101	0000000000010000	TriggerC1	-	-	-	-	-	-	-	-	-	Terminate	
"Student22mode2"	"Seema_Shokoufeh_Track3"	"Feb 15, 2017 10:43:03 AM"	Unknown	0.03333	01/15/0117 10:43.06	00000002	0.008	Inter828t1-2	1.611	1	2	0.000	24.444	-12.5	0.000	0.000	D	F	0.0	0.000	0.004	-0.000	1905.911	404.964	0.000	-	0.000	0.162	-	-	-	CAR1	-	13.012	-	FREEWAY_GENERAL	Urban	F	1011101000011101	0000000000010000	-	-	-	-	-	-	-	-	-	-	Terminate	
"Student22mode2"	"Seema_Shokoufeh_Track3"	"Feb 15, 2017 10:43:03 AM"	Unknown	0.05000	01/15/0117 10:43.06	00000003	0.008	Inter828t1-2	1.611	1	2	0.000	24.444	-12.4	0.000	0.000	D	F	0.0	0.000	0.007	-0.000	1905.911	404.964	0.000	-	-0.000	0.059	-	-	-	CAR1	-	13.014	-	FREEWAY_GENERAL	Urban	F	1011101000011101	0000000000010000	-	-	-	-	-	-	-	-	-	-	Terminate	
"Student22mode2"	"Seema_Shokoufeh_Track3"	"Feb 15, 2017 10:43:03 AM"	Unknown	0.06667	01/15/0117 10:43.06	00000004	0.008	Inter828t1-2	1.611	1	2	0.000	24.444	-12.3	0.000	0.000	D	F	0.0	0.000	0.009	-0.000	1905.911	404.965	0.001	-	-0.001	0.013	-	-	-	CAR1	-	13.017	-	FREEWAY_GENERAL	Urban	F	1011101000011101	0000000000010000	-	-	-	-	-	-	-	-	-	-	Terminate	
"Student22mode2"	"Seema_Shokoufeh_Track3"	"Feb 15, 2017 10:43:03 AM"	Unknown	0.08333	01/15/0117 10:43.06	00000005	0.008	Inter828t1-2	1.611	1	2	0.000	24.444	-12.3	0.000	0.000	D	F	0.0	0.000	0.011	-0.000	1905.911	404.965	0.001	-	-0.001	-0.006	-	-	-	CAR1	-	13.022	-	FREEWAY_GENERAL	Urban	F	1011101000011101	0000000000010000	-	-	-	-	-	-	-	-	-	-	Terminate	
"Student22mode2"	"Seema_Shokoufeh_Track3"	"Feb 15, 2017 10:43:03 AM"	Unknown	0.10000	01/15/0117 10:43.06	00000006	0.008	Inter828t1-2	1.611	1	2	0.000	24.444	-12.2	0.000	0.000	D	F	0.0	0.000	0.014	-0.000	1905.911	404.965	0.002	-	-0.001	-0.014	-	-	-	CAR1	-	13.028	-	FREEWAY_GENERAL	Urban	F	1011101000011101	0000000000010000	-	-	-	-	-	-	-	-	-	-	Terminate	
"Student22mode2"	"Seema_Shokoufeh_Track3"	"Feb 15, 2017 10:43:03 AM"	Unknown	0.11667	01/15/0117 10:43.07	00000007	0.007	Inter828t1-2	1.611	1	2	0.000	24.444	-12.2	0.000	0.000	D	F	0.0	0.000	0.017	-0.001	1905.911	404.965	0.002	-	-0.001	-0.020	-	-	-	CAR1	-	13.036	-	FREEWAY_GENERAL	Urban	F	1011101000011101	0000000000010000	-	-	-	-	-	-	-	-	-	-	Terminate	
"Student22mode2"	"Seema_Shokoufeh_Track3"	"Feb 15, 2017 10:43:03 AM"	Unknown	0.13334	01/15/0117 10:43.07	00000008	0.007	Inter828t1-2	1.611	1	2	0.000	24.444	-12.2	0.000	0.000	D	F	0.0	0.000	0.020	-0.001	1905.911	404.965	0.003	-	-0.001	-0.023	-	-	-	CAR1	-	13.046	-	FREEWAY_GENERAL	Urban	F	1011101000011101	0000000000010000	-	-	-	-	-	-	-	-	-	-	Terminate	
"Student22mode2"	"Seema_Shokoufeh_Track3"	"Feb 15, 2017 10:43:03 AM"	Unknown	0.15000	01/15/0117 10:43.07	00000009	0.006	Inter828t1-2	1.611	1	2	0.000	24.444	-12.2	0.000	0.000	D	F	0.0	0.000	0.025	-0.001	1905.911	404.965	0.003	-	-0.000	-0.025	-	-	-	CAR1	-	13.058	-	FREEWAY_GENERAL	Urban	F	1011101000011101	0000000000010000	-	-	-	-	-	-	-	-	-	-	Terminate	
"Student22mode2"	"Seema_Shokoufeh_Track3"	"Feb 15, 2017 10:43:03 AM"	Unknown	0.16667	01/15/0117 10:43.07	00000010	0.006	Inter828t1-2	1.611	1	2	0.000	24.444	-12.3	0.000	0.000	D	F	0.0	0.000	0.030	-0.001	1905.911	404.965	0.004	-	-0.000	-0.024	-	-	-	CAR1	-	13.071	-	FREEWAY_GENERAL	Urban	F	1011101000011101	0000000000010000	-	-	-	-	-	-	-	-	-	-	Terminate	
"Student22mode2"	"Seema_Shokoufeh_Track3"	"Feb 15, 2017 10:43:03 AM"	Unknown	0.18334	01/15/0117 10:43.07	00000011	0.006	Inter828t1-2	1.611	1	2	0.000	24.444	-12.3	0.000	0.000	D	F	0.0	0.000	0.035	-0.001	1905.911	404.966	0.004	-	-0.000	-0.021	-	-	-	CAR1	-	13.086	-	FREEWAY_GENERAL	Urban	F	1011101000011101	0000000000010000	-	-	-	-	-	-	-	-	-	-	Terminate	
"Student22mode2"	"Seema_Shokoufeh_Track3"	"Feb 15, 2017 10:43:03 AM"	Unknown	0.20000	01/15/0117 10:43.07	00000012	0.006	Inter828t1-2	1.611	1	2	0.000	24.444	-12.4	0.000	0.000	D	F	0.0	0.000	0.041	-0.001	1905.911	404.966	0.005	-	0.000	-0.015	-	-	-	CAR1	-	13.102	-	FREEWAY_GENERAL	Urban	F	1011101000011101	0000000000010000	-	-	-	-	-	-	-	-	-	-	Terminate	
"Student22mode2"	"Seema_Shokoufeh_Track3"	"Feb 15, 2017 10:43:03 AM"	Unknown	0.21667	01/15/0117 10:43.07	00000013	0.006	Inter828t1-2	1.611	1	2	0.000	24.444	-12.5	0.000	0.000	D	F	0.0	0.000	0.047	-0.001	1905.911	404.966	0.005	-	0.000	-0.009	-	-	-	CAR1	-	13.121	-	FREEWAY_GENERAL	Urban	F	1011101000011101	0000000000010000	-	-	-	-	-	-	-	-	-	-	Terminate	
"Student22mode2"	"Seema_Shokoufeh_Track3"	"Feb 15, 2017 10:43:03 AM"	Unknown	0.23334	01/15/0117 10:43.07	00000014	0.006	Inter828t1-2	1.611	1	2	0.000	24.444	-12.6	0.000	0.000	D	F	0.0	0.000	0.053	-0.002	1905.911	404.966	0.006	-	0.000	-0.002	-	-	-	CAR1	-	13.140	-	FREEWAY_GENERAL	Urban	F	1011101000011101	0000000000010000	-	-	-	-	-	-	-	-	-	-	Terminate	
"Student22mode2"	"Seema_Shokoufeh_Track3"	"Feb 15, 2017 10:43:03 AM"	Unknown	0.25001	01/15/0117 10:43.07	00000015	0.006	Inter828t1-2	1.611	1	2	0.000	24.444	-12.6	0.000	0.000	D	F	0.0	0.000	0.058	-0.002	1905.911	404.966	0.006	-	0.000	0.005	-	-	-	CAR1	-	13.162	-	FREEWAY_GENERAL	Urban	F	1011101000011101	0000000000010000	-	-	-	-	-	-	-	-	-	-	Terminate	
"Student22mode2"	"Seema_Shokoufeh_Track3"	"Feb 15, 2017 10:43:03 AM"	Unknown	0.26667	01/15/0117 10:43.07	00000016	0.006	Inter828t1-2	1.611	1	2	0.000	24.444	-12.7	0.000	0.000	D	F	0.0	0.000	0.062	-0.002	1905.911	404.966	0.007	-	0.000	0.010	-	-	-	CAR1	-	13.185	-	FREEWAY_GENERAL	Urban	F	1011101000011101	0000000000010000	-	-	-	-	-	-	-	-	-	-	Terminate	
"Student22mode2"	"Seema_Shokoufeh_Track3"	"Feb 15, 2017 10:43:03 AM"	Unknown	0.28334	01/15/0117 10:43.07	00000017	0.006	Inter828t1-2	1.611	1	2	0.000	24.444	-12.8	0.000	0.000	D	F	0.0	0.000	0.065	-0.002	1905.911	404.966	0.007	-	0.000	0.014	-	-	-	CAR1	-	13.210	-	FREEWAY_GENERAL	Urban	F	1011101000011101	0000000000010000	-	-	-	-	-	-	-	-	-	-	Terminate	
"Student22mode2"	"Seema_Shokoufeh_Track3"	"Feb 15, 2017 10:43:03 AM"	Unknown	0.30001	01/15/0117 10:43.07	00000018	0.007	Inter828t1-2	1.611	1	2	0.000	24.444	-12.9	0.000	0.000	D	F	0.0	0.000	0.068	-0.002	1905.911	404.967	0.007	-	0.000	0.015	-	-	-	CAR1	-	13.237	-	FREEWAY_GENERAL	Urban	F	1011101000011101	0000000000010000	-	-	-	-	-	-	-	-	-	-	Terminate	
"Student22mode2"	"Seema_Shokoufeh_Track3"	"Feb 15, 2017 10:43:03 AM"	Unknown	0.31667	01/15/0117 10:43.07	00000019	0.007	Inter828t1-2	1.611	1	2	0.000	24.444	-13.0	0.000	0.000	D	F	0.0	0.000	0.070	-0.002	1905.911	404.967	0.007	-	0.000	0.013	-	-	-	CAR1	-	13.265	-	FREEWAY_GENERAL	Urban	F	1011101000011101	0000000000010000	-	-	-	-	-	-	-	-	-	-	Terminate	
"Student22mode2"	"Seema_Shokoufeh_Track3"	"Feb 15, 2017 10:43:03 AM"	Unknown	0.33334	01/15/0117 10:43.07	00000020	0.007	Inter828t1-2	1.611	1	2	0.000	24.444	-13.1	0.000	0.000	D	F	0.0	0.000	0.071	-0.002	1905.911	404.967	0.008	-	0.000	0.010	-	-	-	CAR1	-	13.295	-	FREEWAY_GENERAL	Urban	F	1011101000011101	0000000000010000	-	-	-	-	-	-	-	-	-	-	Terminate	
"Student22mode2"	"Seema_Shokoufeh_Track3"	"Feb 15, 2017 10:43:03 AM"	Unknown	0.35001	01/15/0117 10:43.07	00000021	0.007	Inter828t1-2	1.611	1	2	0.000	24.444	-13.2	0.000	0.000	D	F	0.0	0.000	0.071	-0.002	1905.911	404.967	0.008	-	0.000	0.004	-	-	-	CAR1	-	13.326	-	FREEWAY_GENERAL	Urban	F	1011101000011101	0000000000010000	-	-	-	-	-	-	-	-	-	-	Terminate	
"Student22mode2"	"Seema_Shokoufeh_Track3"	"Feb 15, 2017 10:43:03 AM"	Unknown	0.36667	01/15/0117 10:43.07	00000022	0.007	Inter828t1-2	1.611	1	2	0.000	24.444	-13.3	0.000	0.000	D	F	0.0	0.000	0.072	-0.002	1905.911	404.967	0.008	-	-0.000	-0.003	-	-	-	CAR1	-	13.359	-	FREEWAY_GENERAL	Urban	F	1011101000011101	0000000000010000	-	-	-	-	-	-	-	-	-	-	Terminate	
"Student22mode2"	"Seema_Shokoufeh_Track3"	"Feb 15, 2017 10:43:03 AM"	Unknown	0.38334	01/15/0117 10:43.07	00000023	0.006	Inter828t1-2	1.611	1	2	0.000	24.444	-13.4	0.000	0.000	D	F	0.0	0.000	0.072	-0.001	1905.911	404.967	0.008	-	-0.000	-0.010	-	-	-	CAR1	-	13.394	-	FREEWAY_GENERAL	Urban	F	1011101000011101	0000000000010000	-	-	-	-	-	-	-	-	-	-	Terminate	
"Student22mode2"	"Seema_Shokoufeh_Track3"	"Feb 15, 2017 10:43:03 AM"	Unknown	0.40001	01/15/0117 10:43.07	00000024	0.006	Inter828t1-2	1.611	1	2	0.000	24.444	-13.5	0.000	0.000	D	F	0.0	0.000	0.072	-0.001	1905.911	404.967	0.009	-	-0.000	-0.017	-	-	-	CAR1	-	13.431	-	FREEWAY_GENERAL	Urban	F	1011101000011101	0000000000010000	-	-	-	-	-	-	-	-	-	-	Terminate	
"Student22mode2"	"Seema_Shokoufeh_Track3"	"Feb 15, 2017 10:43:03 AM"	Unknown	0.41668	01/15/0117 10:43.07	00000025	0.006	Inter828t1-2	1.611	1	2	0.000	24.444	-13.6	0.000	0.000	D	F	0.0	0.000	0.073	-0.001	1905.911	404.967	0.009	-	-0.000	-0.022	-	-	-	CAR1	-	13.469	-	FREEWAY_GENERAL	Urban	F	1011101000011101	0000000000010000	-	-	-	-	-	-	-	-	-	-	Terminate	
"Student22mode2"	"Seema_Shokoufeh_Track3"	"Feb 15, 2017 10:43:03 AM"	Unknown	0.43334	01/15/0117 10:43.07	00000026	0.005	Inter828t1-2	1.611	1	2	0.000	24.444	-13.7	0.000	0.000	D	F	0.0	0.000	0.074	-0.001	1905.911	404.967	0.009	-	-0.000	-0.026	-	-	-	CAR1	-	13.509	-	FREEWAY_GENERAL	Urban	F	1011101000011101	0000000000010000	-	-	-	-	-	-	-	-	-	-	Terminate	
"Student22mode2"	"Seema_Shokoufeh_Track3"	"Feb 15, 2017 10:43:03 AM"	Unknown	0.45001	01/15/0117 10:43.07	00000027	0.005	Inter828t1-2	1.611	1	2	0.000	24.444	-13.8	0.000	0.000	D	F	0.0	0.000	0.076	-0.001	1905.911	404.968	0.010	-	-0.000	-0.028	-	-	-	CAR1	-	13.550	-	FREEWAY_GENERAL	Urban	F	1011101000011101	0000000000010000	-	-	-	-	-	-	-	-	-	-	Terminate	
"Student22mode2"	"Seema_Shokoufeh_Track3"	"Feb 15, 2017 10:43:03 AM"	Unknown	0.46668	01/15/0117 10:43.07	00000028	0.004	Inter828t1-2	1.611	1	2	0.000	24.444	-13.8	0.000	0.000	D	F	0.0	0.000	0.079	-0.000	1905.911	404.968	0.010	-	-0.000	-0.028	-	-	-	CAR1	-	13.594	-	FREEWAY_GENERAL	Urban	F	1011101000011101	0000000000010000	-	-	-	-	-	-	-	-	-	-	Terminate	
"Student22mode2"	"Seema_Shokoufeh_Track3"	"Feb 15, 2017 10:43:03 AM"	Unknown	0.48334	01/15/0117 10:43.07	00000029	0.004	Inter828t1-2	1.611	1	2	0.000	24.444	-13.8	0.000	0.000	D	F	0.0	0.000	0.082	0.000	1905.911	404.968	0.010	-	-0.000	-0.026	-	-	-	CAR1	-	13.639	-	FREEWAY_GENERAL	Urban	F	1111101000011101	0000000000010000	-	-	-	-	-	-	-	-	-	-	Terminate	
"Student22mode2"	"Seema_Shokoufeh_Track3"	"Feb 15, 2017 10:43:03 AM"	Unknown	0.50001	01/15/0117 10:43.07	00000030	0.003	Inter828t1-2	1.611	1	2	0.000	24.444	-13.8	0.000	0.000	D	F	0.0	0.000	0.086	0.000	1905.911	404.968	0.011	-	-0.000	-0.022	-	-	-	CAR1	-	13.685	-	FREEWAY_GENERAL	Urban	F	1011101000011101	0000000000010000	-	-	-	-	-	-	-	-	-	-	Terminate	
"Student22mode2"	"Seema_Shokoufeh_Track3"	"Feb 15, 2017 10:43:03 AM"	Unknown	0.51668	01/15/0117 10:43.07	00000031	0.003	Inter828t1-2	1.611	1	2	0.000	24.444	-13.8	0.000	0.000	D	F	0.0	0.000	0.090	0.001	1905.911	404.968	0.011	-	-0.000	-0.017	-	-	-	CAR1	-	13.733	-	FREEWAY_GENERAL	Urban	F	1011101000011101	0000000000010000	-	-	-	-	-	-	-	-	-	-	Terminate	
"Student22mode2"	"Seema_Shokoufeh_Track3"	"Feb 15, 2017 10:43:03 AM"	Unknown	0.53334	01/15/0117 10:43.07	00000032	0.003	Inter828t1-2	1.611	1	2	0.000	24.444	-13.8	0.000	0.000	D	F	0.0	0.000	0.094	0.001	1905.911	404.968	0.011	-	0.000	-0.012	-	-	-	CAR1	-	13.783	-	FREEWAY_GENERAL	Urban	F	1011101000011101	0000000000010000	-	-	-	-	-	-	-	-	-	-	Terminate	
"Student22mode2"	"Seema_Shokoufeh_Track3"	"Feb 15, 2017 10:43:03 AM"	Unknown	0.55001	01/15/0117 10:43.07	00000033	0.003	Inter828t1-2	1.611	1	2	0.000	24.444	-13.7	0.000	0.000	D	F	0.0	0.000	0.098	0.002	1905.911	404.968	0.012	-	0.000	-0.006	-	-	-	CAR1	-	13.835	-	FREEWAY_GENERAL	Urban	F	1011101000011101	0000000000010000	-	-	-	-	-	-	-	-	-	-	Terminate	
"Student22mode2"	"Seema_Shokoufeh_Track3"	"Feb 15, 2017 10:43:03 AM"	Unknown	0.56668	01/15/0117 10:43.07	00000034	0.003	Inter828t1-2	1.611	1	2	0.000	24.444	-13.6	0.000	0.000	D	F	0.0	0.000	0.102	0.002	1905.911	404.968	0.012	-	0.000	-0.001	-	-	-	CAR1	-	13.888	-	FREEWAY_GENERAL	Urban	F	1011101000011101	0000000000010000	-	-	-	-	-	-	-	-	-	-	Terminate	
"Student22mode2"	"Seema_Shokoufeh_Track3"	"Feb 15, 2017 10:43:03 AM"	Unknown	0.58334	01/15/0117 10:43.07	00000035	0.003	Inter828t1-2	1.611	1	2	0.000	24.444	-13.5	0.000	0.000	D	F	0.0	0.000	0.106	0.003	1905.911	404.968	0.013	-	0.001	0.003	-	-	-	CAR1	-	13.943	-	FREEWAY_GENERAL	Urban	F	1011101000011101	0000000000010000	-	-	-	-	-	-	-	-	-	-	Terminate	
"Student22mode2"	"Seema_Shokoufeh_Track3"	"Feb 15, 2017 10:43:03 AM"	Unknown	0.60001	01/15/0117 10:43.07	00000036	0.003	Inter828t1-2	1.611	1	2	0.000	24.444	-13.5	0.000	0.000	D	F	0.0	0.000	0.109	0.003	1905.911	404.968	0.013	-	0.001	0.006	-	-	-	CAR1	-	13.999	-	FREEWAY_GENERAL	Urban	F	1011101000011101	0000000000010000	-	-	-	-	-	-	-	-	-	-	Terminate	
"Student22mode2"	"Seema_Shokoufeh_Track3"	"Feb 15, 2017 10:43:03 AM"	Unknown	0.61668	01/15/0117 10:43.07	00000037	0.004	Inter828t1-2	1.611	1	2	0.000	24.444	-13.4	0.000	0.000	D	F	0.0	0.000	0.112	0.004	1905.911	404.969	0.013	-	0.001	0.008	-	-	-	CAR1	-	14.058	-	FREEWAY_GENERAL	Urban	F	1011101000011101	0000000000010000	-	-	-	-	-	-	-	-	-	-	Terminate	
"Student22mode2"	"Seema_Shokoufeh_Track3"	"Feb 15, 2017 10:43:03 AM"	Unknown	0.63335	01/15/0117 10:43.07	00000038	0.004	Inter828t1-2	1.611	1	2	0.000	24.444	-13.3	0.000	0.000	D	F	0.0	0.000	0.115	0.004	1905.911	404.969	0.014	-	0.001	0.008	-	-	-	CAR1	-	14.117	-	FREEWAY_GENERAL	Urban	F	1011101000011101	0000000000010000	-	-	-	-	-	-	-	-	-	-	Terminate	
"Student22mode2"	"Seema_Shokoufeh_Track3"	"Feb 15, 2017 10:43:03 AM"	Unknown	0.65001	01/15/0117 10:43.07	00000039	0.004	Inter828t1-2	1.611	1	2	0.000	24.444	-13.2	0.000	0.000	D	F	0.0	0.000	0.117	0.004	1905.911	404.969	0.014	-	0.001	0.007	-	-	-	CAR1	-	14.179	-	FREEWAY_GENERAL	Urban	F	1111101000011101	0000000000010000	-	-	-	-	-	-	-	-	-	-	Terminate	
"Student22mode2"	"Seema_Shokoufeh_Track3"	"Feb 15, 2017 10:43:03 AM"	Unknown	0.66668	01/15/0117 10:43.07	00000040	0.004	Inter828t1-2	1.611	1	2	0.000	24.444	-13.2	0.000	0.000	D	F	0.0	0.000	0.119	0.005	1905.911	404.969	0.014	-	0.001	0.005	-	-	-	CAR1	-	14.242	-	FREEWAY_GENERAL	Urban	F	1011101000011101	0000000000010000	-	-	-	-	-	-	-	-	-	-	Terminate	
"Student22mode2"	"Seema_Shokoufeh_Track3"	"Feb 15, 2017 10:43:03 AM"	Unknown	0.68335	01/15/0117 10:43.07	00000041	0.004	Inter828t1-2	1.611	1	2	0.000	24.444	-13.1	0.000	0.000	D	F	0.0	0.000	0.120	0.005	1905.911	404.969	0.014	-	0.001	0.002	-	-	-	CAR1	-	14.307	-	FREEWAY_GENERAL	Urban	F	1011101000011101	0000000000010000	-	-	-	-	-	-	-	-	-	-	Terminate	
"Student22mode2"	"Seema_Shokoufeh_Track3"	"Feb 15, 2017 10:43:03 AM"	Unknown	0.70001	01/15/0117 10:43.07	00000042	0.004	Inter828t1-2	1.611	1	2	0.000	24.444	-13.1	0.000	0.000	D	F	0.0	0.000	0.122	0.005	1905.911	404.969	0.015	-	0.001	-0.001	-	-	-	CAR1	-	14.374	-	FREEWAY_GENERAL	Urban	F	1011101000011101	0000000000010000	-	-	-	-	-	-	-	-	-	-	Terminate	
"Student22mode2"	"Seema_Shokoufeh_Track3"	"Feb 15, 2017 10:43:03 AM"	Unknown	0.71668	01/15/0117 10:43.07	00000043	0.004	Inter828t1-2	1.611	1	2	0.000	24.444	-13.1	0.000	0.000	D	F	0.0	0.000	0.123	0.006	1905.911	404.969	0.015	-	0.000	-0.004	-	-	-	CAR1	-	14.442	-	FREEWAY_GENERAL	Urban	F	1011101000011101	0000000000010000	-	-	-	-	-	-	-	-	-	-	Terminate	
"Student22mode2"	"Seema_Shokoufeh_Track3"	"Feb 15, 2017 10:43:03 AM"	Unknown	0.73335	01/15/0117 10:43.07	00000044	0.004	Inter828t1-2	1.611	1	2	0.000	24.444	-13.1	0.000	0.000	D	F	0.0	0.000	0.125	0.006	1905.911	404.969	0.015	-	0.000	-0.006	-	-	-	CAR1	-	14.512	-	FREEWAY_GENERAL	Urban	F	1011101000011101	0000000000010000	-	-	-	-	-	-	-	-	-	-	Terminate	
"Student22mode2"	"Seema_Shokoufeh_Track3"	"Feb 15, 2017 10:43:03 AM"	Unknown	0.75002	01/15/0117 10:43.07	00000045	0.003	Inter828t1-2	1.611	1	2	0.000	24.444	-13.1	0.000	0.000	D	F	0.0	0.000	0.126	0.006	1905.911	404.969	0.016	-	0.000	-0.008	-	-	-	CAR1	-	14.583	-	FREEWAY_GENERAL	Urban	F	1011101000011101	0000000000010000	-	-	-	-	-	-	-	-	-	-	Terminate	
"Student22mode2"	"Seema_Shokoufeh_Track3"	"Feb 15, 2017 10:43:03 AM"	Unknown	0.76668	01/15/0117 10:43.07	00000046	0.003	Inter828t1-2	1.611	1	2	0.000	24.444	-13.1	0.000	0.000	D	F	0.0	0.000	0.128	0.006	1905.911	404.969	0.016	-	0.000	-0.010	-	-	-	CAR1	-	14.656	-	FREEWAY_GENERAL	Urban	F	1011101000011101	0000000000010000	-	-	-	-	-	-	-	-	-	-	Terminate	
"Student22mode2"	"Seema_Shokoufeh_Track3"	"Feb 15, 2017 10:43:03 AM"	Unknown	0.78335	01/15/0117 10:43.07	00000047	0.003	Inter828t1-2	1.611	1	2	0.000	24.444	-13.1	0.000	0.000	D	F	0.0	0.000	0.129	0.006	1905.911	404.969	0.016	-	0.000	-0.011	-	-	-	CAR1	-	14.731	-	FREEWAY_GENERAL	Urban	F	1011101000011101	0000000000010000	-	-	-	-	-	-	-	-	-	-	Terminate	
"Student22mode2"	"Seema_Shokoufeh_Track3"	"Feb 15, 2017 10:43:03 AM"	Unknown	0.80002	01/15/0117 10:43.07	00000048	0.003	Inter828t1-2	1.611	1	2	0.000	24.444	-13.1	0.000	0.000	D	F	0.0	0.000	0.131	0.006	1905.911	404.969	0.016	-	0.000	-0.011	-	-	-	CAR1	-	14.808	-	FREEWAY_GENERAL	Urban	F	1011101000011101	0000000000010000	-	-	-	-	-	-	-	-	-	-	Terminate	
"Student22mode2"	"Seema_Shokoufeh_Track3"	"Feb 15, 2017 10:43:03 AM"	Unknown	0.81668	01/15/0117 10:43.07	00000049	0.003	Inter828t1-2	1.611	1	2	0.000	24.444	-13.1	0.000	0.000	D	F	0.0	0.000	0.134	0.006	1905.911	404.969	0.017	-	-0.000	-0.010	-	-	-	CAR1	-	14.886	-	FREEWAY_GENERAL	Urban	F	1011101000011101	0000000000010000	-	-	-	-	-	-	-	-	-	-	Terminate	
"Student22mode2"	"Seema_Shokoufeh_Track3"	"Feb 15, 2017 10:43:03 AM"	Unknown	0.83335	01/15/0117 10:43.07	00000050	0.003	Inter828t1-2	1.611	1	2	0.000	24.444	-13.1	0.000	0.000	D	F	0.0	0.000	0.136	0.006	1905.911	404.969	0.017	-	-0.000	-0.009	-	-	-	CAR1	-	14.966	-	FREEWAY_GENERAL	Urban	F	1011101000011101	0000000000010000	-	-	-	-	-	-	-	-	-	-	Terminate	
"Student22mode2"	"Seema_Shokoufeh_Track3"	"Feb 15, 2017 10:43:03 AM"	Unknown	0.85002	01/15/0117 10:43.07	00000051	0.002	Inter828t1-2	1.611	1	2	0.000	24.444	-13.1	0.000	0.000	D	F	0.0	0.000	0.138	0.006	1905.911	404.970	0.017	-	-0.000	-0.007	-	-	-	CAR1	-	15.047	-	FREEWAY_GENERAL	Urban	F	1011101000011101	0000000000010000	-	-	-	-	-	-	-	-	-	-	Terminate	
"Student22mode2"	"Seema_Shokoufeh_Track3"	"Feb 15, 2017 10:43:03 AM"	Unknown	0.86668	01/15/0117 10:43.07	00000052	0.002	Inter828t1-2	1.611	1	2	0.000	24.444	-13.1	0.000	0.000	D	F	0.0	0.000	0.140	0.006	1905.911	404.970	0.018	-	0.000	-0.005	-	-	-	CAR1	-	15.131	-	FREEWAY_GENERAL	Urban	F	1011101000011101	0000000000010000	-	-	-	-	-	-	-	-	-	-	Terminate	
"Student22mode2"	"Seema_Shokoufeh_Track3"	"Feb 15, 2017 10:43:03 AM"	Unknown	0.88335	01/15/0117 10:43.07	00000053	0.002	Inter828t1-2	1.611	1	2	0.000	24.444	-13.1	0.000	0.000	D	F	0.0	0.000	0.143	0.006	1905.911	404.970	0.018	-	0.000	-0.004	-	-	-	CAR1	-	15.215	-	FREEWAY_GENERAL	Urban	F	1111101000011101	0000000000010000	-	-	-	-	-	-	-	-	-	-	Terminate	
"Student22mode2"	"Seema_Shokoufeh_Track3"	"Feb 15, 2017 10:43:03 AM"	Unknown	0.90002	01/15/0117 10:43.07	00000054	0.002	Inter828t1-2	1.611	1	2	0.000	24.444	-13.1	0.000	0.000	D	F	0.0	0.000	0.145	0.006	1905.911	404.970	0.018	-	0.000	-0.002	-	-	-	CAR1	-	15.302	-	FREEWAY_GENERAL	Urban	F	1011101000011101	0000000000010000	-	-	-	-	-	-	-	-	-	-	Terminate	
"Student22mode2"	"Seema_Shokoufeh_Track3"	"Feb 15, 2017 10:43:03 AM"	Unknown	0.91668	01/15/0117 10:43.07	00000055	0.002	Inter828t1-2	1.611	1	2	0.000	24.444	-13.1	0.000	0.000	D	F	0.0	0.000	0.147	0.005	1905.911	404.970	0.018	-	0.000	-0.001	-	-	-	CAR1	-	15.390	-	FREEWAY_GENERAL	Urban	F	1011101000011101	0000000000010000	-	-	-	-	-	-	-	-	-	-	Terminate	
"Student22mode2"	"Seema_Shokoufeh_Track3"	"Feb 15, 2017 10:43:03 AM"	Unknown	0.93335	01/15/0117 10:43.07	00000056	0.002	Inter828t1-2	1.611	1	2	0.000	24.444	-13.1	0.000	0.000	D	F	0.0	0.000	0.149	0.005	1905.911	404.970	0.019	-	0.000	0.000	-	-	-	CAR1	-	15.480	-	FREEWAY_GENERAL	Urban	F	1011101000011101	0000000000010000	-	-	-	-	-	-	-	-	-	-	Terminate	
"Student22mode2"	"Seema_Shokoufeh_Track3"	"Feb 15, 2017 10:43:03 AM"	Unknown	0.95002	01/15/0117 10:43.07	00000057	0.002	Inter828t1-2	1.611	1	2	0.000	24.444	-13.1	0.000	0.000	D	F	0.0	0.000	0.151	0.005	1905.911	404.970	0.019	-	0.000	0.001	-	-	-	CAR1	-	15.572	-	FREEWAY_GENERAL	Urban	F	1011101000011101	0000000000010000	-	-	-	-	-	-	-	-	-	-	Terminate	
"Student22mode2"	"Seema_Shokoufeh_Track3"	"Feb 15, 2017 10:43:03 AM"	Unknown	0.96669	01/15/0117 10:43.07	00000058	0.002	Inter828t1-2	1.611	1	2	0.000	24.444	-13.1	0.000	0.000	D	F	0.0	0.000	0.152	0.005	1905.911	404.970	0.019	-	0.000	0.001	-	-	-	CAR1	-	15.665	-	FREEWAY_GENERAL	Urban	F	1011101000011101	0000000000010000	-	-	-	-	-	-	-	-	-	-	Terminate	
"Student22mode2"	"Seema_Shokoufeh_Track3"	"Feb 15, 2017 10:43:03 AM"	Unknown	0.98335	01/15/0117 10:43.07	00000059	0.002	Inter828t1-2	1.611	1	2	0.000	24.444	-13.1	0.000	0.000	D	F	0.0	0.000	0.153	0.004	1905.911	404.970	0.019	-	0.000	0.000	-	-	-	CAR1	-	15.760	-	FREEWAY_GENERAL	Urban	F	1011101000011101	0000000000010000	-	-	-	-	-	-	-	-	-	-	Terminate	
"Student22mode2"	"Seema_Shokoufeh_Track3"	"Feb 15, 2017 10:43:03 AM"	Unknown	1.00002	01/15/0117 10:43.07	00000060	0.002	Inter828t1-2	1.611	1	2	0.000	24.444	-13.1	0.000	0.000	D	F	0.0	0.000	0.155	0.004	1905.911	404.970	0.019	-	0.000	-0.000	-	-	-	CAR1	-	15.856	-	FREEWAY_GENERAL	Urban	F	1011101000011101	0000000000010000	-	-	-	-	-	-	-	-	-	-	Terminate	
"Student22mode2"	"Seema_Shokoufeh_Track3"	"Feb 15, 2017 10:43:03 AM"	Unknown	1.01669	01/15/0117 10:43.07	00000061	0.002	Inter828t1-2	1.611	1	2	0.000	24.444	-13.1	0.000	0.000	D	F	0.0	0.000	0.156	0.004	1905.911	404.970	0.020	-	0.000	-0.001	-	-	-	CAR1	-	15.954	-	FREEWAY_GENERAL	Urban	F	1111101000011101	0000000000010000	-	-	-	-	-	-	-	-	-	-	Terminate	
"Student22mode2"	"Seema_Shokoufeh_Track3"	"Feb 15, 2017 10:43:03 AM"	Unknown	1.03335	01/15/0117 10:43.07	00000062	0.002	Inter828t1-2	1.611	1	2	0.000	24.444	-13.0	0.000	0.000	D	F	0.0	0.000	0.157	0.004	1905.911	404.970	0.020	-	0.000	-0.002	-	-	-	CAR1	-	16.054	-	FREEWAY_GENERAL	Urban	F	1011101000011101	0000000000010000	-	-	-	-	-	-	-	-	-	-	Terminate	
"Student22mode2"	"Seema_Shokoufeh_Track3"	"Feb 15, 2017 10:43:03 AM"	Unknown	1.05002	01/15/0117 10:43.07	00000063	0.002	Inter828t1-2	1.611	1	2	0.000	24.444	-13.0	0.000	0.000	D	F	0.0	0.000	0.158	0.004	1905.911	404.970	0.020	-	0.000	-0.003	-	-	-	CAR1	-	16.156	-	FREEWAY_GENERAL	Urban	F	1011101000011101	0000000000010000	-	-	-	-	-	-	-	-	-	-	Terminate	
"Student22mode2"	"Seema_Shokoufeh_Track3"	"Feb 15, 2017 10:43:03 AM"	Unknown	1.06669	01/15/0117 10:43.07	00000064	0.002	Inter828t1-2	1.611	1	2	0.000	24.444	-13.0	0.000	0.000	D	F	0.0	0.000	0.159	0.003	1905.911	404.970	0.020	-	0.000	-0.004	-	-	-	CAR1	-	16.259	-	FREEWAY_GENERAL	Urban	F	1011101000011101	0000000000010000	-	-	-	-	-	-	-	-	-	-	Terminate	
"Student22mode2"	"Seema_Shokoufeh_Track3"	"Feb 15, 2017 10:43:03 AM"	Unknown	1.08335	01/15/0117 10:43.07	00000065	0.002	Inter828t1-2	1.611	1	2	0.000	24.444	-13.0	0.000	0.000	D	F	0.0	0.000	0.160	0.003	1905.911	404.970	0.020	-	0.000	-0.005	-	-	-	CAR1	-	16.364	-	FREEWAY_GENERAL	Urban	F	1011101000011101	0000000000010000	-	-	-	-	-	-	-	-	-	-	Terminate	
"Student22mode2"	"Seema_Shokoufeh_Track3"	"Feb 15, 2017 10:43:03 AM"	Unknown	1.10002	01/15/0117 10:43.08	00000066	0.002	Inter828t1-2	1.611	1	2	0.000	24.444	-13.0	0.000	0.000	D	F	0.0	0.000	0.161	0.003	1905.911	404.970	0.021	-	0.000	-0.005	-	-	-	CAR1	-	16.470	-	FREEWAY_GENERAL	Urban	F	1011101000011101	0000000000010000	-	-	-	-	-	-	-	-	-	-	Terminate	
"Student22mode2"	"Seema_Shokoufeh_Track3"	"Feb 15, 2017 10:43:03 AM"	Unknown	1.11669	01/15/0117 10:43.08	00000067	0.002	Inter828t1-2	1.611	1	2	0.000	24.444	-13.0	0.000	0.000	D	F	0.0	0.000	0.162	0.003	1905.911	404.970	0.021	-	-0.000	-0.005	-	-	-	CAR1	-	16.579	-	FREEWAY_GENERAL	Urban	F	1011101000011101	0000000000010000	-	-	-	-	-	-	-	-	-	-	Terminate	
"Student22mode2"	"Seema_Shokoufeh_Track3"	"Feb 15, 2017 10:43:03 AM"	Unknown	1.13336	01/15/0117 10:43.08	00000068	0.002	Inter828t1-2	1.611	1	2	0.000	24.444	-13.0	0.000	0.000	D	F	0.0	0.000	0.164	0.003	1905.911	404.970	0.021	-	-0.000	-0.005	-	-	-	CAR1	-	16.689	-	FREEWAY_GENERAL	Urban	F	1011101000011101	0000000000010000	-	-	-	-	-	-	-	-	-	-	Terminate	
"Student22mode2"	"Seema_Shokoufeh_Track3"	"Feb 15, 2017 10:43:03 AM"	Unknown	1.15002	01/15/0117 10:43.08	00000069	0.002	Inter828t1-2	1.611	1	2	0.000	24.444	-13.0	0.000	0.000	D	F	0.0	0.000	0.165	0.002	1905.911	404.970	0.021	-	-0.000	-0.005	-	-	-	CAR1	-	16.800	-	FREEWAY_GENERAL	Urban	F	1011101000011101	0000000000010000	-	-	-	-	-	-	-	-	-	-	Terminate	
"Student22mode2"	"Seema_Shokoufeh_Track3"	"Feb 15, 2017 10:43:03 AM"	Unknown	1.16669	01/15/0117 10:43.08	00000070	0.002	Inter828t1-2	1.611	1	2	0.000	24.444	-13.0	0.000	0.000	D	F	0.0	0.000	0.166	0.002	1905.911	404.970	0.021	-	-0.000	-0.004	-	-	-	CAR1	-	16.913	-	FREEWAY_GENERAL	Urban	F	1011101000011101	0000000000010000	-	-	-	-	-	-	-	-	-	-	Terminate	
"Student22mode2"	"Seema_Shokoufeh_Track3"	"Feb 15, 2017 10:43:03 AM"	Unknown	1.18336	01/15/0117 10:43.08	00000071	0.002	Inter828t1-2	1.611	1	2	0.000	24.444	-13.0	0.000	0.000	D	F	0.0	0.000	0.167	0.002	1905.911	404.970	0.022	-	-0.000	-0.004	-	-	-	CAR1	-	17.028	-	FREEWAY_GENERAL	Urban	F	1011101000011101	0000000000010000	-	-	-	-	-	-	-	-	-	-	Terminate	
"Student22mode2"	"Seema_Shokoufeh_Track3"	"Feb 15, 2017 10:43:03 AM"	Unknown	1.20002	01/15/0117 10:43.08	00000072	0.002	Inter828t1-2	1.611	1	2	0.000	24.444	-13.0	0.000	0.000	D	F	0.0	0.000	0.168	0.002	1905.911	404.971	0.022	-	-0.000	-0.003	-	-	-	CAR1	-	17.145	-	FREEWAY_GENERAL	Urban	F	1011101000011101	0000000000010000	-	-	-	-	-	-	-	-	-	-	Terminate	
"Student22mode2"	"Seema_Shokoufeh_Track3"	"Feb 15, 2017 10:43:03 AM"	Unknown	1.21669	01/15/0117 10:43.08	00000073	0.002	Inter828t1-2	1.611	1	2	0.000	24.444	-13.0	0.000	0.000	D	F	0.0	0.000	0.170	0.002	1905.911	404.971	0.022	-	-0.000	-0.003	-	-	-	CAR1	-	17.263	-	FREEWAY_GENERAL	Urban	F	1011101000011101	0000000000010000	-	-	-	-	-	-	-	-	-	-	Terminate	
"Student22mode2"	"Seema_Shokoufeh_Track3"	"Feb 15, 2017 10:43:03 AM"	Unknown	1.23336	01/15/0117 10:43.08	00000074	0.002	Inter828t1-2	1.611	1	2	0.000	24.444	-13.0	0.000	0.000	D	F	0.0	0.000	0.171	0.002	1905.911	404.971	0.022	-	-0.000	-0.002	-	-	-	CAR1	-	17.383	-	FREEWAY_GENERAL	Urban	F	1011101000011101	0000000000010000	-	-	-	-	-	-	-	-	-	-	Terminate	
"Student22mode2"	"Seema_Shokoufeh_Track3"	"Feb 15, 2017 10:43:03 AM"	Unknown	1.25003	01/15/0117 10:43.08	00000075	0.002	Inter828t1-2	1.611	1	2	0.000	24.444	-12.9	0.000	0.000	D	F	0.0	0.000	0.172	0.001	1905.911	404.971	0.022	-	-0.000	-0.002	-	-	-	CAR1	-	17.505	-	FREEWAY_GENERAL	Urban	F	1011101000011101	0000000000010000	-	-	-	-	-	-	-	-	-	-	Terminate	
"Student22mode2"	"Seema_Shokoufeh_Track3"	"Feb 15, 2017 10:43:03 AM"	Unknown	1.26669	01/15/0117 10:43.08	00000076	0.001	Inter828t1-2	1.611	1	2	0.000	24.444	-12.9	0.000	0.000	D	F	0.0	0.000	0.173	0.001	1905.911	404.971	0.022	-	-0.000	-0.001	-	-	-	CAR1	-	17.628	-	FREEWAY_GENERAL	Urban	F	1011101000011101	0000000000010000	-	-	-	-	-	-	-	-	-	-	Terminate	
"Student22mode2"	"Seema_Shokoufeh_Track3"	"Feb 15, 2017 10:43:03 AM"	Unknown	1.28336	01/15/0117 10:43.08	00000077	0.001	Inter828t1-2	1.611	1	2	0.000	24.444	-12.8	0.000	0.000	D	F	0.0	0.000	0.174	0.001	1905.911	404.971	0.022	-	-0.000	-0.001	-	-	-	CAR1	-	17.753	-	FREEWAY_GENERAL	Urban	F	1011101000011101	0000000000010000	-	-	-	-	-	-	-	-	-	-	Terminate	
"Student22mode2"	"Seema_Shokoufeh_Track3"	"Feb 15, 2017 10:43:03 AM"	Unknown	1.30003	01/15/0117 10:43.08	00000078	0.001	Inter828t1-2	1.611	1	2	0.000	24.444	-12.7	0.000	0.000	D	F	0.0	0.000	0.175	0.001	1905.911	404.971	0.023	-	-0.000	-0.001	-	-	-	CAR1	-	17.879	-	FREEWAY_GENERAL	Urban	F	1011101000011101	0000000000010000	-	-	-	-	-	-	-	-	-	-	Terminate	
"Student22mode2"	"Seema_Shokoufeh_Track3"	"Feb 15, 2017 10:43:03 AM"	Unknown	1.31669	01/15/0117 10:43.08	00000079	0.001	Inter828t1-2	1.611	1	2	0.000	24.444	-12.6	0.000	0.000	D	F	0.0	0.000	0.176	0.001	1905.911	404.971	0.023	-	-0.000	-0.001	-	-	-	CAR1	-	18.008	-	FREEWAY_GENERAL	Urban	F	1011101000011101	0000000000010000	-	-	-	-	-	-	-	-	-	-	Terminate	
"Student22mode2"	"Seema_Shokoufeh_Track3"	"Feb 15, 2017 10:43:03 AM"	Unknown	1.33336	01/15/0117 10:43.08	00000080	0.001	Inter828t1-2	1.611	1	2	0.000	24.444	-12.4	0.000	0.000	D	F	0.0	0.000	0.177	0.001	1905.911	404.971	0.023	-	-0.000	-0.001	-	-	-	CAR1	-	18.137	-	FREEWAY_GENERAL	Urban	F	1011101000011101	0000000000010000	-	-	-	-	-	-	-	-	-	-	Terminate	
"Student22mode2"	"Seema_Shokoufeh_Track3"	"Feb 15, 2017 10:43:03 AM"	Unknown	1.35003	01/15/0117 10:43.08	00000081	0.001	Inter828t1-2	1.611	1	2	0.000	24.444	-12.2	0.000	0.000	D	F	0.0	0.000	0.177	0.001	1905.911	404.971	0.023	-	-0.000	-0.001	-	-	-	CAR1	-	18.269	-	FREEWAY_GENERAL	Urban	F	1011101000011101	0000000000010000	-	-	-	-	-	-	-	-	-	-	Terminate	
"Student22mode2"	"Seema_Shokoufeh_Track3"	"Feb 15, 2017 10:43:03 AM"	Unknown	1.36669	01/15/0117 10:43.08	00000082	0.001	Inter828t1-2	1.611	1	2	0.000	24.444	-12.0	0.000	0.000	D	F	0.0	0.000	0.178	0.001	1905.911	404.971	0.023	-	-0.000	-0.002	-	-	-	CAR1	-	18.402	-	FREEWAY_GENERAL	Urban	F	1011101000011101	0000000000010000	-	-	-	-	-	-	-	-	-	-	Terminate	
"Student22mode2"	"Seema_Shokoufeh_Track3"	"Feb 15, 2017 10:43:03 AM"	Unknown	1.38336	01/15/0117 10:43.08	00000083	0.001	Inter828t1-2	1.611	1	2	0.000	24.444	-11.7	0.000	0.000	D	F	0.0	0.000	0.179	0.001	1905.911	404.971	0.023	-	-0.000	-0.002	-	-	-	CAR1	-	18.537	-	FREEWAY_GENERAL	Urban	F	1011101000011101	0000000000010000	-	-	-	-	-	-	-	-	-	-	Terminate	
"Student22mode2"	"Seema_Shokoufeh_Track3"	"Feb 15, 2017 10:43:03 AM"	Unknown	1.40003	01/15/0117 10:43.08	00000084	0.001	Inter828t1-2	1.611	1	2	0.000	24.444	-11.3	0.000	0.000	D	F	0.0	0.000	0.180	0.000	1905.911	404.971	0.023	-	-0.000	-0.002	-	-	-	CAR1	-	18.674	-	FREEWAY_GENERAL	Urban	F	1011101000011101	0000000000010000	-	-	-	-	-	-	-	-	-	-	Terminate	
"Student22mode2"	"Seema_Shokoufeh_Track3"	"Feb 15, 2017 10:43:03 AM"	Unknown	1.41669	01/15/0117 10:43.08	00000085	0.001	Inter828t1-2	1.611	1	2	0.000	24.444	-10.9	0.000	0.000	D	F	0.0	0.000	0.180	0.000	1905.911	404.971	0.024	-	-0.000	-0.002	-	-	-	CAR1	-	18.812	-	FREEWAY_GENERAL	Urban	F	1011101000011101	0000000000010000	-	-	-	-	-	-	-	-	-	-	Terminate	
"Student22mode2"	"Seema_Shokoufeh_Track3"	"Feb 15, 2017 10:43:03 AM"	Unknown	1.43336	01/15/0117 10:43.08	00000086	0.001	Inter828t1-2	1.611	1	2	0.000	24.444	-10.4	0.000	0.000	D	F	0.0	0.000	0.181	0.000	1905.911	404.971	0.024	-	-0.000	-0.002	-	-	-	CAR1	-	18.952	-	FREEWAY_GENERAL	Urban	F	1111101000011101	0000000000010000	-	-	-	-	-	-	-	-	-	-	Terminate	
"Student22mode2"	"Seema_Shokoufeh_Track3"	"Feb 15, 2017 10:43:03 AM"	Unknown	1.45003	01/15/0117 10:43.08	00000087	0.001	Inter828t1-2	1.611	1	2	0.000	24.444	-9.8	0.000	0.000	D	F	0.0	0.000	0.182	0.000	1905.911	404.971	0.024	-	-0.000	-0.002	-	-	-	CAR1	-	19.094	-	FREEWAY_GENERAL	Urban	F	1011101000011101	0000000000010000	-	-	-	-	-	-	-	-	-	-	Terminate	
"Student22mode2"	"Seema_Shokoufeh_Track3"	"Feb 15, 2017 10:43:03 AM"	Unknown	1.46670	01/15/0117 10:43.08	00000088	0.001	Inter828t1-2	1.611	1	2	0.000	24.444	-9.2	0.000	0.000	D	F	0.0	0.000	0.182	0.000	1905.911	404.971	0.024	-	-0.000	-0.002	-	-	-	CAR1	-	19.237	-	FREEWAY_GENERAL	Urban	F	1011101000011101	0000000000010000	-	-	-	-	-	-	-	-	-	-	Terminate	
"Student22mode2"	"Seema_Shokoufeh_Track3"	"Feb 15, 2017 10:43:03 AM"	Unknown	1.48336	01/15/0117 10:43.08	00000089	0.001	Inter828t1-2	1.611	1	2	0.000	24.444	-8.6	0.000	0.000	D	F	0.0	0.000	0.183	0.000	1905.911	404.971	0.024	-	-0.000	-0.002	-	-	-	CAR1	-	19.382	-	FREEWAY_GENERAL	Urban	F	1011101000011101	0000000000010000	-	-	-	-	-	-	-	-	-	-	Terminate	
"Student22mode2"	"Seema_Shokoufeh_Track3"	"Feb 15, 2017 10:43:03 AM"	Unknown	1.50003	01/15/0117 10:43.08	00000090	0.001	Inter828t1-2	1.611	1	2	0.000	24.444	-7.9	0.000	0.000	D	F	0.0	0.000	0.184	0.000	1905.911	404.971	0.024	-	-0.000	-0.002	-	-	-	CAR1	-	19.529	-	FREEWAY_GENERAL	Urban	F	1011101000011101	0000000000010000	-	-	-	-	-	-	-	-	-	-	Terminate	
"Student22mode2"	"Seema_Shokoufeh_Track3"	"Feb 15, 2017 10:43:03 AM"	Unknown	1.51670	01/15/0117 10:43.08	00000091	0.001	Inter828t1-2	1.611	1	2	0.000	24.444	-7.3	0.000	0.000	D	F	0.0	0.000	0.184	0.000	1905.911	404.971	0.024	-	-0.000	-0.002	-	-	-	CAR1	-	19.677	-	FREEWAY_GENERAL	Urban	F	1011101000011101	0000000000010000	-	-	-	-	-	-	-	-	-	-	Terminate	
"Student22mode2"	"Seema_Shokoufeh_Track3"	"Feb 15, 2017 10:43:03 AM"	Unknown	1.53336	01/15/0117 10:43.08	00000092	0.001	Inter828t1-2	1.611	1	2	0.000	24.444	-6.6	0.000	0.000	D	F	0.0	0.000	0.185	0.000	1905.911	404.971	0.024	-	-0.000	-0.002	-	-	-	CAR1	-	19.827	-	FREEWAY_GENERAL	Urban	F	1011101000011101	0000000000010000	-	-	-	-	-	-	-	-	-	-	Terminate	
"Student22mode2"	"Seema_Shokoufeh_Track3"	"Feb 15, 2017 10:43:03 AM"	Unknown	1.55003	01/15/0117 10:43.08	00000093	0.001	Inter828t1-2	1.611	1	2	0.000	24.444	-6.0	0.000	0.000	D	F	0.0	0.000	0.186	0.000	1905.911	404.971	0.024	-	-0.000	-0.002	-	-	-	CAR1	-	19.978	-	FREEWAY_GENERAL	Urban	F	1111101000011101	0000000000010000	-	-	-	-	-	-	-	-	-	-	Terminate	
"Student22mode2"	"Seema_Shokoufeh_Track3"	"Feb 15, 2017 10:43:03 AM"	Unknown	1.56670	01/15/0117 10:43.08	00000094	0.001	Inter828t1-2	1.611	1	2	0.000	24.444	-5.3	0.000	0.000	D	F	0.0	0.000	0.186	0.000	1905.911	404.971	0.025	-	-0.000	-0.002	-	-	-	CAR1	-	20.132	-	FREEWAY_GENERAL	Urban	F	1011101000011101	0000000000010000	-	-	-	-	-	-	-	-	-	-	Terminate	
"Student22mode2"	"Seema_Shokoufeh_Track3"	"Feb 15, 2017 10:43:03 AM"	Unknown	1.58336	01/15/0117 10:43.08	00000095	0.001	Inter828t1-2	1.611	1	2	0.000	24.444	-4.7	0.000	0.000	D	F	0.0	0.000	0.187	0.000	1905.911	404.971	0.025	-	-0.000	-0.001	-	-	-	CAR1	-	20.287	-	FREEWAY_GENERAL	Urban	F	1011101000011101	0000000000010000	-	-	-	-	-	-	-	-	-	-	Terminate	
"Student22mode2"	"Seema_Shokoufeh_Track3"	"Feb 15, 2017 10:43:03 AM"	Unknown	1.60003	01/15/0117 10:43.08	00000096	0.001	Inter828t1-2	1.611	1	2	0.000	24.444	-4.2	0.000	0.000	D	F	0.0	0.000	0.188	0.000	1905.911	404.971	0.025	-	-0.000	-0.001	-	-	-	CAR1	-	20.443	-	FREEWAY_GENERAL	Urban	F	1011101000011101	0000000000010000	-	-	-	-	-	-	-	-	-	-	Terminate	
"Student22mode2"	"Seema_Shokoufeh_Track3"	"Feb 15, 2017 10:43:03 AM"	Unknown	1.61670	01/15/0117 10:43.08	00000097	0.001	Inter828t1-2	1.611	1	2	0.000	24.444	-3.7	0.000	0.000	D	F	0.0	0.000	0.188	0.000	1905.911	404.971	0.025	-	-0.000	-0.001	-	-	-	CAR1	-	20.602	-	FREEWAY_GENERAL	Urban	F	1011101000011101	0000000000010000	-	-	-	-	-	-	-	-	-	-	Terminate	
"Student22mode2"	"Seema_Shokoufeh_Track3"	"Feb 15, 2017 10:43:03 AM"	Unknown	1.63337	01/15/0117 10:43.08	00000098	0.001	Inter828t1-2	1.611	1	2	0.000	24.444	-3.3	0.000	0.000	D	F	0.0	0.000	0.189	0.000	1905.911	404.971	0.025	-	-0.000	-0.001	-	-	-	CAR1	-	20.762	-	FREEWAY_GENERAL	Urban	F	1111101000011101	0000000000010000	-	-	-	-	-	-	-	-	-	-	Terminate	
"Student22mode2"	"Seema_Shokoufeh_Track3"	"Feb 15, 2017 10:43:03 AM"	Unknown	1.65003	01/15/0117 10:43.08	00000099	0.001	Inter828t1-2	1.611	1	2	0.000	24.444	-3.0	0.000	0.000	D	F	0.0	0.000	0.189	0.000	1905.911	404.971	0.025	-	-0.000	-0.001	-	-	-	CAR1	-	20.923	-	FREEWAY_GENERAL	Urban	F	1011101000011101	0000000000010000	-	-	-	-	-	-	-	-	-	-	Terminate	
"Student22mode2"	"Seema_Shokoufeh_Track3"	"Feb 15, 2017 10:43:03 AM"	Unknown	1.66670	01/15/0117 10:43.08	00000100	0.001	Inter828t1-2	1.611	1	2	0.000	24.444	-2.7	0.000	0.000	D	F	0.0	0.000	0.190	0.000	1905.911	404.971	0.025	-	-0.000	-0.001	-	-	-	CAR1	-	21.087	-	FREEWAY_GENERAL	Urban	F	1011101000011101	0000000000010000	-	-	-	-	-	-	-	-	-	-	Terminate	
"Student22mode2"	"Seema_Shokoufeh_Track3"	"Feb 15, 2017 10:43:03 AM"	Unknown	1.68337	01/15/0117 10:43.08	00000101	0.001	Inter828t1-2	1.611	1	2	0.000	24.444	-2.5	0.000	0.000	D	F	0.0	0.000	0.190	0.000	1905.911	404.971	0.025	-	-0.000	-0.001	-	-	-	CAR1	-	21.252	-	FREEWAY_GENERAL	Urban	F	1011101000011101	0000000000010000	-	-	-	-	-	-	-	-	-	-	Terminate	
"Student22mode2"	"Seema_Shokoufeh_Track3"	"Feb 15, 2017 10:43:03 AM"	Unknown	1.70003	01/15/0117 10:43.08	00000102	0.001	Inter828t1-2	1.611	1	2	0.000	24.444	-2.4	0.000	0.000	D	F	0.0	0.000	0.191	0.000	1905.911	404.971	0.025	-	-0.000	-0.001	-	-	-	CAR1	-	21.418	-	FREEWAY_GENERAL	Urban	F	1011101000011101	0000000000010000	-	-	-	-	-	-	-	-	-	-	Terminate	
"Student22mode2"	"Seema_Shokoufeh_Track3"	"Feb 15, 2017 10:43:03 AM"	Unknown	1.71670	01/15/0117 10:43.08	00000103	0.001	Inter828t1-2	1.611	1	2	0.000	24.444	-2.4	0.000	0.000	D	F	0.0	0.000	0.191	0.000	1905.911	404.971	0.025	-	-0.000	-0.001	-	-	-	CAR1	-	21.586	-	FREEWAY_GENERAL	Urban	F	1011101000011101	0000000000010000	-	-	-	-	-	-	-	-	-	-	Terminate	
"Student22mode2"	"Seema_Shokoufeh_Track3"	"Feb 15, 2017 10:43:03 AM"	Unknown	1.73337	01/15/0117 10:43.08	00000104	0.001	Inter828t1-2	1.611	1	2	0.000	24.444	-2.5	0.000	0.000	D	F	0.0	0.000	0.192	0.000	1905.911	404.971	0.025	-	-0.000	-0.001	-	-	-	CAR1	-	21.756	-	FREEWAY_GENERAL	Urban	F	1011101000011101	0000000000010000	-	-	-	-	-	-	-	-	-	-	Terminate	
"Student22mode2"	"Seema_Shokoufeh_Track3"	"Feb 15, 2017 10:43:03 AM"	Unknown	1.75004	01/15/0117 10:43.08	00000105	0.001	Inter828t1-2	1.611	1	2	0.000	24.444	-2.6	0.000	0.000	D	F	0.0	0.000	0.192	0.000	1905.911	404.971	0.025	-	-0.000	-0.001	-	-	-	CAR1	-	21.928	-	FREEWAY_GENERAL	Urban	F	1011101000011101	0000000000010000	-	-	-	-	-	-	-	-	-	-	Terminate	
"Student22mode2"	"Seema_Shokoufeh_Track3"	"Feb 15, 2017 10:43:03 AM"	Unknown	1.76670	01/15/0117 10:43.08	00000106	0.001	Inter828t1-2	1.611	1	2	0.000	24.444	-2.8	0.000	0.000	D	F	0.0	0.000	0.192	0.000	1905.911	404.971	0.026	-	0.000	-0.001	-	-	-	CAR1	-	22.101	-	FREEWAY_GENERAL	Urban	F	1011101000011101	0000000000010000	-	-	-	-	-	-	-	-	-	-	Terminate	
"Student22mode2"	"Seema_Shokoufeh_Track3"	"Feb 15, 2017 10:43:03 AM"	Unknown	1.78337	01/15/0117 10:43.08	00000107	0.001	Inter828t1-2	1.611	1	2	0.000	24.444	-3.1	0.000	0.000	D	F	0.0	0.000	0.193	0.000	1905.911	404.971	0.026	-	0.000	-0.001	-	-	-	CAR1	-	22.276	-	FREEWAY_GENERAL	Urban	F	1011101000011101	0000000000010000	-	-	-	-	-	-	-	-	-	-	Terminate	
"Student22mode2"	"Seema_Shokoufeh_Track3"	"Feb 15, 2017 10:43:03 AM"	Unknown	1.80004	01/15/0117 10:43.08	00000108	0.001	Inter828t1-2	1.611	1	2	0.000	24.444	-3.3	0.000	0.000	D	F	0.0	0.000	0.193	0.000	1905.911	404.971	0.026	-	0.000	-0.001	-	-	-	CAR1	-	22.453	-	FREEWAY_GENERAL	Urban	F	1011101000011101	0000000000010000	-	-	-	-	-	-	-	-	-	-	Terminate	
"Student22mode2"	"Seema_Shokoufeh_Track3"	"Feb 15, 2017 10:43:03 AM"	Unknown	1.81670	01/15/0117 10:43.08	00000109	0.001	Inter828t1-2	1.611	1	2	0.000	24.444	-3.7	0.000	0.000	D	F	0.0	0.000	0.194	0.000	1905.911	404.971	0.026	-	0.000	-0.001	-	-	-	CAR1	-	22.631	-	FREEWAY_GENERAL	Urban	F	1011101000011101	0000000000010000	-	-	-	-	-	-	-	-	-	-	Terminate	
"Student22mode2"	"Seema_Shokoufeh_Track3"	"Feb 15, 2017 10:43:03 AM"	Unknown	1.83337	01/15/0117 10:43.08	00000110	0.001	Inter828t1-2	1.611	1	2	0.000	24.444	-4.0	0.000	0.000	D	F	0.0	0.000	0.194	0.000	1905.911	404.971	0.026	-	0.000	-0.001	-	-	-	CAR1	-	22.811	-	FREEWAY_GENERAL	Urban	F	1011101000011101	0000000000010000	-	-	-	-	-	-	-	-	-	-	Terminate	
"Student22mode2"	"Seema_Shokoufeh_Track3"	"Feb 15, 2017 10:43:03 AM"	Unknown	1.85004	01/15/0117 10:43.08	00000111	0.001	Inter828t1-2	1.611	1	2	0.000	24.444	-4.3	0.000	0.000	D	F	0.0	0.000	0.194	0.000	1905.911	404.971	0.026	-	0.000	-0.001	-	-	-	CAR1	-	22.993	-	FREEWAY_GENERAL	Urban	F	1011101000011101	0000000000010000	-	-	-	-	-	-	-	-	-	-	Terminate	
"Student22mode2"	"Seema_Shokoufeh_Track3"	"Feb 15, 2017 10:43:03 AM"	Unknown	1.86670	01/15/0117 10:43.08	00000112	0.001	Inter828t1-2	1.611	1	2	0.000	24.444	-4.7	0.000	0.000	D	F	0.0	0.000	0.195	0.000	1905.911	404.971	0.026	-	0.000	-0.001	-	-	-	CAR1	-	23.176	-	FREEWAY_GENERAL	Urban	F	1011101000011101	0000000000010000	-	-	-	-	-	-	-	-	-	-	Terminate	
"Student22mode2"	"Seema_Shokoufeh_Track3"	"Feb 15, 2017 10:43:03 AM"	Unknown	1.88337	01/15/0117 10:43.08	00000113	0.001	Inter828t1-2	1.611	1	2	0.000	24.444	-5.0	0.000	0.000	D	F	0.0	0.000	0.195	0.000	1905.911	404.971	0.026	-	0.000	-0.001	-	-	-	CAR1	-	23.361	-	FREEWAY_GENERAL	Urban	F	1011101000011101	0000000000010000	-	-	-	-	-	-	-	-	-	-	Terminate	
"Student22mode2"	"Seema_Shokoufeh_Track3"	"Feb 15, 2017 10:43:03 AM"	Unknown	1.90004	01/15/0117 10:43.08	00000114	0.001	Inter828t1-2	1.611	1	2	0.000	24.444	-5.3	0.000	0.000	D	F	0.0	0.000	0.196	0.000	1905.911	404.971	0.026	-	0.000	-0.001	-	-	-	CAR1	-	23.548	-	FREEWAY_GENERAL	Urban	F	1111101000011101	0000000000010000	-	-	-	-	-	-	-	-	-	-	Terminate	
"Student22mode2"	"Seema_Shokoufeh_Track3"	"Feb 15, 2017 10:43:03 AM"	Unknown	1.91671	01/15/0117 10:43.08	00000115	0.000	Inter828t1-2	1.611	1	2	0.000	24.444	-5.6	0.000	0.000	D	F	0.0	0.000	0.196	0.000	1905.911	404.971	0.026	-	0.000	-0.001	-	-	-	CAR1	-	23.736	-	FREEWAY_GENERAL	Urban	F	1011101000011101	0000000000010000	-	-	-	-	-	-	-	-	-	-	Terminate	
"Student22mode2"	"Seema_Shokoufeh_Track3"	"Feb 15, 2017 10:43:03 AM"	Unknown	1.93337	01/15/0117 10:43.08	00000116	0.000	Inter828t1-2	1.611	1	2	0.000	24.444	-5.9	0.000	0.000	D	F	0.0	0.000	0.196	0.000	1905.911	404.971	0.026	-	0.000	-0.001	-	-	-	CAR1	-	23.926	-	FREEWAY_GENERAL	Urban	F	1011101000011101	0000000000010000	-	-	-	-	-	-	-	-	-	-	Terminate	
"Student22mode2"	"Seema_Shokoufeh_Track3"	"Feb 15, 2017 10:43:03 AM"	Unknown	1.95004	01/15/0117 10:43.08	00000117	0.000	Inter828t1-2	1.611	1	2	0.000	24.444	-6.2	0.000	0.000	D	F	0.0	0.000	0.197	0.000	1905.911	404.972	0.026	-	0.000	-0.001	-	-	-	CAR1	-	24.118	-	FREEWAY_GENERAL	Urban	F	1011101000011101	0000000000010000	-	-	-	-	-	-	-	-	-	-	Terminate	
"Student22mode2"	"Seema_Shokoufeh_Track3"	"Feb 15, 2017 10:43:03 AM"	Unknown	1.96671	01/15/0117 10:43.08	00000118	0.000	Inter828t1-2	1.611	1	2	0.000	24.444	-6.5	0.000	0.000	D	F	0.0	0.000	0.197	0.000	1905.911	404.972	0.026	-	0.000	-0.001	-	-	-	CAR1	-	24.311	-	FREEWAY_GENERAL	Urban	F	1011101000011101	0000000000010000	-	-	-	-	-	-	-	-	-	-	Terminate	
"Student22mode2"	"Seema_Shokoufeh_Track3"	"Feb 15, 2017 10:43:03 AM"	Unknown	1.98337	01/15/0117 10:43.08	00000119	0.000	Inter828t1-2	1.611	1	2	0.000	24.444	-6.7	0.000	0.000	D	F	0.0	0.000	0.197	0.000	1905.911	404.972	0.026	-	0.000	-0.001	-	-	-	CAR1	-	24.506	-	FREEWAY_GENERAL	Urban	F	1011101000011101	0000000000010000	-	-	-	-	-	-	-	-	-	-	Terminate	
"Student22mode2"	"Seema_Shokoufeh_Track3"	"Feb 15, 2017 10:43:03 AM"	Unknown	2.00004	01/15/0117 10:43.08	00000120	0.000	Inter828t1-2	1.611	1	2	0.000	24.444	-6.8	0.000	0.000	D	F	0.0	0.000	0.198	0.000	1905.911	404.972	0.026	-	0.000	-0.001	-	-	-	CAR1	-	24.703	-	FREEWAY_GENERAL	Urban	F	1011101000011101	0000000000010000	-	-	-	-	-	-	-	-	-	-	Terminate	
"Student22mode2"	"Seema_Shokoufeh_Track3"	"Feb 15, 2017 10:43:03 AM"	Unknown	2.01671	01/15/0117 10:43.08	00000121	0.000	Inter828t1-2	1.611	1	2	0.000	24.444	-7.0	0.000	0.000	D	F	0.0	0.000	0.198	0.000	1905.911	404.972	0.026	-	0.000	-0.001	-	-	-	CAR1	-	24.901	-	FREEWAY_GENERAL	Urban	F	1011101000011101	0000000000010000	-	-	-	-	-	-	-	-	-	-	Terminate	
"Student22mode2"	"Seema_Shokoufeh_Track3"	"Feb 15, 2017 10:43:03 AM"	Unknown	2.03337	01/15/0117 10:43.08	00000122	0.000	Inter828t1-2	1.611	1	2	0.000	24.444	-7.1	0.000	0.000	D	F	0.0	0.000	0.198	0.000	1905.911	404.972	0.026	-	-0.000	-0.001	-	-	-	CAR1	-	25.101	-	FREEWAY_GENERAL	Urban	F	1011101000011101	0000000000010000	-	-	-	-	-	-	-	-	-	-	Terminate	
"Student22mode2"	"Seema_Shokoufeh_Track3"	"Feb 15, 2017 10:43:03 AM"	Unknown	2.05004	01/15/0117 10:43.08	00000123	0.000	Inter828t1-2	1.611	1	2	0.000	24.444	-7.2	0.000	0.000	D	F	0.0	0.000	0.198	0.000	1905.911	404.972	0.026	-	-0.000	-0.001	-	-	-	CAR1	-	25.303	-	FREEWAY_GENERAL	Urban	F	1011101000011101	0000000000010000	-	-	-	-	-	-	-	-	-	-	Terminate	
"Student22mode2"	"Seema_Shokoufeh_Track3"	"Feb 15, 2017 10:43:03 AM"	Unknown	2.06671	01/15/0117 10:43.08	00000124	0.000	Inter828t1-2	1.611	1	2	0.000	24.444	-7.2	0.000	0.000	D	F	0.0	0.000	0.199	0.000	1905.911	404.972	0.027	-	-0.000	-0.001	-	-	-	CAR1	-	25.506	-	FREEWAY_GENERAL	Urban	F	1011101000011101	0000000000010000	-	-	-	-	-	-	-	-	-	-	Terminate	
"Student22mode2"	"Seema_Shokoufeh_Track3"	"Feb 15, 2017 10:43:03 AM"	Unknown	2.08337	01/15/0117 10:43.08	00000125	0.000	Inter828t1-2	1.611	1	2	0.000	24.444	-7.2	0.000	0.000	D	F	0.0	0.000	0.199	0.000	1905.911	404.972	0.027	-	-0.000	-0.001	-	-	-	CAR1	-	25.711	-	FREEWAY_GENERAL	Urban	F	1111101000011101	0000000000010000	-	-	-	-	-	-	-	-	-	-	Terminate	
"Student22mode2"	"Seema_Shokoufeh_Track3"	"Feb 15, 2017 10:43:03 AM"	Unknown	2.10004	01/15/0117 10:43.09	00000126	0.000	Inter828t1-2	1.611	1	2	0.000	24.444	-7.2	0.000	0.000	D	F	0.0	0.000	0.199	0.000	1905.911	404.972	0.027	-	-0.000	-0.001	-	-	-	CAR1	-	25.918	-	FREEWAY_GENERAL	Urban	F	1011101000011101	0000000000010000	-	-	-	-	-	-	-	-	-	-	Terminate	
"Student22mode2"	"Seema_Shokoufeh_Track3"	"Feb 15, 2017 10:43:03 AM"	Unknown	2.11671	01/15/0117 10:43.09	00000127	0.000	Inter828t1-2	1.611	1	2	0.000	24.444	-7.1	0.000	0.000	D	F	0.0	0.000	0.200	0.000	1905.911	404.972	0.027	-	-0.000	-0.001	-	-	-	CAR1	-	26.126	-	FREEWAY_GENERAL	Urban	F	1011101000011101	0000000000010000	-	-	-	-	-	-	-	-	-	-	Terminate	
"Student22mode2"	"Seema_Shokoufeh_Track3"	"Feb 15, 2017 10:43:03 AM"	Unknown	2.13338	01/15/0117 10:43.09	00000128	0.000	Inter828t1-2	1.611	1	2	0.000	24.444	-7.1	0.000	0.000	D	F	0.0	0.000	0.200	0.000	1905.911	404.972	0.027	-	-0.000	-0.001	-	-	-	CAR1	-	26.336	-	FREEWAY_GENERAL	Urban	F	1011101000011101	0000000000010000	-	-	-	-	-	-	-	-	-	-	Terminate	
"Student22mode2"	"Seema_Shokoufeh_Track3"	"Feb 15, 2017 10:43:03 AM"	Unknown	2.15004	01/15/0117 10:43.09	00000129	0.000	Inter828t1-2	1.611	1	2	0.000	24.444	-7.0	0.000	0.000	D	F	0.0	0.000	0.200	0.000	1905.911	404.972	0.027	-	-0.000	-0.001	-	-	-	CAR1	-	26.548	-	FREEWAY_GENERAL	Urban	F	1011101000011101	0000000000010000	-	-	-	-	-	-	-	-	-	-	Terminate	
"Student22mode2"	"Seema_Shokoufeh_Track3"	"Feb 15, 2017 10:43:03 AM"	Unknown	2.16671	01/15/0117 10:43.09	00000130	0.000	Inter828t1-2	1.611	1	2	0.000	24.444	-6.9	0.000	0.000	D	F	0.0	0.000	0.200	0.000	1905.911	404.972	0.027	-	-0.000	-0.001	-	-	-	CAR1	-	26.761	-	FREEWAY_GENERAL	Urban	F	1111101000011101	0000000000010000	-	-	-	-	-	-	-	-	-	-	Terminate	
"Student22mode2"	"Seema_Shokoufeh_Track3"	"Feb 15, 2017 10:43:03 AM"	Unknown	2.18338	01/15/0117 10:43.09	00000131	0.000	Inter828t1-2	1.611	1	2	0.000	24.444	-6.8	0.005	0.000	D	F	0.0	0.000	0.200	0.000	1905.911	404.972	0.027	-	-0.000	-0.001	-	-	-	CAR1	-	26.976	-	FREEWAY_GENERAL	Urban	F	1011101000011101	0000000000010000	-	-	-	-	-	-	-	-	-	-	Terminate	
"Student22mode2"	"Seema_Shokoufeh_Track3"	"Feb 15, 2017 10:43:03 AM"	Unknown	2.20004	01/15/0117 10:43.09	00000132	0.000	Inter828t1-2	1.611	1	2	0.000	24.444	-6.8	0.000	0.000	D	F	0.0	0.000	0.201	0.000	1905.911	404.972	0.027	-	-0.000	-0.001	-	-	-	CAR1	-	27.193	-	FREEWAY_GENERAL	Urban	F	1011101000011101	0000000000010000	-	-	-	-	-	-	-	-	-	-	Terminate	
"Student22mode2"	"Seema_Shokoufeh_Track3"	"Feb 15, 2017 10:43:03 AM"	Unknown	2.21671	01/15/0117 10:43.09	00000133	0.000	Inter828t1-2	1.611	1	2	0.000	24.444	-6.7	0.000	0.000	D	F	0.0	0.000	0.201	0.000	1905.911	404.972	0.027	-	-0.000	-0.001	-	-	-	CAR1	-	27.411	-	FREEWAY_GENERAL	Urban	F	1011101000011101	0000000000010000	-	-	-	-	-	-	-	-	-	-	Terminate	
"Student22mode2"	"Seema_Shokoufeh_Track3"	"Feb 15, 2017 10:43:03 AM"	Unknown	2.23338	01/15/0117 10:43.09	00000134	0.000	Inter828t1-2	1.611	1	2	0.000	24.444	-6.7	0.000	0.000	D	F	0.0	0.000	0.201	0.000	1905.911	404.972	0.027	-	-0.000	-0.001	-	-	-	CAR1	-	27.631	-	FREEWAY_GENERAL	Urban	F	1111101000011101	0000000000010000	-	-	-	-	-	-	-	-	-	-	Terminate	
"Student22mode2"	"Seema_Shokoufeh_Track3"	"Feb 15, 2017 10:43:03 AM"	Unknown	2.25005	01/15/0117 10:43.09	00000135	0.000	Inter828t1-2	1.611	1	2	0.000	24.444	-6.7	0.000	0.000	D	F	0.0	0.000	0.201	0.000	1905.911	404.972	0.027	-	-0.000	-0.001	-	-	-	CAR1	-	27.853	-	FREEWAY_GENERAL	Urban	F	1011101000011101	0000000000010000	-	-	-	-	-	-	-	-	-	-	Terminate	
"Student22mode2"	"Seema_Shokoufeh_Track3"	"Feb 15, 2017 10:43:03 AM"	Unknown	2.26671	01/15/0117 10:43.09	00000136	0.000	Inter828t1-2	1.611	1	2	0.000	24.444	-6.7	0.000	0.000	D	F	0.0	0.000	0.202	0.000	1905.911	404.972	0.027	-	-0.000	-0.001	-	-	-	CAR1	-	28.076	-	FREEWAY_GENERAL	Urban	F	1011101000011101	0000000000010000	-	-	-	-	-	-	-	-	-	-	Terminate	
"Student22mode2"	"Seema_Shokoufeh_Track3"	"Feb 15, 2017 10:43:03 AM"	Unknown	2.28338	01/15/0117 10:43.09	00000137	0.000	Inter828t1-2	1.611	1	2	0.000	24.444	-6.7	0.000	0.000	D	F	0.0	0.000	0.202	0.000	1905.911	404.972	0.027	-	-0.000	-0.001	-	-	-	CAR1	-	28.301	-	FREEWAY_GENERAL	Urban	F	1011101000011101	0000000000010000	-	-	-	-	-	-	-	-	-	-	Terminate	
"Student22mode2"	"Seema_Shokoufeh_Track3"	"Feb 15, 2017 10:43:03 AM"	Unknown	2.30005	01/15/0117 10:43.09	00000138	0.000	Inter828t1-2	1.611	1	2	0.000	24.444	-6.7	0.000	0.000	D	F	0.0	0.000	0.202	0.000	1905.911	404.972	0.027	-	-0.000	-0.001	-	-	-	CAR1	-	28.528	-	FREEWAY_GENERAL	Urban	F	1011101000011101	0000000000010000	-	-	-	-	-	-	-	-	-	-	Terminate	
"Student22mode2"	"Seema_Shokoufeh_Track3"	"Feb 15, 2017 10:43:03 AM"	Unknown	2.31671	01/15/0117 10:43.09	00000139	0.000	Inter828t1-2	1.611	1	2	0.000	24.444	-6.7	0.000	0.000	D	F	0.0	0.000	0.202	0.000	1905.911	404.972	0.027	-	-0.000	-0.001	-	-	-	CAR1	-	28.756	-	FREEWAY_GENERAL	Urban	F	1011101000011101	0000000000010000	-	-	-	-	-	-	-	-	-	-	Terminate	
"Student22mode2"	"Seema_Shokoufeh_Track3"	"Feb 15, 2017 10:43:03 AM"	Unknown	2.33338	01/15/0117 10:43.09	00000140	0.000	Inter828t1-2	1.611	1	2	0.000	24.444	-6.7	0.000	0.000	D	F	0.0	0.000	0.202	0.000	1905.911	404.972	0.027	-	-0.000	-0.001	-	-	-	CAR1	-	28.986	-	FREEWAY_GENERAL	Urban	F	1011101000011101	0000000000010000	-	-	-	-	-	-	-	-	-	-	Terminate	
"Student22mode2"	"Seema_Shokoufeh_Track3"	"Feb 15, 2017 10:43:03 AM"	Unknown	2.35005	01/15/0117 10:43.09	00000141	0.000	Inter828t1-2	1.611	1	2	0.000	24.444	-6.8	0.000	0.000	D	F	0.0	0.000	0.203	0.000	1905.911	404.972	0.027	-	-0.000	-0.001	-	-	-	CAR1	-	29.218	-	FREEWAY_GENERAL	Urban	F	1011101000011101	0000000000010000	-	-	-	-	-	-	-	-	-	-	Terminate	
"Student22mode2"	"Seema_Shokoufeh_Track3"	"Feb 15, 2017 10:43:03 AM"	Unknown	2.36671	01/15/0117 10:43.09	00000142	0.000	Inter828t1-2	1.611	1	2	0.000	24.444	-6.8	0.000	0.000	D	F	0.0	0.000	0.203	0.000	1905.911	404.972	0.027	-	-0.000	-0.001	-	-	-	CAR1	-	29.451	-	FREEWAY_GENERAL	Urban	F	1011101000011101	0000000000010000	-	-	-	-	-	-	-	-	-	-	Terminate	
"Student22mode2"	"Seema_Shokoufeh_Track3"	"Feb 15, 2017 10:43:03 AM"	Unknown	2.38338	01/15/0117 10:43.09	00000143	0.000	Inter828t1-2	1.611	1	2	0.000	24.444	-6.8	0.000	0.000	D	F	0.0	0.000	0.203	0.000	1905.911	404.972	0.027	-	-0.000	-0.000	-	-	-	CAR1	-	29.686	-	FREEWAY_GENERAL	Urban	F	1011101000011101	0000000000010000	-	-	-	-	-	-	-	-	-	-	Terminate	
"Student22mode2"	"Seema_Shokoufeh_Track3"	"Feb 15, 2017 10:43:03 AM"	Unknown	2.40005	01/15/0117 10:43.09	00000144	0.000	Inter828t1-2	1.611	1	2	0.000	24.444	-6.8	0.000	0.000	D	F	0.0	0.000	0.203	0.000	1905.911	404.972	0.027	-	-0.000	-0.000	-	-	-	CAR1	-	29.923	-	FREEWAY_GENERAL	Urban	F	1111101000011101	0000000000010000	-	-	-	-	-	-	-	-	-	-	Terminate	
"Student22mode2"	"Seema_Shokoufeh_Track3"	"Feb 15, 2017 10:43:03 AM"	Unknown	2.41671	01/15/0117 10:43.09	00000145	0.000	Inter828t1-2	1.611	1	2	0.000	24.444	-6.8	0.000	0.000	D	F	0.0	0.000	0.203	0.000	1905.911	404.972	0.027	-	-0.000	-0.000	-	-	-	CAR1	-	30.161	-	FREEWAY_GENERAL	Urban	F	1011101000011101	0000000000010000	-	-	-	-	-	-	-	-	-	-	Terminate	
"Student22mode2"	"Seema_Shokoufeh_Track3"	"Feb 15, 2017 10:43:03 AM"	Unknown	2.43338	01/15/0117 10:43.09	00000146	0.000	Inter828t1-2	1.611	1	2	0.000	24.444	-6.8	0.000	0.000	D	F	0.0	0.000	0.203	0.000	1905.911	404.972	0.027	-	-0.000	-0.000	-	-	-	CAR1	-	30.401	-	FREEWAY_GENERAL	Urban	F	1011101000011101	0000000000010000	-	-	-	-	-	-	-	-	-	-	Terminate	
"Student22mode2"	"Seema_Shokoufeh_Track3"	"Feb 15, 2017 10:43:03 AM"	Unknown	2.45005	01/15/0117 10:43.09	00000147	0.000	Inter828t1-2	1.611	1	2	0.000	24.444	-6.8	0.000	0.000	D	F	0.0	0.000	0.204	0.000	1905.911	404.972	0.027	-	-0.000	-0.000	-	-	-	CAR1	-	30.643	-	FREEWAY_GENERAL	Urban	F	1011101000011101	0000000000010000	-	-	-	-	-	-	-	-	-	-	Terminate	
"Student22mode2"	"Seema_Shokoufeh_Track3"	"Feb 15, 2017 10:43:03 AM"	Unknown	2.46672	01/15/0117 10:43.09	00000148	0.000	Inter828t1-2	1.611	1	2	0.000	24.444	-6.7	0.000	0.000	D	F	0.0	0.000	0.204	0.000	1905.911	404.972	0.027	-	-0.000	-0.000	-	-	-	CAR1	-	30.886	-	FREEWAY_GENERAL	Urban	F	1011101000011101	0000000000010000	-	-	-	-	-	-	-	-	-	-	Terminate	
"Student22mode2"	"Seema_Shokoufeh_Track3"	"Feb 15, 2017 10:43:03 AM"	Unknown	2.48338	01/15/0117 10:43.09	00000149	0.000	Inter828t1-2	1.611	1	2	0.000	24.444	-6.7	0.000	0.000	D	F	0.0	0.000	0.204	0.000	1905.911	404.972	0.027	-	-0.000	-0.000	-	-	-	CAR1	-	31.131	-	FREEWAY_GENERAL	Urban	F	1011101000011101	0000000000010000	-	-	-	-	-	-	-	-	-	-	Terminate	
"Student22mode2"	"Seema_Shokoufeh_Track3"	"Feb 15, 2017 10:43:03 AM"	Unknown	2.50005	01/15/0117 10:43.09	00000150	0.000	Inter828t1-2	1.611	1	2	0.000	24.444	-6.7	0.000	0.000	D	F	0.0	0.000	0.204	0.000	1905.911	404.972	0.027	-	-0.000	-0.000	-	-	-	CAR1	-	31.378	-	FREEWAY_GENERAL	Urban	F	1011101000011101	0000000000010000	-	-	-	-	-	-	-	-	-	-	Terminate	
"Student22mode2"	"Seema_Shokoufeh_Track3"	"Feb 15, 2017 10:43:03 AM"	Unknown	2.51672	01/15/0117 10:43.09	00000151	0.000	Inter828t1-2	1.611	1	2	0.000	24.444	-6.7	0.000	0.000	D	F	0.0	0.000	0.204	0.000	1905.911	404.972	0.027	-	-0.000	-0.000	-	-	-	CAR1	-	31.626	-	FREEWAY_GENERAL	Urban	F	1111101000011101	0000000000010000	-	-	-	-	-	-	-	-	-	-	Terminate	
"Student22mode2"	"Seema_Shokoufeh_Track3"	"Feb 15, 2017 10:43:03 AM"	Unknown	2.53338	01/15/0117 10:43.09	00000152	0.000	Inter828t1-2	1.611	1	2	0.000	24.444	-6.7	0.000	0.000	D	F	0.0	0.000	0.204	0.000	1905.911	404.972	0.027	-	-0.000	-0.000	-	-	-	CAR1	-	31.876	-	FREEWAY_GENERAL	Urban	F	1011101000011101	0000000000010000	-	-	-	-	-	-	-	-	-	-	Terminate	
"Student22mode2"	"Seema_Shokoufeh_Track3"	"Feb 15, 2017 10:43:03 AM"	Unknown	2.55005	01/15/0117 10:43.09	00000153	0.000	Inter828t1-2	1.611	1	2	0.000	24.444	-6.7	0.000	0.000	D	F	0.0	0.000	0.204	0.000	1905.911	404.972	0.027	-	-0.000	-0.000	-	-	-	CAR1	-	32.128	-	FREEWAY_GENERAL	Urban	F	1011101000011101	0000000000010000	-	-	-	-	-	-	-	-	-	-	Terminate	
"Student22mode2"	"Seema_Shokoufeh_Track3"	"Feb 15, 2017 10:43:03 AM"	Unknown	2.56672	01/15/0117 10:43.09	00000154	0.000	Inter828t1-2	1.611	1	2	0.000	24.444	-6.7	0.000	0.000	D	F	0.0	0.000	0.205	0.000	1905.911	404.972	0.027	-	-0.000	-0.000	-	-	-	CAR1	-	32.381	-	FREEWAY_GENERAL	Urban	F	1011101000011101	0000000000010000	-	-	-	-	-	-	-	-	-	-	Terminate	
"Student22mode2"	"Seema_Shokoufeh_Track3"	"Feb 15, 2017 10:43:03 AM"	Unknown	2.58338	01/15/0117 10:43.09	00000155	0.000	Inter828t1-2	1.611	1	2	0.000	24.444	-6.7	0.000	0.000	D	F	0.0	0.000	0.205	0.000	1905.911	404.972	0.028	-	-0.000	-0.000	-	-	-	CAR1	-	32.636	-	FREEWAY_GENERAL	Urban	F	1011101000011101	0000000000010000	-	-	-	-	-	-	-	-	-	-	Terminate	
"Student22mode2"	"Seema_Shokoufeh_Track3"	"Feb 15, 2017 10:43:03 AM"	Unknown	2.60005	01/15/0117 10:43.09	00000156	0.000	Inter828t1-2	1.611	1	2	0.000	24.444	-6.7	0.000	0.000	D	F	0.0	0.000	0.205	0.000	1905.911	404.972	0.028	-	-0.000	-0.000	-	-	-	CAR1	-	32.893	-	FREEWAY_GENERAL	Urban	F	1011101000011101	0000000000010000	-	-	-	-	-	-	-	-	-	-	Terminate	
"Student22mode2"	"Seema_Shokoufeh_Track3"	"Feb 15, 2017 10:43:03 AM"	Unknown	2.61672	01/15/0117 10:43.09	00000157	0.000	Inter828t1-2	1.611	1	2	0.000	24.444	-6.7	0.000	0.000	D	F	0.0	0.000	0.205	0.000	1905.911	404.972	0.028	-	-0.000	-0.000	-	-	-	CAR1	-	33.151	-	FREEWAY_GENERAL	Urban	F	1011101000011101	0000000000010000	-	-	-	-	-	-	-	-	-	-	Terminate	
"Student22mode2"	"Seema_Shokoufeh_Track3"	"Feb 15, 2017 10:43:03 AM"	Unknown	2.63339	01/15/0117 10:43.09	00000158	0.000	Inter828t1-2	1.611	1	2	0.000	24.444	-6.7	0.000	0.000	D	F	0.0	0.000	0.205	0.000	1905.911	404.972	0.028	-	-0.000	-0.000	-	-	-	CAR1	-	33.411	-	FREEWAY_GENERAL	Urban	F	1011101000011101	0000000000010000	-	-	-	-	-	-	-	-	-	-	Terminate	
"Student22mode2"	"Seema_Shokoufeh_Track3"	"Feb 15, 2017 10:43:03 AM"	Unknown	2.65005	01/15/0117 10:43.09	00000159	0.000	Inter828t1-2	1.611	1	2	0.000	24.444	-6.7	0.000	0.000	D	F	0.0	0.000	0.205	0.000	1905.911	404.972	0.028	-	-0.000	-0.000	-	-	-	CAR1	-	33.673	-	FREEWAY_GENERAL	Urban	F	1011101000011101	0000000000010000	-	-	-	-	-	-	-	-	-	-	Terminate	
"Student22mode2"	"Seema_Shokoufeh_Track3"	"Feb 15, 2017 10:43:03 AM"	Unknown	2.66672	01/15/0117 10:43.09	00000160	0.000	Inter828t1-2	1.611	1	2	0.000	24.444	-6.7	0.000	0.000	D	F	0.0	0.000	0.205	0.000	1905.911	404.972	0.028	-	-0.000	-0.000	-	-	-	CAR1	-	33.936	-	FREEWAY_GENERAL	Urban	F	1011101000011101	0000000000010000	-	-	-	-	-	-	-	-	-	-	Terminate	
"Student22mode2"	"Seema_Shokoufeh_Track3"	"Feb 15, 2017 10:43:03 AM"	Unknown	2.68339	01/15/0117 10:43.09	00000161	0.000	Inter828t1-2	1.611	1	2	0.000	24.444	-6.7	0.000	0.000	D	F	0.0	0.000	0.205	0.000	1905.911	404.972	0.028	-	-0.000	-0.000	-	-	-	CAR1	-	34.201	-	FREEWAY_GENERAL	Urban	F	1011101000011101	0000000000010000	-	-	-	-	-	-	-	-	-	-	Terminate	
"Student22mode2"	"Seema_Shokoufeh_Track3"	"Feb 15, 2017 10:43:03 AM"	Unknown	2.70005	01/15/0117 10:43.09	00000162	0.000	Inter828t1-2	1.611	1	2	0.000	24.444	-6.7	0.000	0.000	D	F	0.0	0.000	0.206	0.000	1905.911	404.972	0.028	-	-0.000	-0.000	-	-	-	CAR1	-	32.109	-	FREEWAY_GENERAL	Urban	F	1011101000011101	0000000000010000	-	-	-	-	-	-	-	-	-	-	Terminate	
"Student22mode2"	"Seema_Shokoufeh_Track3"	"Feb 15, 2017 10:43:03 AM"	Unknown	2.71672	01/15/0117 10:43.09	00000163	0.000	Inter828t1-2	1.611	1	2	0.000	24.444	-6.7	0.000	0.000	D	F	0.0	0.000	0.206	0.000	1905.911	404.972	0.028	-	-0.000	-0.000	-	-	-	CAR1	-	32.377	-	FREEWAY_GENERAL	Urban	F	1011101000011101	0000000000010000	-	-	-	-	-	-	-	-	-	-	Terminate	
"Student22mode2"	"Seema_Shokoufeh_Track3"	"Feb 15, 2017 10:43:03 AM"	Unknown	2.73339	01/15/0117 10:43.09	00000164	0.000	Inter828t1-2	1.611	1	2	0.000	24.444	-6.7	0.000	0.000	D	F	0.0	0.000	0.206	0.000	1905.911	404.972	0.028	-	-0.000	-0.000	-	-	-	CAR1	-	32.647	-	FREEWAY_GENERAL	Urban	F	1011101000011101	0000000000010000	-	-	-	-	-	-	-	-	-	-	Terminate	
"Student22mode2"	"Seema_Shokoufeh_Track3"	"Feb 15, 2017 10:43:03 AM"	Unknown	2.75006	01/15/0117 10:43.09	00000165	0.000	Inter828t1-2	1.611	1	2	0.000	24.444	-6.8	0.000	0.000	D	F	0.0	0.000	0.206	0.000	1905.911	404.972	0.028	-	-0.000	-0.000	-	-	-	CAR1	-	32.919	-	FREEWAY_GENERAL	Urban	F	1011101000011101	0000000000010000	-	-	-	-	-	-	-	-	-	-	Terminate	
"Student22mode2"	"Seema_Shokoufeh_Track3"	"Feb 15, 2017 10:43:03 AM"	Unknown	2.76672	01/15/0117 10:43.09	00000166	0.000	Inter828t1-2	1.611	1	2	0.000	24.444	-6.8	0.000	0.000	D	F	0.0	0.000	0.206	0.000	1905.911	404.972	0.028	-	-0.000	-0.000	-	-	-	CAR1	-	33.192	-	FREEWAY_GENERAL	Urban	F	1011101000011101	0000000000010000	-	-	-	-	-	-	-	-	-	-	Terminate	
"Student22mode2"	"Seema_Shokoufeh_Track3"	"Feb 15, 2017 10:43:03 AM"	Unknown	2.78339	01/15/0117 10:43.09	00000167	0.000	Inter828t1-2	1.611	1	2	0.000	24.444	-6.8	0.000	0.000	D	F	0.0	0.000	0.206	0.000	1905.911	404.972	0.028	-	-0.000	-0.000	-	-	-	CAR1	-	33.467	-	FREEWAY_GENERAL	Urban	F	1011101000011101	0000000000010000	-	-	-	-	-	-	-	-	-	-	Terminate	
"Student22mode2"	"Seema_Shokoufeh_Track3"	"Feb 15, 2017 10:43:03 AM"	Unknown	2.80006	01/15/0117 10:43.09	00000168	0.000	Inter828t1-2	1.611	1	2	0.000	24.444	-6.7	0.000	0.000	D	F	0.0	0.000	0.206	0.000	1905.911	404.972	0.028	-	-0.000	-0.000	-	-	-	CAR1	-	33.744	-	FREEWAY_GENERAL	Urban	F	1111101000011101	0000000000010000	-	-	-	-	-	-	-	-	-	-	Terminate	
"Student22mode2"	"Seema_Shokoufeh_Track3"	"Feb 15, 2017 10:43:03 AM"	Unknown	2.81672	01/15/0117 10:43.09	00000169	0.000	Inter828t1-2	1.611	1	2	0.000	24.444	-6.7	0.000	0.000	D	F	0.0	0.000	0.206	0.000	1905.911	404.972	0.028	-	-0.000	-0.000	-	-	-	CAR1	-	34.022	-	FREEWAY_GENERAL	Urban	F	1011101000011101	0000000000010000	-	-	-	-	-	-	-	-	-	-	Terminate	
