"Name"	"Project"	"Time"	ZoneName	Time	SystemTime	Frame	Velocity	LaneName	LanePos	LaneIndex	LaneCount	LaneHeading	SpeedLimit	Steer	Accel	Brake	Gear	Horn	SubjectEngineRPM	SubjectHeading	SubjectPitch	SubjectRoll	SubjectX	SubjectY	SubjectZ	Signal	LatAccel	LongAccel	Collision	CollisionAngle	CollisionVelocity	VehAhead	HeadwayTime	HeadwayDist	TTC	TerrainType	CultureType	Slip	DigitalInputs	DigitalInputs2	ActiveTrigger	EntityName	DistToEntity	TimeToEntity	EntityVelocity	EntityAccel	EntityHeading	EntityX	EntityY	EntityZ	GrabData	
"Student15Mode3"	"Tanvi_6"	"Dec 01, 2016 09:37:34 AM"	Unknown	0.98335	11/01/0116 09:37.38	00000059	0.002	Inter625t13-0	-0.088	1	2	0.000	11.111	2.3	0.000	0.000	D	F	0.0	0.001	0.153	-0.001	1503.500	523.206	0.019	-	-0.000	0.000	-	-	-	-	-	-	-	PAVEMENT_GENERAL	Urban	F	1011101000011101	0000000000010000	-	car	928.855	774736.500	0.000	0.000	180.000	696.000	987.000	-0.000	Terminate	
"Student15Mode3"	"Tanvi_6"	"Dec 01, 2016 09:37:34 AM"	Unknown	1.98337	11/01/0116 09:37.39	00000119	0.000	Inter625t13-0	-0.088	1	2	0.000	11.111	2.3	0.000	0.000	D	F	0.0	0.000	0.197	-0.000	1503.500	523.208	0.026	-	0.000	-0.001	-	-	-	-	-	-	-	PAVEMENT_GENERAL	Urban	F	1111101000011101	0000000000010000	-	car	928.855	4213763.500	0.000	0.000	180.000	696.000	987.000	-0.000	Terminate	
"Student15Mode3"	"Tanvi_6"	"Dec 01, 2016 09:37:34 AM"	Unknown	2.98339	11/01/0116 09:37.40	00000179	-0.000	Inter625t13-0	-0.088	1	2	0.000	11.111	2.3	0.000	0.000	D	F	0.0	0.000	0.207	-0.000	1503.500	523.208	0.028	-	0.000	-0.000	-	-	-	-	-	-	-	PAVEMENT_GENERAL	Urban	F	1111101000011101	0000000000010000	-	car	928.854	-116000328.000	0.000	0.000	180.000	696.000	987.000	-0.000	Terminate	
"Student15Mode3"	"Tanvi_6"	"Dec 01, 2016 09:37:34 AM"	Unknown	3.98341	11/01/0116 09:37.41	00000239	-0.000	Inter625t13-0	-0.088	1	2	0.000	11.111	-0.4	0.004	0.000	D	F	0.0	0.000	0.210	-0.000	1503.500	523.208	0.028	-	-0.000	-0.000	-	-	-	-	-	-	-	PAVEMENT_GENERAL	Urban	F	1011101000011101	0000000000010000	-	car	928.854	-22305156.000	0.000	0.000	180.000	696.000	987.000	-0.000	Terminate	
"Student15Mode3"	"Tanvi_6"	"Dec 01, 2016 09:37:34 AM"	Unknown	4.98343	11/01/0116 09:37.42	00000299	-0.000	Inter625t13-0	-0.088	1	2	0.000	11.111	-4.4	0.000	0.000	D	F	0.0	0.000	0.210	-0.000	1503.500	523.208	0.028	-	0.000	0.000	-	-	-	-	-	-	-	PAVEMENT_GENERAL	Urban	F	1011101000011101	0000000000010000	-	car	928.854	-24859886.000	0.000	0.000	180.000	696.000	987.000	-0.000	Terminate	
"Student15Mode3"	"Tanvi_6"	"Dec 01, 2016 09:37:34 AM"	Unknown	5.98345	11/01/0116 09:37.43	00000359	-0.000	Inter625t13-0	-0.088	1	2	0.000	11.111	-6.9	0.000	0.000	D	F	0.0	0.000	0.209	-0.000	1503.500	523.208	0.028	-	0.000	0.000	-	-	-	-	-	-	-	PAVEMENT_GENERAL	Urban	F	1011101000011101	0000000000010000	-	car	928.855	-34388384.000	0.000	0.000	180.000	696.000	987.000	-0.000	Terminate	
"Student15Mode3"	"Tanvi_6"	"Dec 01, 2016 09:37:34 AM"	Unknown	6.98347	11/01/0116 09:37.44	00000419	-0.000	Inter625t13-0	-0.088	1	2	0.000	11.111	-7.5	0.000	0.000	P	F	0.0	0.001	0.209	-0.000	1503.500	523.208	0.028	-	-0.000	0.000	-	-	-	-	-	-	-	PAVEMENT_GENERAL	Urban	F	1011101000011101	0000000000010000	-	car	928.855	-48202804.000	0.000	0.000	180.000	696.000	987.000	-0.000	Terminate	
"Student15Mode3"	"Tanvi_6"	"Dec 01, 2016 09:37:34 AM"	Unknown	7.98349	11/01/0116 09:37.45	00000479	-0.000	Inter625t13-0	-0.088	1	2	0.000	11.111	-8.7	0.005	0.000	P	F	0.0	0.001	0.209	-0.000	1503.500	523.208	0.028	-	-0.000	0.000	-	-	-	-	-	-	-	PAVEMENT_GENERAL	Urban	F	1111101000011101	0000000000010000	-	car	928.855	-64954660.000	0.000	0.000	180.000	696.000	987.000	-0.000	Terminate	
"Student15Mode3"	"Tanvi_6"	"Dec 01, 2016 09:37:34 AM"	Unknown	8.98351	11/01/0116 09:37.46	00000539	-0.000	Inter625t13-0	-0.088	1	2	0.000	11.111	-6.4	0.004	0.000	P	F	266.7	0.001	0.209	0.000	1503.500	523.208	0.028	-	0.000	0.000	-	-	-	-	-	-	-	PAVEMENT_GENERAL	Urban	F	1111101000011111	0000000000010000	-	car	928.855	-112721720.000	0.000	0.000	180.000	696.000	987.000	-0.000	Terminate	
"Student15Mode3"	"Tanvi_6"	"Dec 01, 2016 09:37:34 AM"	Unknown	9.98353	11/01/0116 09:37.47	00000599	-0.000	Inter625t13-0	-0.088	1	2	0.000	11.111	-8.6	0.000	0.000	P	F	633.4	0.001	0.209	0.000	1503.500	523.208	0.028	-	0.000	0.000	-	-	-	-	-	-	-	PAVEMENT_GENERAL	Urban	F	1011101000011101	0000000000010000	-	car	928.855	-307625856.000	0.000	0.000	180.000	696.000	987.000	-0.000	Terminate	
"Student15Mode3"	"Tanvi_6"	"Dec 01, 2016 09:37:34 AM"	Unknown	10.98355	11/01/0116 09:37.48	00000659	-0.000	Inter625t13-0	-0.088	1	2	0.000	11.111	-8.3	0.000	0.000	N	F	477.5	0.001	0.209	0.000	1503.500	523.208	0.028	-	0.000	-0.000	-	-	-	-	-	-	-	PAVEMENT_GENERAL	Urban	F	1011101000011101	0000000000010000	-	car	928.855	-200703456.000	0.000	0.000	180.000	696.000	987.000	-0.000	Terminate	
"Student15Mode3"	"Tanvi_6"	"Dec 01, 2016 09:37:34 AM"	Unknown	11.98357	11/01/0116 09:37.49	00000719	0.000	Inter625t13-0	-0.088	1	2	0.000	11.111	-9.3	0.002	0.000	D	F	477.5	0.001	0.209	0.000	1503.500	523.208	0.028	-	-0.000	0.002	-	-	-	-	-	-	-	PAVEMENT_GENERAL	Urban	F	1011101000011101	0000000000010000	-	car	928.855	6919717.000	0.000	0.000	180.000	696.000	987.000	-0.000	Terminate	
"Student15Mode3"	"Tanvi_6"	"Dec 01, 2016 09:37:34 AM"	Unknown	12.98359	11/01/0116 09:37.50	00000779	0.914	Inter625t13-0	-0.088	1	2	0.000	11.111	3.0	0.143	0.000	D	F	1332.0	0.000	0.251	-0.002	1503.500	523.378	0.015	-	0.012	3.097	-	-	-	-	-	-	-	PAVEMENT_GENERAL	Urban	F	1011101000011101	0000000000010000	-	car	928.770	2040.115	0.000	0.000	180.000	696.000	987.000	-0.000	Terminate	
"Student15Mode3"	"Tanvi_6"	"Dec 01, 2016 09:37:34 AM"	Unknown	13.98361	11/01/0116 09:37.51	00000839	3.552	Inter625t13-0	-0.073	1	2	0.000	11.111	12.6	0.178	0.000	D	F	1610.5	0.350	0.235	-0.014	1503.515	525.676	0.015	-	0.090	2.604	-	-	-	-	-	-	-	PAVEMENT_GENERAL	Urban	F	1011101000011101	0000000000010000	-	car	927.640	532.251	0.000	0.000	180.000	696.000	987.000	-0.000	Terminate	
"Student15Mode3"	"Tanvi_6"	"Dec 01, 2016 09:37:34 AM"	Unknown	14.98363	11/01/0116 09:37.52	00000899	6.257	Inter625t13-0	0.038	1	2	0.000	11.111	6.0	0.275	0.000	D	F	2131.4	1.498	0.224	-0.007	1503.626	530.623	0.015	-	0.064	2.458	-	-	-	-	-	-	-	PAVEMENT_GENERAL	Urban	F	1011101000011101	0000000000010000	-	car	925.293	315.285	0.000	0.000	180.000	696.000	987.000	-0.000	Terminate	
"Student15Mode3"	"Tanvi_6"	"Dec 01, 2016 09:37:34 AM"	Unknown	15.98365	11/01/0116 09:37.53	00000959	8.674	Inter625t49-0	0.273	1	1	0.006	11.111	-5.7	0.298	0.000	D	F	2724.3	1.733	0.224	0.018	1503.862	538.092	0.015	-	-0.127	2.353	-	-	-	-	-	-	-	PAVEMENT_GENERAL	Urban	F	1111101000011101	0000000000010000	-	car	921.848	231.517	0.000	0.000	180.000	696.000	987.000	-0.000	Terminate	
"Student15Mode3"	"Tanvi_6"	"Dec 01, 2016 09:37:34 AM"	Unknown	16.98367	11/01/0116 09:37.54	00001019	10.557	Inter625t49-0	0.458	1	1	0.008	11.111	-7.0	0.287	0.000	D	F	2098.0	0.579	0.212	0.035	1504.047	547.802	0.019	-	-0.228	1.484	-	-	-	-	-	-	-	PAVEMENT_GENERAL	Urban	F	1011101000011101	0000000000010000	-	car	917.333	185.405	0.000	0.000	180.000	696.000	987.000	-0.000	Terminate	
"Student15Mode3"	"Tanvi_6"	"Dec 01, 2016 09:37:34 AM"	Unknown	17.98369	11/01/0116 09:37.55	00001079	11.565	Inter625t49-0	0.447	1	1	0.006	11.111	-2.3	0.266	0.000	D	F	2020.7	359.557	0.215	0.012	1504.038	558.915	0.023	-	-0.100	1.096	-	-	-	-	-	-	-	PAVEMENT_GENERAL	Urban	F	1011101000011101	0000000000010000	-	car	912.070	166.046	0.000	0.000	180.000	696.000	987.000	-0.000	Terminate	
"Student15Mode3"	"Tanvi_6"	"Dec 01, 2016 09:37:34 AM"	Unknown	18.98371	11/01/0116 09:37.56	00001139	12.154	Inter625t49-0	0.349	1	1	0.005	11.111	0.8	0.141	0.000	D	F	1637.5	359.574	0.201	-0.004	1503.942	570.803	0.024	-	0.028	0.426	-	-	-	-	-	-	-	PAVEMENT_GENERAL	Urban	F	1011101000011101	0000000000010000	-	car	906.480	160.556	0.000	0.000	180.000	696.000	987.000	-0.000	Terminate	
"Student15Mode3"	"Tanvi_6"	"Dec 01, 2016 09:37:34 AM"	Unknown	19.98373	11/01/0116 09:37.57	00001199	12.898	Inter625t15-0	0.292	1	2	0.000	11.111	4.8	0.316	0.000	D	F	2245.8	0.000	0.212	-0.026	1503.885	583.254	0.021	-	0.176	1.182	-	-	-	-	-	-	-	PAVEMENT_GENERAL	Urban	F	1011101000011101	0000000000010000	-	car	900.796	156.073	0.000	0.000	180.000	696.000	987.000	-0.000	Terminate	
"Student15Mode3"	"Tanvi_6"	"Dec 01, 2016 09:37:34 AM"	Unknown	20.98375	11/01/0116 09:37.58	00001259	14.160	Inter625t15-0	0.384	1	2	0.000	11.111	2.6	0.325	0.000	D	F	2497.3	0.762	0.209	-0.019	1503.977	596.777	0.021	-	0.147	1.280	-	-	-	-	-	-	-	PAVEMENT_GENERAL	Urban	F	1011101000011101	0000000000010000	-	car	894.915	149.446	0.000	0.000	180.000	696.000	987.000	-0.000	Terminate	
"Student15Mode3"	"Tanvi_6"	"Dec 01, 2016 09:37:34 AM"	Unknown	21.98377	11/01/0116 09:37.59	00001319	15.404	Inter614t1-0	0.608	1	2	0.000	11.111	-4.5	0.317	0.000	D	F	2660.6	0.751	0.206	0.025	1504.201	611.563	0.021	-	-0.184	1.218	-	-	-	-	-	-	-	PAVEMENT_GENERAL	Urban	F	1111101000011101	0000000000010000	-	car	888.787	140.942	0.000	0.000	180.000	696.000	987.000	-0.000	Terminate	
"Student15Mode3"	"Tanvi_6"	"Dec 01, 2016 09:37:34 AM"	Unknown	22.98379	11/01/0116 09:38.00	00001379	16.609	Inter614t1-0	0.640	1	2	0.000	11.111	-3.6	0.321	0.000	D	F	2838.2	359.394	0.203	0.024	1504.233	627.570	0.021	-	-0.268	1.194	-	-	-	-	-	-	-	PAVEMENT_GENERAL	Urban	F	1111101000011101	0000000000010000	-	car	882.192	127.688	0.000	0.000	180.000	696.000	987.000	-0.000	Terminate	
"Student15Mode3"	"Tanvi_6"	"Dec 01, 2016 09:37:34 AM"	Unknown	23.98381	11/01/0116 09:38.01	00001439	17.790	Inter614t1-0	0.475	1	2	0.000	11.111	1.5	0.321	0.000	D	F	3003.8	359.635	0.202	-0.024	1504.068	644.773	0.021	-	0.123	1.153	-	-	-	-	-	-	-	PAVEMENT_GENERAL	Urban	F	1011101000011101	0000000000010000	-	car	875.190	124.284	0.000	0.000	180.000	696.000	987.000	-0.000	Terminate	
"Student15Mode3"	"Tanvi_6"	"Dec 01, 2016 09:37:34 AM"	Unknown	24.98383	11/01/0116 09:38.02	00001499	18.917	Inter614t1-0	0.317	1	2	0.000	11.111	2.9	0.325	0.000	D	F	3160.4	359.182	0.200	-0.004	1503.911	663.129	0.021	-	-0.038	1.112	-	-	-	-	-	-	-	PAVEMENT_GENERAL	Urban	F	1011101000011101	0000000000010000	-	car	868.049	119.091	0.000	0.000	180.000	696.000	987.000	-0.000	Terminate	
"Student15Mode3"	"Tanvi_6"	"Dec 01, 2016 09:37:34 AM"	Unknown	25.98385	11/01/0116 09:38.03	00001559	19.834	Inter614t1-0	0.165	1	2	0.000	11.111	2.0	0.325	0.000	D	F	2353.3	0.064	0.192	-0.025	1503.758	682.560	0.023	-	0.237	0.658	-	-	-	-	-	-	-	PAVEMENT_GENERAL	Urban	F	1011101000011101	0000000000010000	-	car	860.865	123.435	0.000	0.000	180.000	696.000	987.000	-0.000	Terminate	
"Student15Mode3"	"Tanvi_6"	"Dec 01, 2016 09:37:34 AM"	Unknown	26.98387	11/01/0116 09:38.04	00001619	20.458	Inter614t1-0	0.185	1	2	0.000	11.111	-1.1	0.323	0.000	D	F	2370.4	0.073	0.193	0.008	1503.778	702.710	0.024	-	-0.030	0.608	-	-	-	-	-	-	-	PAVEMENT_GENERAL	Urban	F	1011101000011101	0000000000010000	-	car	853.985	126.200	0.000	0.000	180.000	696.000	987.000	-0.000	Terminate	
"Student15Mode3"	"Tanvi_6"	"Dec 01, 2016 09:37:34 AM"	Unknown	27.98389	11/01/0116 09:38.05	00001679	21.060	Inter614t1-0	0.218	1	2	0.000	11.111	1.1	0.325	0.000	D	F	2421.8	0.199	0.192	-0.010	1503.811	723.469	0.024	-	0.081	0.609	-	-	-	-	-	-	-	PAVEMENT_GENERAL	Urban	F	1011101000011101	0000000000010000	-	car	847.351	131.130	0.000	0.000	180.000	696.000	987.000	-0.000	Terminate	
"Student15Mode3"	"Tanvi_6"	"Dec 01, 2016 09:37:34 AM"	Unknown	28.98391	11/01/0116 09:38.06	00001739	21.646	Inter614t1-0	0.316	1	2	0.000	11.111	-0.7	0.317	0.000	D	F	2460.2	0.300	0.190	0.002	1503.910	744.824	0.024	-	-0.016	0.571	-	-	-	-	-	-	-	PAVEMENT_GENERAL	Urban	F	1011101000011101	0000000000010000	-	car	841.066	137.731	0.000	0.000	180.000	696.000	987.000	-0.000	Terminate	
"Student15Mode3"	"Tanvi_6"	"Dec 01, 2016 09:37:34 AM"	Unknown	29.98393	11/01/0116 09:38.07	00001799	22.118	Inter614t1-0	0.423	1	2	0.000	11.111	1.8	0.257	0.000	D	F	2448.1	0.368	0.188	-0.014	1504.016	766.727	0.025	-	0.114	0.395	-	-	-	-	-	-	-	PAVEMENT_GENERAL	Urban	F	1011101000011101	0000000000010000	-	car	835.143	147.029	0.000	0.000	180.000	696.000	987.000	-0.000	Terminate	
"Student15Mode3"	"Tanvi_6"	"Dec 01, 2016 09:37:34 AM"	Unknown	30.98395	11/01/0116 09:38.08	00001859	22.469	Inter614t1-0	0.558	1	2	0.000	11.111	-1.1	0.242	0.000	D	F	2468.3	0.186	0.186	0.012	1504.151	789.025	0.025	-	-0.114	0.337	-	-	-	-	-	-	-	PAVEMENT_GENERAL	Urban	F	1011101000011101	0000000000010000	-	car	829.688	157.281	0.000	0.000	180.000	696.000	987.000	-0.000	Terminate	
"Student15Mode3"	"Tanvi_6"	"Dec 01, 2016 09:37:34 AM"	Unknown	31.98397	11/01/0116 09:38.09	00001919	22.778	Inter612t1-0	0.558	1	2	0.000	11.111	-3.7	0.231	0.000	D	F	2491.2	359.699	0.185	0.027	1504.151	811.653	0.026	-	-0.212	0.294	-	-	-	-	-	-	-	PAVEMENT_GENERAL	Urban	F	1011101000011101	0000000000010000	-	car	824.595	166.699	0.000	0.000	180.000	696.000	987.000	-0.000	Terminate	
"Student15Mode3"	"Tanvi_6"	"Dec 01, 2016 09:37:34 AM"	Unknown	32.98399	11/01/0116 09:38.10	00001979	23.063	Inter612t1-0	0.326	1	2	0.000	11.111	1.7	0.228	0.000	D	F	2515.7	359.088	0.184	-0.002	1503.919	834.574	0.026	-	-0.042	0.277	-	-	-	-	-	-	-	PAVEMENT_GENERAL	Urban	F	1011101000011101	0000000000010000	-	car	819.812	176.833	0.000	0.000	180.000	696.000	987.000	-0.000	Terminate	
"Student15Mode3"	"Tanvi_6"	"Dec 01, 2016 09:37:34 AM"	Unknown	33.98401	11/01/0116 09:38.11	00002039	23.335	Inter612t1-0	0.023	1	2	0.000	11.111	-2.5	0.229	0.000	D	F	2542.4	359.340	0.184	0.017	1503.617	857.771	0.026	-	-0.069	0.274	-	-	-	-	-	-	-	PAVEMENT_GENERAL	Urban	F	1011101000011101	0000000000010000	-	car	815.531	206.357	0.000	0.000	180.000	696.000	987.000	-0.000	Terminate	
"Student15Mode3"	"Tanvi_6"	"Dec 01, 2016 09:37:34 AM"	Unknown	34.98403	11/01/0116 09:38.12	00002099	23.604	Inter612t1-0	-0.217	1	2	0.000	11.111	1.5	0.228	0.000	D	F	2562.5	359.872	0.183	-0.042	1503.376	881.240	0.026	-	0.305	0.259	-	-	-	-	-	-	-	PAVEMENT_GENERAL	Urban	F	1011101000011101	0000000000010000	-	car	811.914	260.378	0.000	0.000	180.000	696.000	987.000	-0.000	Terminate	
"Student15Mode3"	"Tanvi_6"	"Dec 01, 2016 09:37:34 AM"	Unknown	35.98405	11/01/0116 09:38.13	00002159	23.803	Inter612t1-0	-0.236	1	2	0.000	11.111	2.6	0.224	0.000	D	F	2025.3	0.285	0.182	-0.034	1503.357	904.961	0.026	-	0.252	0.131	-	-	-	-	-	-	-	PAVEMENT_GENERAL	Urban	F	1011101000011101	0000000000010000	-	car	809.155	353.541	0.000	0.000	180.000	696.000	987.000	-0.000	Terminate	
"Student15Mode3"	"Tanvi_6"	"Dec 01, 2016 09:37:34 AM"	Unknown	36.98407	11/01/0116 09:38.14	00002219	23.916	Inter612t1-0	-0.066	1	2	0.000	11.111	0.9	0.210	0.000	D	F	1992.8	0.537	0.181	-0.013	1503.528	928.824	0.026	-	0.057	0.083	-	-	-	-	-	-	-	PAVEMENT_GENERAL	Urban	F	1011101000011101	0000000000010000	-	car	807.261	539.992	0.000	0.000	180.000	696.000	987.000	-0.000	Terminate	
"Student15Mode3"	"Tanvi_6"	"Dec 01, 2016 09:37:34 AM"	Unknown	37.98409	11/01/0116 09:38.15	00002279	23.978	Inter612t1-0	0.185	1	2	0.000	11.111	-3.4	0.196	0.000	D	F	1955.2	0.615	0.180	0.024	1503.778	952.774	0.027	-	-0.123	0.020	-	-	-	-	-	-	-	PAVEMENT_GENERAL	Urban	F	1011101000011101	0000000000010000	-	car	806.144	1063.853	0.000	0.000	180.000	696.000	987.000	-0.000	Terminate	
"Student15Mode3"	"Tanvi_6"	"Dec 01, 2016 09:37:34 AM"	Unknown	38.98411	11/01/0116 09:38.16	00002339	23.996	Inter612t1-0	0.321	1	2	0.000	11.111	-1.6	0.196	0.000	D	F	1953.8	359.915	0.180	0.026	1503.914	976.761	0.027	-	-0.211	0.016	-	-	-	-	-	-	-	PAVEMENT_GENERAL	Urban	F	1011101000011101	0000000000010000	-	car	805.619	2370.380	0.000	0.000	180.000	696.000	987.000	-0.000	Terminate	
"Student15Mode3"	"Tanvi_6"	"Dec 01, 2016 09:37:34 AM"	Unknown	39.98413	11/01/0116 09:38.17	00002399	24.003	Inter613t1-0	0.247	1	2	0.000	11.111	-1.7	0.194	0.000	D	F	1952.5	359.608	0.180	0.019	1503.841	1000.761	0.027	-	-0.142	0.002	-	-	-	-	-	-	-	PAVEMENT_GENERAL	Urban	F	1011101000011101	0000000000010000	-	car	805.598	-3294.420	0.000	0.000	180.000	696.000	987.000	-0.000	Terminate	
"Student15Mode3"	"Tanvi_6"	"Dec 01, 2016 09:37:34 AM"	Unknown	40.98415	11/01/0116 09:38.18	00002459	24.000	Inter613t1-0	0.036	1	2	0.000	11.111	-0.3	0.192	0.000	D	F	1941.8	359.309	0.180	0.011	1503.629	1024.763	0.027	-	-0.083	-0.017	-	-	-	-	-	-	-	PAVEMENT_GENERAL	Urban	F	1011101000011101	0000000000010000	-	car	806.152	-969.273	0.000	0.000	180.000	696.000	987.000	-0.000	Terminate	
"Student15Mode3"	"Tanvi_6"	"Dec 01, 2016 09:37:34 AM"	Unknown	41.98417	11/01/0116 09:38.19	00002519	23.997	Inter613t1-0	-0.222	1	2	0.000	11.111	3.4	0.217	0.000	D	F	2006.9	359.572	0.181	-0.025	1503.371	1048.758	0.027	-	0.199	0.046	-	-	-	-	-	-	-	PAVEMENT_GENERAL	Urban	F	1011101000011101	0000000000010000	-	car	807.370	-488.828	0.000	0.000	180.000	696.000	987.000	-0.000	Terminate	
"Student15Mode3"	"Tanvi_6"	"Dec 01, 2016 09:37:34 AM"	Unknown	42.98419	11/01/0116 09:38.20	00002579	24.088	Inter613t1-0	-0.291	1	2	0.000	11.111	2.1	0.215	0.000	D	F	2001.7	0.203	0.181	-0.026	1503.303	1072.800	0.027	-	0.189	0.086	-	-	-	-	-	-	-	PAVEMENT_GENERAL	Urban	F	1011101000011101	0000000000010000	-	car	809.490	-307.726	0.000	0.000	180.000	696.000	987.000	-0.000	Terminate	
"Student15Mode3"	"Tanvi_6"	"Dec 01, 2016 09:37:34 AM"	Unknown	43.98421	11/01/0116 09:38.21	00002639	24.172	Inter613t1-0	-0.160	1	2	0.000	11.111	2.2	0.217	0.000	D	F	2009.7	0.551	0.181	-0.022	1503.433	1096.928	0.026	-	0.172	0.096	-	-	-	-	-	-	-	PAVEMENT_GENERAL	Urban	F	1011101000011101	0000000000010000	-	car	812.522	-232.748	0.000	0.000	180.000	696.000	987.000	-0.000	Terminate	
"Student15Mode3"	"Tanvi_6"	"Dec 01, 2016 09:37:34 AM"	Unknown	44.98423	11/01/0116 09:38.22	00002699	24.258	Inter613t1-0	0.136	1	2	0.000	11.111	2.1	0.217	0.000	D	F	2013.5	0.964	0.180	-0.022	1503.729	1121.142	0.027	-	0.171	0.079	-	-	-	-	-	-	-	PAVEMENT_GENERAL	Urban	F	1011101000011101	0000000000010000	-	car	816.432	-186.557	0.000	0.000	180.000	696.000	987.000	-0.000	Terminate	
"Student15Mode3"	"Tanvi_6"	"Dec 01, 2016 09:37:34 AM"	Unknown	45.98425	11/01/0116 09:38.23	00002759	24.340	Inter613t1-0	0.589	1	2	0.000	11.111	-3.3	0.189	0.000	D	F	1958.2	1.123	0.179	0.014	1504.182	1145.436	0.026	-	-0.113	0.052	-	-	-	-	-	-	-	PAVEMENT_GENERAL	Urban	F	1011101000011101	0000000000010000	-	car	821.206	-159.467	0.000	0.000	180.000	696.000	987.000	-0.000	Terminate	
"Student15Mode3"	"Tanvi_6"	"Dec 01, 2016 09:37:34 AM"	Unknown	46.98427	11/01/0116 09:38.24	00002819	23.737	Inter613t1-0	0.819	1	2	0.000	11.111	-8.4	0.000	0.000	D	F	1618.2	359.226	0.169	0.130	1504.413	1169.505	0.030	L	-0.994	-0.668	-	-	-	-	-	-	-	PAVEMENT_GENERAL	Urban	F	1011101000111101	0000000000010000	-	car	826.398	-168.174	0.000	0.000	180.000	696.000	987.000	-0.000	Terminate	
"Student15Mode3"	"Tanvi_6"	"Dec 01, 2016 09:37:34 AM"	Unknown	47.98429	11/01/0116 09:38.25	00002879	23.063	Inter613t1-0	0.266	1	2	0.000	11.111	-3.4	0.000	0.000	D	F	1572.6	357.949	0.176	0.040	1503.860	1192.898	0.030	L	-0.316	-0.655	-	-	-	-	-	-	-	PAVEMENT_GENERAL	Urban	F	1011101000111101	0000000000010000	-	car	831.326	-169.912	0.000	0.000	180.000	696.000	987.000	-0.000	Terminate	
"Student15Mode3"	"Tanvi_6"	"Dec 01, 2016 09:37:34 AM"	Unknown	48.98431	11/01/0116 09:38.26	00002939	20.671	Inter615t9-0	-0.735	1	2	0.000	11.111	-11.4	0.000	0.224	D	F	1369.0	356.043	0.132	0.127	1502.858	1215.083	0.036	L	-0.950	-3.374	-	-	-	22	2.763	57.106	2.763	PAVEMENT_GENERAL	Urban	F	1011101000111101	0000000000010000	-	car	836.116	-197.345	0.000	0.000	180.000	696.000	987.000	-0.000	Terminate	
"Student15Mode3"	"Tanvi_6"	"Dec 01, 2016 09:37:34 AM"	Unknown	49.98433	11/01/0116 09:38.27	00002999	16.316	Inter615t31-0	-1.382	1	1	354.268	11.111	4.8	0.000	0.430	D	F	1047.0	353.754	0.028	0.030	1501.294	1233.668	0.040	L	-0.284	-5.470	-	-	-	22	2.498	40.762	2.498	PAVEMENT_GENERAL	Urban	F	1011101000111101	0000000000010000	-	car	839.866	-275.103	0.000	0.000	180.000	696.000	987.000	-0.000	Terminate	
"Student15Mode3"	"Tanvi_6"	"Dec 01, 2016 09:37:34 AM"	Unknown	50.98435	11/01/0116 09:38.28	00003059	10.488	Inter615t31-0	-1.248	1	1	356.367	11.111	28.3	0.000	0.487	D	F	931.6	356.934	-0.048	-0.168	1500.080	1247.069	0.041	L	1.002	-5.978	-	-	-	22	2.610	27.374	2.610	PAVEMENT_GENERAL	Urban	F	1011101000111101	0000000000010000	-	car	842.733	-313.387	0.000	0.000	180.000	696.000	987.000	-0.000	Terminate	
"Student15Mode3"	"Tanvi_6"	"Dec 01, 2016 09:37:34 AM"	Unknown	51.98437	11/01/0116 09:38.29	00003119	4.827	Inter615t31-0	-0.808	1	1	356.903	11.111	18.2	0.000	0.409	D	F	477.5	0.646	0.028	-0.012	1499.950	1254.654	0.040	L	0.126	-5.211	-	-	-	22	4.112	19.848	4.112	PAVEMENT_GENERAL	Urban	F	1011101000111101	0000000000010000	-	car	844.974	-536.058	0.000	0.000	180.000	696.000	987.000	-0.000	Terminate	
"Student15Mode3"	"Tanvi_6"	"Dec 01, 2016 09:37:34 AM"	Unknown	52.98439	11/01/0116 09:38.30	00003179	0.526	Inter615t31-0	-0.613	1	1	356.903	11.111	6.6	0.000	0.254	D	F	477.5	1.286	0.188	0.003	1500.010	1257.161	0.037	L	-0.010	-2.707	-	-	-	22	32.968	17.347	32.968	PAVEMENT_GENERAL	Urban	F	1011101000111101	0000000000010000	-	car	845.826	-4731.793	0.000	0.000	180.000	696.000	987.000	-0.000	Terminate	
"Student15Mode3"	"Tanvi_6"	"Dec 01, 2016 09:37:34 AM"	Unknown	53.98441	11/01/0116 09:38.31	00003239	-0.001	Inter615t31-0	-0.606	1	1	356.903	11.111	7.0	0.000	0.152	D	F	477.5	1.297	0.235	-0.000	1500.012	1257.245	0.031	L	0.000	0.001	-	-	-	22	-	17.264	-	PAVEMENT_GENERAL	Urban	F	1011101000111101	0000000000010000	-	car	845.855	2314493.500	0.000	0.000	180.000	696.000	987.000	-0.000	Terminate	
"Student15Mode3"	"Tanvi_6"	"Dec 01, 2016 09:37:34 AM"	Unknown	54.98443	11/01/0116 09:38.32	00003299	-0.000	Inter615t31-0	-0.606	1	1	356.903	11.111	8.0	0.000	0.069	D	F	477.5	1.297	0.216	-0.000	1500.012	1257.245	0.029	L	0.000	0.000	-	-	-	22	-	17.264	-	PAVEMENT_GENERAL	Urban	F	1111101000111101	0000000000010000	-	car	845.855	6634999.500	0.000	0.000	180.000	696.000	987.000	-0.000	Terminate	
"Student15Mode3"	"Tanvi_6"	"Dec 01, 2016 09:37:34 AM"	Unknown	55.98445	11/01/0116 09:38.33	00003359	0.006	Inter615t31-0	-0.606	1	1	356.903	11.111	8.2	0.000	0.000	D	F	477.5	1.297	0.209	0.002	1500.012	1257.245	0.027	L	0.000	0.019	-	-	-	22	-	17.264	-	PAVEMENT_GENERAL	Urban	F	1111101000111101	0000000000010000	-	car	845.855	-439670.750	0.000	0.000	180.000	696.000	987.000	-0.000	Terminate	
"Student15Mode3"	"Tanvi_6"	"Dec 01, 2016 09:37:34 AM"	Unknown	56.98447	11/01/0116 09:38.34	00003419	0.022	Inter615t31-0	-0.605	1	1	356.903	11.111	8.7	0.000	0.000	D	F	477.5	1.301	0.198	0.001	1500.012	1257.257	0.024	L	0.000	0.054	-	-	-	22	784.803	17.252	784.803	PAVEMENT_GENERAL	Urban	F	1111101000111101	0000000000010000	-	car	845.859	-113150.516	0.000	0.000	180.000	696.000	987.000	-0.000	Terminate	
"Student15Mode3"	"Tanvi_6"	"Dec 01, 2016 09:37:34 AM"	Unknown	57.98449	11/01/0116 09:38.35	00003479	0.780	Inter615t31-0	-0.591	1	1	356.903	11.111	9.5	0.085	0.000	D	F	1139.9	1.338	0.202	-0.001	1500.017	1257.427	0.019	L	0.013	2.275	-	-	-	22	23.032	17.969	-	PAVEMENT_GENERAL	Urban	F	1011101000111101	0000000000010000	-	car	845.918	-3181.208	0.000	0.000	180.000	696.000	987.000	-0.000	Terminate	
"Student15Mode3"	"Tanvi_6"	"Dec 01, 2016 09:37:34 AM"	Unknown	58.98451	11/01/0116 09:38.36	00003539	3.412	Inter615t31-0	-0.413	1	1	356.903	11.111	7.9	0.175	0.000	D	F	1616.1	1.768	0.240	-0.004	1500.084	1259.484	0.013	L	0.029	2.932	-	-	-	22	5.511	18.802	-	PAVEMENT_GENERAL	Urban	F	1011101000111101	0000000000010000	-	car	846.640	-708.986	0.000	0.000	180.000	696.000	987.000	-0.000	Terminate	
"Student15Mode3"	"Tanvi_6"	"Dec 01, 2016 09:37:34 AM"	Unknown	59.98453	11/01/0116 09:38.37	00003599	5.806	Inter615t31-0	0.007	1	1	356.903	11.111	-3.4	0.201	0.000	D	F	1957.0	2.028	0.225	0.008	1500.253	1264.155	0.016	L	-0.055	2.128	-	-	-	22	3.286	19.080	-	PAVEMENT_GENERAL	Urban	F	1111101000111101	0000000000010000	-	car	848.309	-406.899	0.000	0.000	180.000	696.000	987.000	-0.000	Terminate	
"Student15Mode3"	"Tanvi_6"	"Dec 01, 2016 09:37:34 AM"	Unknown	60.98455	11/01/0116 09:38.38	00003659	7.647	Inter615t11-0	0.363	LT1	2	0.000	11.111	-15.2	0.210	0.000	D	F	1828.3	1.025	0.216	0.040	1500.425	1270.907	0.018	L	-0.292	1.592	-	-	-	22	2.512	19.211	-	PAVEMENT_GENERAL	Urban	F	1011101000111101	0000000000010000	-	car	850.696	-318.176	0.000	0.000	180.000	696.000	987.000	-0.000	Terminate	
"Student15Mode3"	"Tanvi_6"	"Dec 01, 2016 09:37:34 AM"	Unknown	61.98457	11/01/0116 09:38.39	00003719	9.008	Inter615t11-0	0.221	LT1	2	0.000	11.111	-44.9	0.203	0.000	D	F	1861.4	357.332	0.205	0.152	1500.283	1279.271	0.021	L	-1.096	1.140	-	-	-	22	2.186	19.691	-	PAVEMENT_GENERAL	Urban	F	1011101000111101	0000000000010000	-	car	853.382	-318.541	0.000	0.000	180.000	696.000	987.000	-0.000	Terminate	
"Student15Mode3"	"Tanvi_6"	"Dec 01, 2016 09:37:34 AM"	Unknown	62.98459	11/01/0116 09:38.40	00003779	9.779	Inter615t65-0	0.089	1	1	338.856	11.111	-109.9	0.113	0.000	D	F	1578.2	344.829	0.186	0.435	1498.812	1288.626	0.026	L	-3.218	0.280	-	-	-	22	2.149	21.019	-	PAVEMENT_GENERAL	Urban	F	1011101000111101	0000000000010000	-	car	855.245	-925.782	0.000	0.000	180.000	696.000	987.000	-0.000	Terminate	
"Student15Mode3"	"Tanvi_6"	"Dec 01, 2016 09:37:34 AM"	Unknown	63.98461	11/01/0116 09:38.41	00003839	10.091	Inter615t65-0	0.775	1	1	318.233	11.111	-129.6	0.148	0.000	D	F	1544.4	324.218	0.174	0.516	1494.378	1297.438	0.027	L	-3.943	0.303	-	-	-	22	2.268	22.889	-	PAVEMENT_GENERAL	Urban	F	1111101000111101	0000000000010000	-	car	854.249	337.326	0.000	0.000	180.000	696.000	987.000	-0.000	Terminate	
"Student15Mode3"	"Tanvi_6"	"Dec 01, 2016 09:37:34 AM"	Unknown	64.98463	11/01/0116 09:38.42	00003899	10.195	Inter615t65-0	1.272	1	1	289.969	11.111	-190.5	0.143	0.000	D	F	1530.1	295.549	0.163	0.743	1486.594	1303.815	0.035	L	-5.715	-0.014	-	-	-	22	2.637	26.882	-	PAVEMENT_GENERAL	Urban	F	1011101000111101	0000000000010000	-	car	849.351	123.050	0.000	0.000	180.000	696.000	987.000	-0.000	Terminate	
"Student15Mode3"	"Tanvi_6"	"Dec 01, 2016 09:37:34 AM"	Unknown	65.98465	11/01/0116 09:38.43	00003959	10.405	Inter615t3-3	1.768	1	2	270.000	11.111	-76.9	0.168	0.000	D	F	1604.7	265.487	0.106	0.379	1476.575	1305.298	0.027	L	-3.319	0.554	-	-	-	22	3.156	32.832	-	PAVEMENT_GENERAL	Urban	F	1011101000111101	0000000000010000	-	car	840.618	84.794	0.000	0.000	180.000	696.000	987.000	-0.000	Terminate	
"Student15Mode3"	"Tanvi_6"	"Dec 01, 2016 09:37:34 AM"	Unknown	66.98467	11/01/0116 09:38.44	00004019	11.066	Inter615t19-0	0.382	1	1	270.065	11.111	30.8	0.228	0.000	D	F	1784.3	263.169	0.214	-0.128	1465.966	1303.915	0.023	-	0.970	0.937	-	-	-	22	3.598	39.818	-	PAVEMENT_GENERAL	Urban	F	1011101000011101	0000000000010000	-	car	830.276	77.874	0.000	0.000	180.000	696.000	987.000	-0.000	Terminate	
"Student15Mode3"	"Tanvi_6"	"Dec 01, 2016 09:37:34 AM"	Unknown	67.98470	11/01/0116 09:38.45	00004079	12.135	Inter615t19-0	-0.312	1	1	270.101	11.111	28.0	0.310	0.000	D	F	2216.5	269.547	0.209	-0.150	1454.424	1303.232	0.021	-	1.164	1.245	-	-	-	22	3.885	47.145	-	PAVEMENT_GENERAL	Urban	F	1111101000011101	0000000000010000	-	car	819.352	72.915	0.000	0.000	180.000	696.000	987.000	-0.000	Terminate	
"Student15Mode3"	"Tanvi_6"	"Dec 01, 2016 09:37:34 AM"	Unknown	68.98471	11/01/0116 09:38.46	00004139	13.445	Inter615t19-0	0.006	1	1	270.086	11.111	0.4	0.319	0.000	D	F	2408.2	272.600	0.209	-0.006	1441.634	1303.572	0.021	-	0.145	1.286	-	-	-	22	4.006	53.866	-	PAVEMENT_GENERAL	Urban	F	1011101000011101	0000000000010000	-	car	807.695	66.615	0.000	0.000	180.000	696.000	987.000	-0.000	Terminate	
"Student15Mode3"	"Tanvi_6"	"Dec 01, 2016 09:37:34 AM"	Unknown	69.98473	11/01/0116 09:38.47	00004199	14.777	Inter615t19-0	0.583	1	1	270.061	11.111	-5.7	0.367	0.000	D	F	2593.0	272.139	0.209	0.030	1427.540	1304.172	0.020	-	-0.240	1.347	-	-	-	22	4.044	59.758	-	PAVEMENT_GENERAL	Urban	F	1011101000011101	0000000000010000	-	car	794.979	59.642	0.000	0.000	180.000	696.000	987.000	-0.000	Terminate	
"Student15Mode3"	"Tanvi_6"	"Dec 01, 2016 09:37:34 AM"	Unknown	70.98476	11/01/0116 09:38.48	00004259	16.129	Inter615t1-2	0.975	1	2	270.000	11.111	-3.1	0.429	0.000	D	F	2795.5	270.824	0.207	0.025	1412.099	1304.575	0.020	-	-0.236	1.387	-	-	-	22	3.995	64.437	-	PAVEMENT_GENERAL	Urban	F	1011101000011101	0000000000010000	-	car	780.999	53.316	0.000	0.000	180.000	696.000	987.000	-0.000	Terminate	
"Student15Mode3"	"Tanvi_6"	"Dec 01, 2016 09:37:34 AM"	Unknown	71.98477	11/01/0116 09:38.49	00004319	17.491	Inter616t1-2	1.131	1	2	270.000	11.111	-6.5	0.422	0.000	D	F	2991.4	270.089	0.205	0.049	1395.285	1304.738	0.020	-	-0.356	1.332	-	-	-	22	3.873	67.736	-	PAVEMENT_GENERAL	Urban	F	1011101000011101	0000000000010000	-	car	765.727	48.119	0.000	0.000	180.000	696.000	987.000	-0.000	Terminate	
"Student15Mode3"	"Tanvi_6"	"Dec 01, 2016 09:37:34 AM"	Unknown	72.98479	11/01/0116 09:38.50	00004379	18.796	Inter616t1-2	1.011	1	2	270.000	11.111	-2.2	0.416	0.000	D	F	3175.6	269.202	0.202	0.021	1377.138	1304.618	0.021	-	-0.165	1.282	-	-	-	22	3.709	69.708	-	PAVEMENT_GENERAL	Urban	F	1011101000011101	0000000000010000	-	car	749.192	43.701	0.000	0.000	180.000	696.000	987.000	-0.000	Terminate	
"Student15Mode3"	"Tanvi_6"	"Dec 01, 2016 09:37:34 AM"	Unknown	73.98481	11/01/0116 09:38.51	00004439	20.063	Inter616t1-2	0.705	1	2	270.000	11.111	5.2	0.427	0.000	D	F	3355.1	269.199	0.200	-0.033	1357.709	1304.311	0.021	-	0.255	1.263	-	-	-	22	3.509	70.399	-	PAVEMENT_GENERAL	Urban	F	1011101000011101	0000000000010000	-	car	731.497	40.169	0.000	0.000	180.000	696.000	987.000	-0.000	Terminate	
"Student15Mode3"	"Tanvi_6"	"Dec 01, 2016 09:37:34 AM"	Unknown	74.98483	11/01/0116 09:38.52	00004499	21.293	Inter616t1-2	0.553	1	2	270.000	11.111	2.8	0.416	0.000	D	F	3518.1	269.987	0.197	-0.028	1337.027	1304.160	0.021	-	0.213	1.203	-	-	-	22	3.270	69.630	41.323	PAVEMENT_GENERAL	Urban	F	1011101000011101	0000000000010000	-	car	712.837	37.347	0.000	0.000	180.000	696.000	987.000	-0.000	Terminate	
"Student15Mode3"	"Tanvi_6"	"Dec 01, 2016 09:37:34 AM"	Unknown	75.98486	11/01/0116 09:38.53	00004559	22.343	Inter616t1-2	0.610	1	2	270.000	11.111	3.3	0.418	0.000	D	F	2612.2	270.453	0.187	-0.029	1315.156	1304.217	0.023	-	0.221	0.720	-	-	-	22	2.995	66.908	18.359	PAVEMENT_GENERAL	Urban	F	1011101000011101	0000000000010000	-	car	693.327	35.009	0.000	0.000	180.000	696.000	987.000	-0.000	Terminate	
"Student15Mode3"	"Tanvi_6"	"Dec 01, 2016 09:37:34 AM"	Unknown	76.98487	11/01/0116 09:38.54	00004619	23.007	Inter616t1-2	0.797	1	2	270.000	11.111	-3.8	0.416	0.000	D	F	2601.7	270.102	0.188	0.048	1292.476	1304.403	0.024	-	-0.355	0.643	-	-	-	22	2.719	62.547	12.265	PAVEMENT_GENERAL	Urban	F	1011101000011101	0000000000010000	-	car	673.310	33.183	0.000	0.000	180.000	696.000	987.000	-0.000	Terminate	
"Student15Mode3"	"Tanvi_6"	"Dec 01, 2016 09:37:34 AM"	Unknown	77.98489	11/01/0116 09:38.55	00004679	23.645	Inter616t1-2	0.753	1	2	270.000	11.111	-2.3	0.432	0.000	D	F	2654.7	269.568	0.187	0.024	1269.150	1304.360	0.024	-	-0.184	0.639	-	-	-	22	2.402	56.805	8.858	PAVEMENT_GENERAL	Urban	F	1011101000011101	0000000000010000	-	car	652.789	31.428	0.000	0.000	180.000	696.000	987.000	-0.000	Terminate	
"Student15Mode3"	"Tanvi_6"	"Dec 01, 2016 09:37:34 AM"	Unknown	78.98492	11/01/0116 09:38.56	00004739	24.279	Inter616t1-2	0.506	1	2	270.000	11.111	1.7	0.430	0.000	D	F	2708.7	269.137	0.185	0.007	1245.188	1304.113	0.024	-	-0.060	0.628	-	-	-	22	2.051	49.792	6.547	PAVEMENT_GENERAL	Urban	F	1011101000011101	0000000000010000	-	car	631.808	29.794	0.000	0.000	180.000	696.000	987.000	-0.000	Terminate	
"Student15Mode3"	"Tanvi_6"	"Dec 01, 2016 09:37:34 AM"	Unknown	79.98493	11/01/0116 09:38.57	00004799	24.031	Inter616t1-2	0.269	1	2	270.000	11.111	2.6	0.000	0.000	D	F	1672.4	270.074	0.171	-0.055	1220.896	1303.876	0.030	-	0.431	-0.667	-	-	-	22	1.743	41.876	5.290	PAVEMENT_GENERAL	Urban	F	1011101000011101	0000000000010000	-	car	610.769	29.711	0.000	0.000	180.000	696.000	987.000	-0.000	Terminate	
"Student15Mode3"	"Tanvi_6"	"Dec 01, 2016 09:37:34 AM"	Unknown	80.98495	11/01/0116 09:38.58	00004859	23.366	Inter617t1-2	0.370	1	2	270.000	11.111	-3.5	0.000	0.000	D	F	1593.6	270.358	0.174	0.025	1197.199	1303.977	0.030	-	-0.155	-0.658	-	-	-	22	1.457	34.048	4.393	PAVEMENT_GENERAL	Urban	F	1011101000011101	0000000000010000	-	car	590.662	30.030	0.000	0.000	180.000	696.000	987.000	-0.000	Terminate	
"Student15Mode3"	"Tanvi_6"	"Dec 01, 2016 09:37:34 AM"	Unknown	81.98497	11/01/0116 09:38.59	00004919	22.711	Inter617t1-2	0.341	1	2	270.000	11.111	3.6	0.000	0.000	D	F	1548.3	269.618	0.175	-0.018	1174.162	1303.948	0.030	-	0.104	-0.648	-	-	-	22	1.162	26.385	3.493	PAVEMENT_GENERAL	Urban	F	1011101000011101	0000000000010000	-	car	571.308	30.048	0.000	0.000	180.000	696.000	987.000	-0.000	Terminate	
"Student15Mode3"	"Tanvi_6"	"Dec 01, 2016 09:37:34 AM"	Unknown	82.98499	11/01/0116 09:39.00	00004979	20.111	Inter617t1-2	0.331	1	2	270.000	11.111	1.2	0.000	0.254	D	F	1323.5	270.464	0.127	-0.026	1152.416	1303.938	0.037	-	0.211	-3.741	-	-	-	22	0.977	19.649	3.746	PAVEMENT_GENERAL	Urban	F	1011101000011101	0000000000010000	-	car	553.307	33.686	0.000	0.000	180.000	696.000	987.000	-0.000	Terminate	
"Student15Mode3"	"Tanvi_6"	"Dec 01, 2016 09:37:34 AM"	Unknown	83.98502	11/01/0116 09:39.01	00005039	18.079	Inter617t1-2	0.492	1	2	270.000	11.111	-2.3	0.000	0.000	D	F	1232.6	270.517	0.188	0.017	1133.722	1304.099	0.029	-	-0.104	-0.570	-	-	-	22	0.869	15.707	4.535	PAVEMENT_GENERAL	Urban	F	1011101000011101	0000000000010000	-	car	538.152	37.001	0.000	0.000	180.000	696.000	987.000	-0.000	Terminate	
"Student15Mode3"	"Tanvi_6"	"Dec 01, 2016 09:37:34 AM"	Unknown	84.98503	11/01/0116 09:39.02	00005099	17.506	Inter617t1-2	0.553	1	2	270.000	11.111	-2.8	0.000	0.036	D	F	1191.4	269.700	0.185	0.035	1115.930	1304.159	0.029	-	-0.265	-0.615	-	-	-	22	0.711	12.445	4.071	PAVEMENT_GENERAL	Urban	F	1011101000011101	0000000000010000	-	car	523.883	37.355	0.000	0.000	180.000	696.000	987.000	-0.000	Terminate	
"Student15Mode3"	"Tanvi_6"	"Dec 01, 2016 09:37:34 AM"	Unknown	85.98505	11/01/0116 09:39.03	00005159	14.466	Inter617t1-2	0.422	1	2	270.000	11.111	-0.9	0.000	0.328	D	F	941.9	269.360	0.108	0.007	1099.667	1304.029	0.038	-	-0.057	-4.412	-	-	-	22	0.728	10.528	57.333	PAVEMENT_GENERAL	Urban	F	1011101000011101	0000000000010000	-	car	510.919	44.522	0.000	0.000	180.000	696.000	987.000	-0.000	Terminate	
"Student15Mode3"	"Tanvi_6"	"Dec 01, 2016 09:37:34 AM"	Unknown	86.98507	11/01/0116 09:39.04	00005219	12.339	Inter617t1-2	0.263	1	2	270.000	11.111	0.5	0.000	0.000	D	F	1195.5	269.225	0.194	-0.004	1086.711	1303.870	0.029	-	0.007	-0.534	-	-	-	22	0.953	11.761	-	PAVEMENT_GENERAL	Urban	F	1011101000011101	0000000000010000	-	car	500.693	51.681	0.000	0.000	180.000	696.000	987.000	-0.000	Terminate	
"Student15Mode3"	"Tanvi_6"	"Dec 01, 2016 09:37:34 AM"	Unknown	87.98509	11/01/0116 09:39.05	00005279	11.871	Inter617t1-2	0.140	1	2	270.000	11.111	3.6	0.104	0.000	D	F	1465.7	269.710	0.200	-0.019	1074.630	1303.746	0.028	-	0.142	-0.110	-	-	-	22	1.157	13.740	-	PAVEMENT_GENERAL	Urban	F	1011101000011101	0000000000010000	-	car	491.289	53.729	0.000	0.000	180.000	696.000	987.000	-0.000	Terminate	
"Student15Mode3"	"Tanvi_6"	"Dec 01, 2016 09:37:34 AM"	Unknown	88.98512	11/01/0116 09:39.06	00005339	11.933	Inter617t1-2	0.145	1	2	270.000	11.111	2.0	0.106	0.000	D	F	1480.1	270.268	0.201	-0.011	1062.737	1303.751	0.026	-	0.083	0.139	-	-	-	22	1.324	15.796	-	PAVEMENT_GENERAL	Urban	F	1011101000011101	0000000000010000	-	car	482.230	53.616	0.000	0.000	180.000	696.000	987.000	-0.000	Terminate	
"Student15Mode3"	"Tanvi_6"	"Dec 01, 2016 09:37:34 AM"	Unknown	89.98513	11/01/0116 09:39.07	00005399	11.983	Inter617t1-2	0.219	1	2	270.000	11.111	1.2	0.069	0.000	D	F	1356.9	270.385	0.200	-0.003	1050.745	1303.826	0.027	-	0.028	-0.087	-	-	-	22	1.486	17.808	-	PAVEMENT_GENERAL	Urban	F	1011101000011101	0000000000010000	-	car	473.269	53.274	0.000	0.000	180.000	696.000	987.000	-0.000	Terminate	
"Student15Mode3"	"Tanvi_6"	"Dec 01, 2016 09:37:34 AM"	Unknown	90.98515	11/01/0116 09:39.08	00005459	12.093	Inter617t1-2	0.337	1	2	270.000	11.111	1.2	0.127	0.000	D	F	1577.9	270.762	0.204	-0.010	1038.760	1303.944	0.025	-	0.066	0.342	-	-	-	-	-	-	-	PAVEMENT_GENERAL	Urban	F	1011101000011101	0000000000010000	-	car	464.479	52.970	0.000	0.000	180.000	696.000	987.000	-0.000	Terminate	
"Student15Mode3"	"Tanvi_6"	"Dec 01, 2016 09:37:34 AM"	Unknown	91.98518	11/01/0116 09:39.09	00005519	11.883	Inter617t1-2	0.518	1	2	270.000	11.111	-0.1	0.000	0.167	D	F	1142.1	270.937	0.176	-0.000	1026.643	1304.125	0.029	-	0.009	-1.667	-	-	-	-	-	-	-	PAVEMENT_GENERAL	Urban	F	1011101000011101	0000000000010000	-	car	455.782	54.002	0.000	0.000	180.000	696.000	987.000	-0.000	Terminate	
"Student15Mode3"	"Tanvi_6"	"Dec 01, 2016 09:37:34 AM"	Unknown	92.98519	11/01/0116 09:39.10	00005579	9.821	Inter617t1-2	0.688	1	2	270.000	11.111	-1.1	0.000	0.000	D	F	966.3	270.848	0.227	0.006	1015.901	1304.295	0.031	-	-0.039	-0.504	-	-	-	-	-	-	-	PAVEMENT_GENERAL	Urban	F	1011101000011101	0000000000010000	-	car	448.209	65.246	0.000	0.000	180.000	696.000	987.000	-0.000	Terminate	
"Student15Mode3"	"Tanvi_6"	"Dec 01, 2016 09:37:34 AM"	Unknown	93.98521	11/01/0116 09:39.11	00005639	8.338	Inter617t1-2	0.808	1	2	270.000	11.111	-0.5	0.000	0.000	D	F	820.5	270.694	0.213	0.002	1006.793	1304.415	0.030	-	-0.016	-0.489	-	-	-	-	-	-	-	PAVEMENT_GENERAL	Urban	F	1011101000011101	0000000000010000	-	car	441.875	76.703	0.000	0.000	180.000	696.000	987.000	-0.000	Terminate	
"Student15Mode3"	"Tanvi_6"	"Dec 01, 2016 09:37:34 AM"	Unknown	94.98523	11/01/0116 09:39.12	00005699	7.864	Inter618t1-0	0.209	1	2	270.000	24.444	-1.1	0.002	0.000	D	F	773.6	270.625	0.196	0.002	998.693	1304.509	0.028	-	-0.022	-0.466	-	-	-	-	-	-	-	PAVEMENT_GENERAL	Urban	F	1011101000011101	0000000000010000	-	car	436.315	81.342	0.000	0.000	180.000	696.000	987.000	-0.000	Terminate	
"Student15Mode3"	"Tanvi_6"	"Dec 01, 2016 09:37:34 AM"	Unknown	95.98525	11/01/0116 09:39.13	00005759	7.732	Inter618t1-0	0.287	1	2	269.984	24.444	-0.3	0.095	0.000	D	F	1395.9	270.572	0.282	-0.060	990.966	1304.587	0.030	-	-0.008	0.632	-	-	-	32	2.120	16.391	-	FREEWAY_SMOOTH	Urban	F	1011101000011101	0000000000010000	-	car	431.076	82.821	0.000	0.000	180.000	696.000	987.000	-0.000	Terminate	
"Student15Mode3"	"Tanvi_6"	"Dec 01, 2016 09:37:34 AM"	Unknown	96.98528	11/01/0116 09:39.14	00005819	8.324	Inter618t1-0	0.360	1	2	269.846	24.444	-3.0	0.208	0.000	D	F	1699.9	270.326	0.280	-0.164	982.989	1304.650	0.036	-	-0.072	1.114	-	-	-	32	2.379	19.806	-	FREEWAY_SMOOTH	Urban	F	1011101000011101	0000000000010000	-	car	425.734	76.775	0.000	0.000	180.000	696.000	987.000	-0.000	Terminate	
"Student15Mode3"	"Tanvi_6"	"Dec 01, 2016 09:37:34 AM"	Unknown	97.98529	11/01/0116 09:39.15	00005879	9.683	Inter618t1-0	0.412	1	2	269.550	24.444	-1.7	0.270	0.000	D	F	1988.4	269.920	0.281	-0.290	974.007	1304.657	0.043	-	-0.061	1.442	-	-	-	32	2.499	24.198	-	FREEWAY_SMOOTH	Urban	F	1011101000011101	0000000000010000	-	car	419.771	65.721	0.000	0.000	180.000	696.000	987.000	-0.000	Terminate	
"Student15Mode3"	"Tanvi_6"	"Dec 01, 2016 09:37:34 AM"	Unknown	98.98531	11/01/0116 09:39.16	00005939	11.123	Inter618t1-0	0.472	1	2	268.993	24.444	-2.5	0.325	0.000	D	F	2175.6	269.433	0.278	-0.428	963.611	1304.591	0.055	-	-0.110	1.490	-	-	-	32	2.624	29.193	-	FREEWAY_SMOOTH	Urban	F	1011101000011101	0000000000010000	-	car	412.947	56.949	0.000	0.000	180.000	696.000	987.000	-0.000	Terminate	
"Student15Mode3"	"Tanvi_6"	"Dec 01, 2016 09:37:34 AM"	Unknown	99.98534	11/01/0116 09:39.17	00005999	12.575	Inter618t1-0	0.566	1	2	268.107	24.444	-4.7	0.335	0.000	D	F	2311.8	268.733	0.282	-0.580	951.754	1304.394	0.070	-	-0.211	1.391	-	-	-	32	2.746	34.531	-	FREEWAY_SMOOTH	Urban	F	1011101000011101	0000000000010000	-	car	405.254	50.003	0.000	0.000	180.000	696.000	987.000	-0.000	Terminate	
"Student15Mode3"	"Tanvi_6"	"Dec 01, 2016 09:37:34 AM"	Unknown	100.98535	11/01/0116 09:39.18	00006059	13.941	Inter618t1-0	0.694	1	2	266.798	24.444	-6.6	0.342	0.000	D	F	2485.0	267.461	0.286	-0.746	938.500	1303.946	0.087	-	-0.351	1.349	-	-	-	32	2.866	39.955	-	FREEWAY_SMOOTH	Urban	F	1011101000011101	0000000000010000	-	car	396.716	44.308	0.000	0.000	180.000	696.000	987.000	-0.000	Terminate	
"Student15Mode3"	"Tanvi_6"	"Dec 01, 2016 09:37:34 AM"	Unknown	101.98537	11/01/0116 09:39.19	00006119	15.310	Inter618t1-0	0.847	1	2	264.956	24.444	-9.1	0.393	0.000	D	F	2666.8	265.636	0.288	-0.925	923.903	1303.065	0.107	-	-0.540	1.369	-	-	-	32	2.919	44.689	-	FREEWAY_SMOOTH	Urban	F	1011101000011101	0000000000010000	-	car	387.303	39.228	0.000	0.000	180.000	696.000	987.000	-0.000	Terminate	
"Student15Mode3"	"Tanvi_6"	"Dec 01, 2016 09:37:34 AM"	Unknown	102.98539	11/01/0116 09:39.20	00006179	16.659	Inter618t1-0	1.052	1	2	262.477	24.444	-10.4	0.392	0.000	D	F	2865.6	263.371	0.296	-1.128	907.989	1301.542	0.131	-	-0.693	1.331	-	-	-	31	2.365	39.394	-	FREEWAY_SMOOTH	Urban	F	1011101000011101	0000000000010000	-	car	376.951	34.765	0.000	0.000	180.000	696.000	987.000	-0.000	Terminate	
"Student15Mode3"	"Tanvi_6"	"Dec 01, 2016 09:37:34 AM"	Unknown	103.98541	11/01/0116 09:39.21	00006239	17.965	Inter618t1-0	1.337	1	2	259.235	24.444	-23.6	0.395	0.000	D	F	3047.5	259.890	0.297	-1.256	890.847	1299.102	0.160	-	-1.475	1.287	-	-	-	31	2.213	39.764	475.545	FREEWAY_SMOOTH	Urban	F	1011101000011101	0000000000010000	-	car	365.572	30.361	0.000	0.000	180.000	696.000	987.000	-0.000	Terminate	
"Student15Mode3"	"Tanvi_6"	"Dec 01, 2016 09:37:34 AM"	Unknown	104.98544	11/01/0116 09:39.22	00006299	19.209	Inter618t1-0	1.325	1	2	255.143	24.444	-23.3	0.393	0.000	D	F	3218.9	254.105	0.237	-1.475	872.720	1295.007	0.185	-	-1.848	1.242	-	-	-	31	2.005	38.513	28.993	FREEWAY_SMOOTH	Urban	F	1011101000011101	0000000000010000	-	car	352.744	25.640	0.000	0.000	180.000	696.000	987.000	-0.000	Terminate	
"Student15Mode3"	"Tanvi_6"	"Dec 01, 2016 09:37:34 AM"	Unknown	105.98545	11/01/0116 09:39.23	00006359	20.409	Inter618t1-0	0.988	1	2	250.314	24.444	-21.6	0.393	0.000	D	F	3383.0	248.968	0.150	-1.525	853.899	1288.833	0.180	-	-1.776	1.191	-	-	-	31	2.018	41.182	16.291	FREEWAY_SMOOTH	Urban	F	1111101000011101	0000000000010000	-	car	338.280	22.081	0.000	0.000	180.000	696.000	987.000	-0.000	Terminate	
"Student15Mode3"	"Tanvi_6"	"Dec 01, 2016 09:37:34 AM"	Unknown	106.98547	11/01/0116 09:39.24	00006419	21.588	Inter618t1-0	0.615	1	2	245.201	24.444	-19.6	0.393	0.000	D	F	2965.0	244.003	0.157	-1.530	834.605	1280.573	0.169	-	-1.756	1.166	-	-	-	32	2.432	52.499	35.670	FREEWAY_SMOOTH	Urban	F	1011101000011101	0000000000010000	-	car	322.289	19.137	0.000	0.000	180.000	696.000	987.000	-0.000	Terminate	
"Student15Mode3"	"Tanvi_6"	"Dec 01, 2016 09:37:34 AM"	Unknown	107.98550	11/01/0116 09:39.25	00006479	22.320	Inter618t1-0	0.377	1	2	239.827	24.444	-21.6	0.395	0.000	D	F	2543.8	238.912	0.151	-1.485	815.199	1270.248	0.165	-	-2.081	0.641	-	-	-	32	2.275	50.781	23.043	FREEWAY_SMOOTH	Urban	F	1011101000011101	0000000000010000	-	car	304.948	16.907	0.000	0.000	180.000	696.000	987.000	-0.000	Terminate	
"Student15Mode3"	"Tanvi_6"	"Dec 01, 2016 09:37:34 AM"	Unknown	108.98551	11/01/0116 09:39.26	00006539	22.932	Inter618t1-0	0.312	1	2	234.314	24.444	-20.9	0.399	0.000	D	F	2584.9	234.271	0.181	-1.512	796.228	1257.924	0.163	-	-1.885	0.621	-	-	-	32	2.114	48.485	17.219	FREEWAY_SMOOTH	Urban	F	1011101000011101	0000000000010000	-	car	286.510	15.065	0.000	0.000	180.000	696.000	987.000	-0.000	Terminate	
"Student15Mode3"	"Tanvi_6"	"Dec 01, 2016 09:37:34 AM"	Unknown	109.98553	11/01/0116 09:39.27	00006599	23.510	Inter618t1-0	0.463	1	2	228.651	24.444	-26.2	0.399	0.000	D	F	2628.0	228.096	0.158	-1.408	777.951	1243.608	0.168	-	-2.669	0.603	-	-	-	32	1.927	45.300	13.348	FREEWAY_SMOOTH	Urban	F	1011101000011101	0000000000010000	-	car	267.017	13.166	0.000	0.000	180.000	696.000	987.000	-0.000	Terminate	
"Student15Mode3"	"Tanvi_6"	"Dec 01, 2016 09:37:34 AM"	Unknown	110.98555	11/01/0116 09:39.28	00006659	24.061	Inter618t1-0	0.341	1	2	222.821	24.444	-27.1	0.400	0.000	D	F	2673.6	221.208	0.121	-1.374	760.983	1226.950	0.165	-	-2.920	0.596	-	-	-	32	1.735	41.747	10.581	FREEWAY_SMOOTH	Urban	F	1111101000011101	0000000000010000	-	car	246.234	11.391	0.000	0.000	180.000	696.000	987.000	-0.000	Terminate	
"Student15Mode3"	"Tanvi_6"	"Dec 01, 2016 09:37:34 AM"	Unknown	111.98557	11/01/0116 09:39.29	00006719	24.621	Inter618t1-0	-0.042	1	2	216.890	24.444	-22.1	0.399	0.000	D	F	2727.6	215.616	0.134	-1.461	745.656	1208.050	0.153	R	-2.281	0.591	-	-	-	32	1.535	37.783	8.387	FREEWAY_SMOOTH	Urban	F	1011101001011101	0000000000010000	-	car	224.200	9.889	0.000	0.000	180.000	696.000	987.000	-0.000	Terminate	
"Student15Mode3"	"Tanvi_6"	"Dec 01, 2016 09:37:34 AM"	Unknown	112.98560	11/01/0116 09:39.30	00006779	25.167	Inter618t1-0	-0.249	1	2	210.801	24.444	-19.0	0.400	0.000	D	F	2779.7	209.852	0.141	-1.461	731.940	1187.283	0.147	R	-2.330	0.580	-	-	-	32	1.317	33.148	6.563	FREEWAY_SMOOTH	Urban	F	1011101001011101	0000000000010000	-	car	201.123	8.487	0.000	0.000	180.000	696.000	987.000	-0.000	Terminate	
"Student15Mode3"	"Tanvi_6"	"Dec 01, 2016 09:37:34 AM"	Unknown	113.98561	11/01/0116 09:39.31	00006839	25.704	Inter618t1-0	-0.119	1	2	204.571	24.444	-23.8	0.397	0.000	D	F	2829.4	204.622	0.173	-1.425	719.978	1164.838	0.151	R	-2.548	0.562	-	-	-	32	1.088	27.969	5.005	FREEWAY_SMOOTH	Urban	F	1011101001011101	0000000000010000	-	car	177.087	7.202	0.000	0.000	180.000	696.000	987.000	-0.000	Terminate	
"Student15Mode3"	"Tanvi_6"	"Dec 01, 2016 09:37:34 AM"	Unknown	114.98563	11/01/0116 09:39.32	00006899	26.204	Inter618t1-0	0.288	1	2	198.204	24.444	-24.7	0.399	0.000	D	F	2875.3	198.345	0.170	-1.389	710.101	1140.842	0.163	R	-2.836	0.543	-	-	-	32	0.839	21.975	3.610	FREEWAY_SMOOTH	Urban	F	1011101001011101	0000000000010000	-	car	152.128	5.961	0.000	0.000	180.000	696.000	987.000	-0.000	Terminate	
"Student15Mode3"	"Tanvi_6"	"Dec 01, 2016 09:37:34 AM"	Unknown	115.98566	11/01/0116 09:39.33	00006959	26.696	Inter618t1-0	0.844	1	2	191.999	24.444	-15.1	0.399	0.000	D	F	2923.2	192.992	0.131	-1.296	702.671	1115.465	0.162	R	-2.026	0.528	-	-	-	32	0.601	16.045	2.438	FREEWAY_SMOOTH	Urban	F	1011101001011101	0000000000010000	-	car	126.279	4.804	0.000	0.000	180.000	696.000	987.000	-0.000	Terminate	
"Student15Mode3"	"Tanvi_6"	"Dec 01, 2016 09:37:34 AM"	Unknown	116.98567	11/01/0116 09:39.34	00007019	27.190	Inter618t1-1	-1.689	2	2	186.915	24.444	-8.3	0.395	0.000	D	F	2969.5	189.003	0.129	-0.955	697.221	1089.080	0.151	R	-1.691	0.505	-	-	-	32	0.347	9.447	1.335	FREEWAY_SMOOTH	Urban	F	1011101001011101	0000000000010000	-	car	99.728	3.707	0.000	0.000	180.000	696.000	987.000	-0.000	Terminate	
"Student15Mode3"	"Tanvi_6"	"Dec 01, 2016 09:37:34 AM"	Unknown	117.98569	11/01/0116 09:39.35	00007079	26.263	Inter618t1-1	0.504	2	2	183.221	24.444	-47.0	0.000	0.170	D	F	1777.2	188.269	0.060	-0.369	692.693	1062.467	0.150	-	-2.945	-2.645	-	-	-	32	0.106	2.785	0.453	FREEWAY_SMOOTH	Urban	F	1011101000011101	0000000000010000	-	car	73.180	2.836	0.000	0.000	180.000	696.000	987.000	-0.000	Terminate	
"Student15Mode3"	"Tanvi_6"	"Dec 01, 2016 09:37:34 AM"	Unknown	118.98571	11/01/0116 09:39.36	00007139	23.883	Inter618t1-1	1.302	2	2	181.051	24.444	-26.3	0.000	0.275	D	F	1574.1	175.426	-0.185	0.154	691.003	1037.705	0.111	-	-4.448	-3.059	32	333.9	4.364	32	-0.072	-1.718	-0.456	FREEWAY_GENERAL	Urban	F	1011101000011101	0000000000010000	-	car	48.591	2.035	0.000	0.000	180.000	696.000	987.000	-0.000	Terminate	
"Student15Mode3"	"Tanvi_6"	"Dec 01, 2016 09:37:34 AM"	Unknown	119.98573	11/01/0116 09:39.37	00007199	18.767	Inter618t1-1	-0.951	2	2	180.124	24.444	-27.8	0.000	0.436	D	F	1204.5	170.741	-0.177	0.180	693.060	1016.391	0.061	-	-1.866	-5.614	32	41.9	-3.098	32	-0.161	-3.022	-	FREEWAY_SMOOTH	Urban	F	1011101000011101	0000000000010000	-	car	27.436	1.550	1.033	2.000	179.096	696.005	986.742	-0.000	Terminate	
"Student15Mode3"	"Tanvi_6"	"Dec 01, 2016 09:37:34 AM"	Unknown	120.98576	11/01/0116 09:39.38	00007259	11.097	Inter618t1-0	-0.090	1	2	180.000	24.444	28.9	0.000	0.884	D	F	896.1	168.891	-0.365	-0.085	695.790	1001.318	0.045	-	0.373	-9.228	-	-	-	car	0.847	9.404	1.166	FREEWAY_SMOOTH	Urban	F	1011101000011101	0000000000010000	-	car	14.233	1.802	3.033	2.000	176.540	696.129	984.729	-0.000	Terminate	
"Student15Mode3"	"Tanvi_6"	"Dec 01, 2016 09:37:34 AM"	Unknown	121.98577	11/01/0116 09:39.39	00007319	3.502	Inter686t1-0	-0.434	1	1	180.000	11.111	55.7	0.000	0.000	D	F	477.5	173.206	0.232	-0.030	696.830	994.715	0.038	-	0.299	-0.400	-	-	-	car	2.650	9.280	-	PAVEMENT_GENERAL	Urban	F	1011101000011101	0000000000010000	-	car	11.649	-7.469	5.033	2.000	177.773	696.311	980.716	-0.000	Terminate	
"Student15Mode3"	"Tanvi_6"	"Dec 01, 2016 09:37:34 AM"	Unknown	122.98579	11/01/0116 09:39.40	00007379	4.505	Inter686t1-0	-0.641	1	1	180.000	11.111	43.6	0.231	0.000	D	F	1834.7	177.011	0.231	-0.040	697.037	991.090	0.015	-	0.339	2.999	-	-	-	car	2.591	11.671	-	PAVEMENT_GENERAL	Urban	F	1011101000011101	0000000000010000	-	car	14.043	-5.528	7.033	2.000	179.664	696.395	974.700	-0.000	Terminate	
"Student15Mode3"	"Tanvi_6"	"Dec 01, 2016 09:37:34 AM"	Unknown	123.98581	11/01/0116 09:39.41	00007439	7.352	Inter686t1-0	-0.634	1	1	180.000	11.111	10.8	0.376	0.000	D	F	2442.5	180.798	0.227	-0.013	697.031	985.158	0.013	-	0.155	2.801	-	-	-	car	1.871	13.757	-	PAVEMENT_GENERAL	Urban	F	1011101000011101	0000000000010000	-	car	16.127	-9.612	9.033	2.000	180.025	696.398	966.683	-0.000	Terminate	
"Student15Mode3"	"Tanvi_6"	"Dec 01, 2016 09:37:34 AM"	Unknown	124.98583	11/01/0116 09:39.42	00007499	10.155	Inter686t1-0	-0.438	1	1	180.000	11.111	5.4	0.444	0.000	D	F	3181.5	181.489	0.228	-0.023	696.834	976.407	0.013	-	0.161	2.790	-	-	-	car	1.479	15.022	-	PAVEMENT_GENERAL	Urban	F	1011101000011101	0000000000010000	-	car	17.387	-19.844	11.034	2.000	180.003	696.397	956.666	-0.000	Terminate	
"Student15Mode3"	"Tanvi_6"	"Dec 01, 2016 09:37:34 AM"	Unknown	125.98586	11/01/0116 09:39.43	00007559	12.290	Inter686t1-0	-0.143	1	1	180.000	11.111	-6.1	0.302	0.000	D	F	2310.2	181.027	0.204	0.042	696.539	965.005	0.020	-	-0.273	1.335	-	-	-	car	1.272	15.637	-	PAVEMENT_GENERAL	Urban	F	1011101000011101	0000000000010000	-	car	17.997	-24.192	13.034	2.000	180.003	696.397	944.648	-0.000	Terminate	
"Student15Mode3"	"Tanvi_6"	"Dec 01, 2016 09:37:34 AM"	Unknown	126.98587	11/01/0116 09:39.44	00007619	13.629	Inter686t1-0	0.044	1	1	180.000	11.111	0.0	0.319	0.000	D	F	2434.8	180.867	0.209	-0.008	696.352	952.042	0.020	-	0.032	1.284	-	-	-	car	1.225	16.691	-	PAVEMENT_GENERAL	Urban	F	1011101000011101	0000000000010000	-	car	19.051	-13.541	15.034	2.000	180.003	696.397	930.631	-0.000	Terminate	
"Student15Mode3"	"Tanvi_6"	"Dec 01, 2016 09:37:34 AM"	Unknown	127.98589	11/01/0116 09:39.45	00007679	14.926	Inter686t1-0	0.181	1	1	180.000	11.111	-6.3	0.332	0.000	D	F	2598.7	180.003	0.208	0.042	696.215	937.764	0.021	-	-0.320	1.298	-	-	-	car	1.235	18.431	-	PAVEMENT_GENERAL	Urban	F	1011101000011101	0000000000010000	-	car	20.791	-9.867	17.034	2.000	180.002	696.397	914.614	-0.000	Terminate	
"Student15Mode3"	"Tanvi_6"	"Dec 01, 2016 09:37:34 AM"	Unknown	128.98592	11/01/0116 09:39.46	00007739	16.199	Inter686t1-0	0.076	1	1	180.000	11.111	0.0	0.330	0.000	D	F	2787.9	179.392	0.206	0.000	696.320	922.199	0.021	-	-0.024	1.257	-	-	-	car	1.283	20.786	-	PAVEMENT_GENERAL	Urban	F	1011101000011101	0000000000010000	-	car	23.146	-9.703	18.584	1.000	180.002	696.397	896.694	-0.000	Terminate	
"Student15Mode3"	"Tanvi_6"	"Dec 01, 2016 09:37:34 AM"	Unknown	129.98593	11/01/0116 09:39.47	00007799	17.443	Inter686t1-0	-0.092	1	1	180.000	11.111	-0.0	0.349	0.000	D	F	2970.3	179.532	0.204	-0.008	696.488	905.377	0.021	-	0.050	1.240	-	-	-	car	1.318	22.987	-	PAVEMENT_GENERAL	Urban	F	1011101000011101	0000000000010000	-	car	25.347	-13.280	19.350	0.500	180.002	696.397	877.671	-0.000	Terminate	
"Student15Mode3"	"Tanvi_6"	"Dec 01, 2016 09:37:34 AM"	Unknown	130.98595	11/01/0116 09:39.48	00007859	18.662	Inter686t1-0	-0.234	1	1	180.000	11.111	-0.2	0.349	0.000	D	F	3139.2	179.564	0.201	0.002	696.630	887.321	0.021	-	-0.005	1.192	-	-	-	car	1.314	24.528	-	PAVEMENT_GENERAL	Urban	F	1011101000011101	0000000000010000	-	car	26.888	-22.588	19.850	0.500	180.002	696.397	858.074	-0.000	Terminate	
"Student15Mode3"	"Tanvi_6"	"Dec 01, 2016 09:37:34 AM"	Unknown	131.98598	11/01/0116 09:39.49	00007919	19.372	Inter686t1-0	-0.403	1	1	180.000	11.111	1.5	0.000	0.000	D	F	1640.3	179.402	0.168	-0.004	696.799	868.139	0.028	-	0.023	-0.533	-	-	-	car	1.311	25.389	-	PAVEMENT_GENERAL	Urban	F	1011101000011101	0000000000010000	-	car	27.751	-37.094	20.116	0.000	180.002	696.397	838.031	-0.000	Terminate	
"Student15Mode3"	"Tanvi_6"	"Dec 01, 2016 09:37:34 AM"	Unknown	132.98599	11/01/0116 09:39.50	00007979	18.793	Inter686t1-0	-0.551	1	1	180.000	11.111	0.6	0.000	0.000	D	F	1287.2	179.706	0.183	-0.008	696.947	849.054	0.029	-	0.064	-0.584	-	-	-	car	1.406	26.420	-	PAVEMENT_GENERAL	Urban	F	1011101000011101	0000000000010000	-	car	28.784	-21.735	20.116	0.000	180.002	696.397	817.915	-0.000	Terminate	
"Student15Mode3"	"Tanvi_6"	"Dec 01, 2016 09:37:34 AM"	Unknown	133.98601	11/01/0116 09:39.51	00008039	18.517	Inter686t1-0	-0.618	1	1	180.000	11.111	3.9	0.166	0.000	D	F	1702.8	180.006	0.195	-0.033	697.014	830.468	0.026	-	0.205	0.103	-	-	-	car	1.509	27.950	-	PAVEMENT_GENERAL	Urban	F	1011101000011101	0000000000010000	-	car	30.315	-18.959	20.116	0.000	179.994	696.402	797.799	-0.000	Terminate	
"Student15Mode3"	"Tanvi_6"	"Dec 01, 2016 09:37:34 AM"	Unknown	134.98604	11/01/0116 09:39.52	00008099	18.769	Inter686t1-0	-0.579	1	1	180.000	11.111	-5.2	0.219	0.000	D	F	1842.7	179.903	0.192	0.042	696.975	811.848	0.025	-	-0.282	0.339	-	-	-	car	1.569	29.446	-	PAVEMENT_GENERAL	Urban	F	1011101000011101	0000000000010000	-	car	31.810	-23.603	20.116	0.000	179.996	696.403	777.683	-0.000	Terminate	
"Student15Mode3"	"Tanvi_6"	"Dec 01, 2016 09:37:34 AM"	Unknown	135.98605	11/01/0116 09:39.53	00008159	19.107	Inter682t1-1	-0.769	1	1	180.000	11.111	9.9	0.254	0.000	D	F	1882.2	179.196	0.192	-0.059	697.173	792.915	0.025	-	0.359	0.356	-	-	-	car	1.603	30.629	-	PAVEMENT_GENERAL	Urban	F	1011101000011101	0000000000010000	-	car	32.997	-32.448	20.116	0.000	179.996	696.403	757.567	-0.000	Terminate	
"Student15Mode3"	"Tanvi_6"	"Dec 01, 2016 09:37:34 AM"	Unknown	136.98607	11/01/0116 09:39.54	00008219	19.490	Inter682t1-1	-0.756	1	1	180.000	11.111	0.4	0.291	0.000	D	F	1928.1	180.721	0.192	-0.010	697.160	773.622	0.025	-	0.146	0.411	-	-	-	car	1.614	31.452	-	PAVEMENT_GENERAL	Urban	F	1011101000011101	0000000000010000	-	car	33.820	-54.341	20.116	0.000	179.996	696.403	737.451	-0.000	Terminate	
"Student15Mode3"	"Tanvi_6"	"Dec 01, 2016 09:37:34 AM"	Unknown	137.98610	11/01/0116 09:39.55	00008279	19.894	Inter682t1-1	-0.508	1	1	180.000	11.111	-0.2	0.307	0.000	D	F	1951.6	180.827	0.192	-0.005	696.912	753.931	0.025	-	0.039	0.402	-	-	-	car	1.602	31.877	-	PAVEMENT_GENERAL	Urban	F	1011101000011101	0000000000010000	-	car	34.240	-155.675	20.116	0.000	179.996	696.403	717.335	-0.000	Terminate	
"Student15Mode3"	"Tanvi_6"	"Dec 01, 2016 09:37:34 AM"	Unknown	138.98611	11/01/0116 09:39.56	00008339	20.303	Inter682t1-1	-0.242	1	1	180.000	11.111	-1.7	0.305	0.000	D	F	1969.7	180.641	0.191	0.012	696.646	733.833	0.025	-	-0.095	0.400	-	-	-	car	1.571	31.894	170.495	PAVEMENT_GENERAL	Urban	F	1011101000011101	0000000000010000	-	car	34.255	182.871	20.116	0.000	179.996	696.403	697.219	-0.000	Terminate	
"Student15Mode3"	"Tanvi_6"	"Dec 01, 2016 09:37:34 AM"	Unknown	139.98613	11/01/0116 09:39.57	00008399	20.695	Inter682t1-1	-0.066	1	1	180.000	11.111	-2.1	0.303	0.000	D	F	1982.2	180.250	0.190	0.020	696.470	713.332	0.025	-	-0.155	0.382	-	-	-	car	1.523	31.510	54.387	PAVEMENT_GENERAL	Urban	F	1011101000011101	0000000000010000	-	car	33.870	58.462	20.116	0.000	179.996	696.403	677.103	-0.000	Terminate	
"Student15Mode3"	"Tanvi_6"	"Dec 01, 2016 09:37:34 AM"	Unknown	140.98616	11/01/0116 09:39.58	00008459	21.062	Inter682t1-1	0.013	1	1	180.000	11.111	-0.8	0.298	0.000	D	F	1990.7	180.270	0.189	-0.006	696.391	692.451	0.025	-	0.026	0.355	-	-	-	car	1.460	30.745	32.500	PAVEMENT_GENERAL	Urban	F	1011101000011101	0000000000010000	-	car	33.104	35.004	20.116	0.000	179.996	696.403	656.987	-0.000	Terminate	
"Student15Mode3"	"Tanvi_6"	"Dec 01, 2016 09:37:34 AM"	Unknown	141.98618	11/01/0116 09:39.59	00008519	21.404	Inter682t1-1	0.056	1	1	180.000	11.111	-0.4	0.132	0.000	D	F	1757.7	179.880	0.185	0.010	696.348	671.211	0.025	-	-0.101	0.171	-	-	-	car	1.384	29.621	22.991	PAVEMENT_GENERAL	Urban	F	1111101000011101	0000000000010000	-	car	31.980	24.822	20.116	0.000	179.996	696.403	636.871	-0.000	Terminate	
"Student15Mode3"	"Tanvi_6"	"Dec 01, 2016 09:37:34 AM"	Unknown	142.98619	11/01/0116 09:40.00	00008579	20.978	Inter682t1-1	0.038	1	1	180.000	11.111	0.6	0.034	0.000	D	F	1454.8	180.025	0.181	-0.004	696.366	649.996	0.029	-	0.041	-0.470	-	-	-	car	1.360	28.522	33.073	PAVEMENT_GENERAL	Urban	F	1011101000011101	0000000000010000	-	car	30.881	35.810	20.116	0.000	179.998	696.403	616.755	-0.000	Terminate	
"Student15Mode3"	"Tanvi_6"	"Dec 01, 2016 09:37:34 AM"	Unknown	143.98621	11/01/0116 09:40.01	00008639	20.412	Inter682t1-1	0.058	1	1	180.000	11.111	-0.1	0.000	0.000	D	F	1391.7	180.102	0.180	-0.001	696.345	629.286	0.030	-	0.013	-0.610	-	-	-	car	1.368	27.928	94.309	PAVEMENT_GENERAL	Urban	F	1011101000011101	0000000000010000	-	car	30.287	102.312	20.116	0.000	179.804	696.403	596.639	-0.000	Terminate	
"Student15Mode3"	"Tanvi_6"	"Dec 01, 2016 09:37:34 AM"	Unknown	144.98624	11/01/0116 09:40.02	00008699	18.598	Inter682t1-1	0.106	1	1	180.000	11.111	2.4	0.000	0.251	D	F	1224.0	180.363	0.110	-0.025	696.298	609.445	0.035	-	0.175	-3.719	-	-	-	car	1.470	27.332	23.800	PAVEMENT_GENERAL	Urban	F	1011101000011101	0000000000010000	-	car	29.691	25.524	17.449	-4.000	175.759	697.031	577.403	-0.000	Terminate	
"Student15Mode3"	"Tanvi_6"	"Dec 01, 2016 09:37:34 AM"	Unknown	145.98625	11/01/0116 09:40.03	00008759	14.489	Inter688t25-1	0.207	1	1	180.000	11.111	-15.8	0.000	0.397	D	F	934.5	179.976	0.080	0.098	696.190	592.777	0.039	L	-0.527	-5.072	-	-	-	car	1.804	26.143	25.140	PAVEMENT_GENERAL	Urban	F	1011101000111101	0000000000010000	-	car	28.516	28.363	13.449	-4.000	174.686	698.418	561.983	-0.000	Terminate	
"Student15Mode3"	"Tanvi_6"	"Dec 01, 2016 09:37:34 AM"	Unknown	146.98627	11/01/0116 09:40.04	00008819	9.486	Inter688t33-0	-0.028	1	1	175.495	11.111	-35.8	0.000	0.221	D	F	899.1	175.213	0.068	0.181	696.586	580.843	0.039	L	-1.129	-3.870	-	-	-	car	2.863	27.153	-	PAVEMENT_GENERAL	Urban	F	1011101000111101	0000000000010000	-	car	29.497	-10.140	12.399	-1.000	176.439	699.452	549.116	-0.000	Terminate	
"Student15Mode3"	"Tanvi_6"	"Dec 01, 2016 09:37:34 AM"	Unknown	147.98630	11/01/0116 09:40.05	00008879	8.539	Inter688t33-0	-0.534	1	1	173.292	11.111	-0.0	0.000	0.000	D	F	832.3	171.874	0.197	-0.006	697.691	572.095	0.028	-	-0.004	-0.467	-	-	-	car	3.569	30.472	-	PAVEMENT_GENERAL	Urban	F	1011101000011101	0000000000010000	-	car	32.789	-11.555	11.361	-4.030	179.178	699.856	537.014	-0.000	Terminate	
"Student15Mode3"	"Tanvi_6"	"Dec 01, 2016 09:37:34 AM"	Unknown	148.98631	11/01/0116 09:40.06	00008939	8.098	Inter688t33-0	-0.701	1	1	174.211	11.111	21.0	0.005	0.000	D	F	824.5	173.342	0.196	-0.063	698.777	563.860	0.028	-	0.473	-0.397	-	-	-	car	3.891	31.508	40.789	PAVEMENT_GENERAL	Urban	F	1011101000011101	0000000000010000	-	car	33.884	45.398	7.326	-4.043	179.606	699.949	527.636	-0.000	Terminate	
"Student15Mode3"	"Tanvi_6"	"Dec 01, 2016 09:37:34 AM"	Unknown	149.98633	11/01/0116 09:40.07	00008999	7.626	Inter688t33-0	-0.319	1	1	176.027	11.111	25.5	0.000	0.000	D	F	749.6	177.216	0.195	-0.067	699.368	556.021	0.028	L	0.506	-0.475	-	-	-	car	3.804	29.007	6.652	PAVEMENT_GENERAL	Urban	F	1011101000111101	0000000000010000	-	car	31.364	7.198	3.266	-4.089	179.725	699.977	522.303	-0.000	Terminate	
"Student15Mode3"	"Tanvi_6"	"Dec 01, 2016 09:37:34 AM"	Unknown	150.98636	11/01/0116 09:40.08	00009059	7.158	Inter688t33-0	0.096	1	1	176.027	11.111	6.7	0.000	0.000	D	F	703.5	180.070	0.197	-0.005	699.466	548.630	0.028	L	0.086	-0.467	-	-	-	car	3.204	22.936	3.204	PAVEMENT_GENERAL	Urban	F	1011101000111101	0000000000010000	-	car	25.280	3.533	0.000	0.000	179.133	699.991	520.996	-0.000	Terminate	
"Student15Mode3"	"Tanvi_6"	"Dec 01, 2016 09:37:34 AM"	Unknown	151.98637	11/01/0116 09:40.09	00009119	5.996	Inter688t27-1	0.529	LT1	1	179.909	11.111	-1.4	0.000	0.170	D	F	575.3	180.366	0.142	0.005	699.425	541.917	0.031	L	-0.023	-2.412	-	-	-	car	2.702	16.203	2.702	PAVEMENT_GENERAL	Urban	F	1011101000111101	0000000000010000	-	car	18.569	3.099	0.000	0.000	179.133	699.991	520.996	-0.000	Terminate	
"Student15Mode3"	"Tanvi_6"	"Dec 01, 2016 09:37:34 AM"	Unknown	152.98639	11/01/0116 09:40.10	00009179	2.503	Inter688t27-1	0.554	LT1	1	179.909	11.111	-2.1	0.000	0.263	D	F	477.5	180.195	0.150	0.000	699.407	537.587	0.036	L	-0.002	-3.598	-	-	-	car	4.744	11.873	4.744	PAVEMENT_GENERAL	Urban	F	1011101000111101	0000000000010000	-	car	14.242	5.695	0.000	0.000	179.133	699.991	520.996	-0.000	Terminate	
