ZoneName	Time	SystemTime	Frame	Velocity	LaneName	LanePos	LaneIndex	LaneCount	LaneHeading	SpeedLimit	Steer	Accel	Brake	Gear	Horn	SubjectEngineRPM	SubjectHeading	SubjectPitch	SubjectRoll	SubjectX	SubjectY	SubjectZ	Signal	LatAccel	LongAccel	Collision	CollisionAngle	CollisionVelocity	VehAhead	HeadwayTime	HeadwayDist	TTC	TerrainType	CultureType	Slip	DigitalInputs	DigitalInputs2	ActiveTrigger	EntityName	DistToEntity	TimeToEntity	EntityVelocity	EntityAccel	EntityHeading	EntityX	EntityY	EntityZ	GrabData	
Unknown	0.98335	01/16/0117 10:35.21	00000059	0.002	Inter625t13-0	-0.088	1	2	0.000	11.111	-7.8	0.000	0.000	D	F	0.0	0.000	0.153	0.002	1503.500	523.206	0.019	-	0.000	0.000	-	-	-	-	-	-	-	PAVEMENT_GENERAL	Urban	F	1011101000011101	0000000000010000	-	car	928.855	774560.750	0.000	0.000	180.000	696.000	987.000	-0.000	Terminate	
Unknown	1.98337	01/16/0117 10:35.22	00000119	0.000	Inter625t13-0	-0.088	1	2	0.000	11.111	-5.7	0.000	0.000	D	F	0.0	0.000	0.197	0.000	1503.500	523.208	0.026	-	-0.000	-0.001	-	-	-	-	-	-	-	PAVEMENT_GENERAL	Urban	F	1111101000011101	0000000000010000	-	car	928.855	4212431.000	0.000	0.000	180.000	696.000	987.000	-0.000	Terminate	
Unknown	2.98339	01/16/0117 10:35.23	00000179	-0.000	Inter625t13-0	-0.088	1	2	0.000	11.111	-5.0	0.000	0.000	D	F	0.0	0.000	0.207	0.000	1503.500	523.208	0.028	-	-0.000	-0.000	-	-	-	-	-	-	-	PAVEMENT_GENERAL	Urban	F	1011101000011101	0000000000010000	-	car	928.854	-116393704.000	0.000	0.000	180.000	696.000	987.000	-0.000	Terminate	
Unknown	3.98341	01/16/0117 10:35.24	00000239	-0.000	Inter625t13-0	-0.088	1	2	0.000	11.111	-4.6	0.000	0.000	D	F	0.0	0.000	0.210	0.000	1503.500	523.208	0.028	-	-0.000	-0.000	-	-	-	-	-	-	-	PAVEMENT_GENERAL	Urban	F	1011101000011101	0000000000010000	-	car	928.854	-22312118.000	0.000	0.000	180.000	696.000	987.000	-0.000	Terminate	
Unknown	4.98343	01/16/0117 10:35.25	00000299	-0.000	Inter625t13-0	-0.088	1	2	0.000	11.111	-3.9	0.000	0.000	D	F	0.0	0.000	0.210	0.000	1503.500	523.208	0.028	-	-0.000	0.000	-	-	-	-	-	-	-	PAVEMENT_GENERAL	Urban	F	1111101000011101	0000000000010000	-	car	928.854	-24863450.000	0.000	0.000	180.000	696.000	987.000	-0.000	Terminate	
Unknown	5.98345	01/16/0117 10:35.26	00000359	-0.000	Inter625t13-0	-0.088	1	2	0.000	11.111	-3.7	0.000	0.000	D	F	0.0	0.000	0.209	0.000	1503.500	523.208	0.028	-	-0.000	0.000	-	-	-	-	-	-	-	PAVEMENT_GENERAL	Urban	F	1011101000011101	0000000000010000	-	car	928.855	-34390416.000	0.000	0.000	180.000	696.000	987.000	-0.000	Terminate	
Unknown	6.98347	01/16/0117 10:35.27	00000419	-0.000	Inter625t13-0	-0.088	1	2	0.000	11.111	-3.7	0.000	0.000	D	F	0.0	0.000	0.209	0.000	1503.500	523.208	0.028	-	-0.000	0.000	-	-	-	-	-	-	-	PAVEMENT_GENERAL	Urban	F	1011101000011101	0000000000010000	-	car	928.855	-48206008.000	0.000	0.000	180.000	696.000	987.000	-0.000	Terminate	
Unknown	7.98349	01/16/0117 10:35.28	00000479	-0.000	Inter625t13-0	-0.088	1	2	0.000	11.111	-3.4	0.000	0.000	D	F	0.0	0.000	0.209	-0.000	1503.500	523.208	0.028	-	-0.000	0.000	-	-	-	-	-	-	-	PAVEMENT_GENERAL	Urban	F	1011101000011101	0000000000010000	-	car	928.855	-64955920.000	0.000	0.000	180.000	696.000	987.000	-0.000	Terminate	
Unknown	8.98351	01/16/0117 10:35.29	00000539	-0.000	Inter625t13-0	-0.088	1	2	0.000	11.111	-3.3	0.000	0.000	D	F	0.0	0.000	0.209	-0.000	1503.500	523.208	0.028	-	-0.000	0.000	-	-	-	-	-	-	-	PAVEMENT_GENERAL	Urban	F	1011101000011101	0000000000010000	-	car	928.855	-83393232.000	0.000	0.000	180.000	696.000	987.000	-0.000	Terminate	
Unknown	9.98353	01/16/0117 10:35.30	00000599	-0.000	Inter625t13-0	-0.088	1	2	0.000	11.111	-5.1	0.000	0.000	D	F	0.0	0.000	0.209	-0.000	1503.500	523.208	0.028	-	0.000	0.000	-	-	-	-	-	-	-	PAVEMENT_GENERAL	Urban	F	1011101000011101	0000000000010000	-	car	928.855	-102723360.000	0.000	0.000	180.000	696.000	987.000	-0.000	Terminate	
Unknown	10.98355	01/16/0117 10:35.31	00000659	0.000	Inter625t13-0	-0.088	1	2	0.000	11.111	-6.2	0.000	0.000	D	F	144.4	0.000	0.209	0.000	1503.500	523.208	0.028	-	-0.000	0.000	-	-	-	-	-	-	-	PAVEMENT_GENERAL	Urban	F	1011101000011111	0000000000010000	-	car	928.855	58170940.000	0.000	0.000	180.000	696.000	987.000	-0.000	Terminate	
Unknown	11.98357	01/16/0117 10:35.32	00000719	0.006	Inter625t13-0	-0.088	1	2	0.000	11.111	-6.4	0.000	0.000	D	F	477.8	0.000	0.206	-0.000	1503.500	523.209	0.027	-	-0.000	0.019	-	-	-	-	-	-	-	PAVEMENT_GENERAL	Urban	F	1011101000011101	0000000000010000	-	car	928.854	298419.406	0.000	0.000	180.000	696.000	987.000	-0.000	Terminate	
Unknown	12.98359	01/16/0117 10:35.33	00000779	0.125	Inter625t13-0	-0.088	1	2	0.000	11.111	-4.8	0.044	0.000	D	F	826.9	0.000	0.216	-0.000	1503.500	523.233	0.023	-	-0.002	0.678	-	-	-	-	-	-	-	PAVEMENT_GENERAL	Urban	F	1011101000011101	0000000000010000	-	car	928.842	14958.444	0.000	0.000	180.000	696.000	987.000	-0.000	Terminate	
Unknown	13.98361	01/16/0117 10:35.34	00000839	1.570	Inter625t13-0	-0.091	1	2	0.000	11.111	-4.1	0.062	0.000	D	F	1042.2	359.920	0.216	0.001	1503.497	524.022	0.019	-	-0.006	1.503	-	-	-	-	-	-	-	PAVEMENT_GENERAL	Urban	F	1011101000011101	0000000000010000	-	car	928.447	1186.290	0.000	0.000	180.000	696.000	987.000	-0.000	Terminate	
Unknown	14.98363	01/16/0117 10:35.35	00000899	2.818	Inter625t13-0	-0.099	1	2	0.000	11.111	-0.5	0.072	0.000	D	F	1192.8	359.812	0.215	0.000	1503.489	526.254	0.021	-	-0.001	1.136	-	-	-	-	-	-	-	PAVEMENT_GENERAL	Urban	F	1111101000011101	0000000000010000	-	car	927.331	660.207	0.000	0.000	180.000	696.000	987.000	-0.000	Terminate	
Unknown	15.98365	01/16/0117 10:35.36	00000959	4.020	Inter625t13-0	-0.114	1	2	0.000	11.111	-1.1	0.086	0.000	D	F	1398.6	359.757	0.211	0.001	1503.474	529.689	0.021	-	-0.008	1.045	-	-	-	-	-	-	-	PAVEMENT_GENERAL	Urban	F	1011101000011101	0000000000010000	-	car	925.621	463.710	0.000	0.000	180.000	696.000	987.000	-0.000	Terminate	
Unknown	16.98367	01/16/0117 10:35.37	00001019	4.891	Inter625t49-0	-0.135	1	1	0.005	11.111	1.6	0.090	0.000	D	F	1543.1	359.742	0.211	-0.002	1503.453	534.168	0.023	-	0.015	0.800	-	-	-	-	-	-	-	PAVEMENT_GENERAL	Urban	F	1111101000011101	0000000000010000	-	car	923.403	382.883	0.000	0.000	180.000	696.000	987.000	-0.000	Terminate	
Unknown	17.98369	01/16/0117 10:35.38	00001079	5.694	Inter625t49-0	-0.149	1	1	0.006	11.111	1.4	0.092	0.000	D	F	1332.7	359.900	0.208	-0.002	1503.440	539.477	0.023	-	0.016	0.679	-	-	-	-	-	-	-	PAVEMENT_GENERAL	Urban	F	1011101000011101	0000000000010000	-	car	920.807	332.535	0.000	0.000	180.000	696.000	987.000	-0.000	Terminate	
Unknown	18.98371	01/16/0117 10:35.39	00001139	6.296	Inter625t49-0	-0.147	1	1	0.007	11.111	1.0	0.090	0.000	D	F	1358.0	0.067	0.209	-0.001	1503.442	545.480	0.024	-	0.012	0.578	-	-	-	-	-	-	-	PAVEMENT_GENERAL	Urban	F	1011101000011101	0000000000010000	-	car	917.913	304.526	0.000	0.000	180.000	696.000	987.000	-0.000	Terminate	
Unknown	19.98373	01/16/0117 10:35.40	00001199	6.851	Inter625t49-0	-0.131	1	1	0.008	11.111	1.0	0.099	0.000	D	F	1424.4	0.190	0.208	-0.002	1503.459	552.050	0.024	-	0.016	0.582	-	-	-	-	-	-	-	PAVEMENT_GENERAL	Urban	F	1011101000011101	0000000000010000	-	car	914.794	283.299	0.000	0.000	180.000	696.000	987.000	-0.000	Terminate	
Unknown	20.98375	01/16/0117 10:35.41	00001259	7.425	Inter625t49-0	-0.099	1	1	0.006	11.111	0.2	0.111	0.000	D	F	1498.9	0.282	0.209	-0.001	1503.491	559.188	0.024	-	0.003	0.597	-	-	-	-	-	-	-	PAVEMENT_GENERAL	Urban	F	1011101000011101	0000000000010000	-	car	911.459	264.679	0.000	0.000	180.000	696.000	987.000	-0.000	Terminate	
Unknown	21.98377	01/16/0117 10:35.42	00001319	8.045	Inter625t49-0	-0.060	1	1	0.005	11.111	0.1	0.123	0.000	D	F	1570.4	0.305	0.208	-0.000	1503.531	566.921	0.023	-	0.003	0.619	-	-	-	-	-	-	-	PAVEMENT_GENERAL	Urban	F	1011101000011101	0000000000010000	-	car	907.900	247.074	0.000	0.000	180.000	696.000	987.000	-0.000	Terminate	
Unknown	22.98379	01/16/0117 10:35.43	00001379	8.586	Inter625t49-0	-0.018	1	1	0.005	11.111	-0.8	0.122	0.000	D	F	1598.3	0.273	0.206	0.002	1503.574	575.241	0.024	-	-0.018	0.520	-	-	-	-	-	-	-	PAVEMENT_GENERAL	Urban	F	1011101000011101	0000000000010000	-	car	904.129	234.014	0.000	0.000	180.000	696.000	987.000	-0.000	Terminate	
Unknown	23.98381	01/16/0117 10:35.44	00001439	9.061	Inter625t15-0	0.009	1	2	0.000	11.111	-0.9	0.118	0.000	D	F	1632.7	0.107	0.205	0.003	1503.602	584.070	0.024	-	-0.023	0.454	-	-	-	-	-	-	-	PAVEMENT_GENERAL	Urban	F	1011101000011101	0000000000010000	-	car	900.178	223.354	0.000	0.000	180.000	696.000	987.000	-0.000	Terminate	
Unknown	24.98383	01/16/0117 10:35.45	00001499	9.508	Inter625t15-0	0.021	1	2	0.000	11.111	0.1	0.123	0.000	D	F	1688.0	0.076	0.204	-0.000	1503.615	593.355	0.024	-	0.003	0.428	-	-	-	-	-	-	-	PAVEMENT_GENERAL	Urban	F	1011101000011101	0000000000010000	-	car	896.082	215.689	0.000	0.000	180.000	696.000	987.000	-0.000	Terminate	
Unknown	25.98385	01/16/0117 10:35.46	00001559	9.988	Inter614t1-0	0.034	1	2	0.000	11.111	-0.2	0.125	0.000	D	F	1747.2	0.069	0.205	0.001	1503.628	603.097	0.024	-	-0.006	0.462	-	-	-	-	-	-	-	PAVEMENT_GENERAL	Urban	F	1011101000011101	0000000000010000	-	car	891.869	208.518	0.000	0.000	180.000	696.000	987.000	-0.000	Terminate	
Unknown	26.98387	01/16/0117 10:35.47	00001619	10.417	Inter614t1-0	0.043	1	2	0.000	11.111	-0.4	0.132	0.000	D	F	1517.1	0.021	0.204	0.002	1503.636	613.304	0.024	-	-0.012	0.408	-	-	-	-	-	-	-	PAVEMENT_GENERAL	Urban	F	1011101000011101	0000000000010000	-	car	887.542	203.063	0.000	0.000	180.000	696.000	987.000	-0.000	Terminate	
Unknown	27.98389	01/16/0117 10:35.48	00001679	10.790	Inter614t1-0	0.035	1	2	0.000	11.111	-0.0	0.129	0.000	D	F	1509.6	359.921	0.203	0.001	1503.628	623.911	0.025	-	-0.004	0.350	-	-	-	-	-	-	-	PAVEMENT_GENERAL	Urban	F	1011101000011101	0000000000010000	-	car	883.133	199.003	0.000	0.000	180.000	696.000	987.000	-0.000	Terminate	
Unknown	28.98391	01/16/0117 10:35.49	00001739	11.134	Inter614t1-0	0.021	1	2	0.000	11.111	-0.6	0.132	0.000	D	F	1531.1	359.917	0.202	0.003	1503.614	634.875	0.025	-	-0.018	0.338	-	-	-	-	-	-	-	PAVEMENT_GENERAL	Urban	F	1011101000011101	0000000000010000	-	car	878.681	196.800	0.000	0.000	180.000	696.000	987.000	-0.000	Terminate	
Unknown	29.98393	01/16/0117 10:35.50	00001799	11.448	Inter614t1-0	-0.002	1	2	0.000	11.111	-0.3	0.122	0.000	D	F	1522.3	359.861	0.201	0.001	1503.591	646.171	0.025	-	-0.010	0.284	-	-	-	-	-	-	-	PAVEMENT_GENERAL	Urban	F	1011101000011101	0000000000010000	-	car	874.206	195.278	0.000	0.000	180.000	696.000	987.000	-0.000	Terminate	
Unknown	30.98395	01/16/0117 10:35.51	00001859	11.659	Inter614t1-0	-0.035	1	2	0.000	11.111	0.0	0.102	0.000	D	F	1472.7	359.824	0.199	-0.000	1503.558	657.730	0.025	-	-0.001	0.149	-	-	-	-	-	-	-	PAVEMENT_GENERAL	Urban	F	1011101000011101	0000000000010000	-	car	869.747	196.110	0.000	0.000	180.000	696.000	987.000	-0.000	Terminate	
Unknown	31.98397	01/16/0117 10:35.52	00001919	11.791	Inter614t1-0	-0.070	1	2	0.000	11.111	0.0	0.109	0.000	D	F	1499.4	359.832	0.201	-0.000	1503.523	669.459	0.026	-	0.002	0.156	-	-	-	-	-	-	-	PAVEMENT_GENERAL	Urban	F	1011101000011101	0000000000010000	-	car	865.353	199.072	0.000	0.000	180.000	696.000	987.000	-0.000	Terminate	
Unknown	32.98399	01/16/0117 10:35.53	00001979	12.051	Inter614t1-0	-0.105	1	2	0.000	11.111	-0.4	0.132	0.000	D	F	1573.5	359.823	0.201	0.002	1503.488	681.371	0.025	-	-0.014	0.291	-	-	-	-	-	-	-	PAVEMENT_GENERAL	Urban	F	1011101000011101	0000000000010000	-	car	861.032	200.204	0.000	0.000	180.000	696.000	987.000	-0.000	Terminate	
Unknown	33.98401	01/16/0117 10:35.54	00002039	12.333	Inter614t1-0	-0.145	1	2	0.000	11.111	-0.1	0.132	0.000	D	F	1586.7	359.809	0.201	0.000	1503.448	693.566	0.025	-	-0.003	0.268	-	-	-	-	-	-	-	PAVEMENT_GENERAL	Urban	F	1011101000011101	0000000000010000	-	car	856.754	201.534	0.000	0.000	180.000	696.000	987.000	-0.000	Terminate	
Unknown	34.98403	01/16/0117 10:35.55	00002099	12.584	Inter614t1-0	-0.193	1	2	0.000	11.111	-0.8	0.132	0.000	D	F	1592.3	359.726	0.200	0.004	1503.400	706.027	0.025	-	-0.031	0.238	-	-	-	-	-	-	-	PAVEMENT_GENERAL	Urban	F	1011101000011101	0000000000010000	-	car	852.533	203.342	0.000	0.000	180.000	696.000	987.000	-0.000	Terminate	
Unknown	35.98405	01/16/0117 10:35.56	00002159	12.841	Inter614t1-0	-0.261	1	2	0.000	11.111	1.9	0.134	0.000	D	F	1616.7	359.728	0.200	-0.006	1503.332	718.740	0.025	-	0.061	0.254	-	-	-	-	-	-	-	PAVEMENT_GENERAL	Urban	F	1011101000011101	0000000000010000	-	car	848.375	206.568	0.000	0.000	180.000	696.000	987.000	-0.000	Terminate	
Unknown	36.98407	01/16/0117 10:35.57	00002219	13.087	Inter614t1-0	-0.259	1	2	0.000	11.111	2.6	0.134	0.000	D	F	1622.3	0.321	0.199	-0.015	1503.334	731.706	0.025	-	0.125	0.227	-	-	-	-	-	-	-	PAVEMENT_GENERAL	Urban	F	1011101000011101	0000000000010000	-	car	844.377	217.860	0.000	0.000	180.000	696.000	987.000	-0.000	Terminate	
Unknown	37.98409	01/16/0117 10:35.58	00002279	13.305	Inter614t1-0	-0.146	1	2	0.000	11.111	0.0	0.134	0.000	D	F	1630.8	0.589	0.199	-0.000	1503.447	744.903	0.025	-	0.009	0.212	-	-	-	-	-	-	-	PAVEMENT_GENERAL	Urban	F	1011101000011101	0000000000010000	-	car	840.601	227.799	0.000	0.000	180.000	696.000	987.000	-0.000	Terminate	
Unknown	38.98411	01/16/0117 10:35.59	00002339	13.510	Inter614t1-0	-0.009	1	2	0.000	11.111	-0.4	0.134	0.000	D	F	1639.2	0.577	0.199	0.001	1503.584	758.311	0.026	-	-0.012	0.201	-	-	-	-	-	-	-	PAVEMENT_GENERAL	Urban	F	1011101000011101	0000000000010000	-	car	836.980	235.773	0.000	0.000	180.000	696.000	987.000	-0.000	Terminate	
Unknown	39.98413	01/16/0117 10:36.00	00002399	13.686	Inter614t1-0	0.119	1	2	0.000	11.111	-0.4	0.127	0.000	D	F	1637.5	0.496	0.198	0.002	1503.712	771.911	0.026	-	-0.018	0.169	-	-	-	-	-	-	-	PAVEMENT_GENERAL	Urban	F	1111101000011101	0000000000010000	-	car	833.500	244.634	0.000	0.000	180.000	696.000	987.000	-0.000	Terminate	
Unknown	40.98415	01/16/0117 10:36.01	00002459	13.840	Inter614t1-0	0.232	1	2	0.000	11.111	-0.1	0.122	0.000	D	F	1627.2	0.459	0.197	0.000	1503.825	785.678	0.026	-	-0.002	0.126	-	-	-	-	-	-	-	PAVEMENT_GENERAL	Urban	F	1011101000011101	0000000000010000	-	car	830.174	256.293	0.000	0.000	180.000	696.000	987.000	-0.000	Terminate	
Unknown	41.98417	01/16/0117 10:36.02	00002519	13.969	Inter614t1-0	0.325	1	2	0.000	11.111	-2.1	0.123	0.000	D	F	1636.5	0.239	0.197	0.013	1503.918	799.582	0.026	-	-0.095	0.128	-	-	-	-	-	-	-	PAVEMENT_GENERAL	Urban	F	1011101000011101	0000000000010000	-	car	827.012	266.797	0.000	0.000	180.000	696.000	987.000	-0.000	Terminate	
Unknown	42.98419	01/16/0117 10:36.03	00002579	14.084	Inter612t1-0	0.346	1	2	0.000	11.111	-1.2	0.122	0.000	D	F	1638.4	0.000	0.197	0.007	1503.939	813.610	0.026	-	-0.060	0.108	-	-	-	-	-	-	-	PAVEMENT_GENERAL	Urban	F	1011101000011101	0000000000010000	-	car	823.975	277.696	0.000	0.000	180.000	696.000	987.000	-0.000	Terminate	
Unknown	43.98421	01/16/0117 10:36.05	00002639	14.186	Inter612t1-0	0.318	1	2	0.000	11.111	0.5	0.122	0.000	D	F	1644.7	359.889	0.197	-0.003	1503.912	827.746	0.026	-	0.022	0.098	-	-	-	-	-	-	-	PAVEMENT_GENERAL	Urban	F	1011101000011101	0000000000010000	-	car	821.098	296.359	0.000	0.000	180.000	696.000	987.000	-0.000	Terminate	
Unknown	44.98423	01/16/0117 10:36.06	00002699	14.282	Inter612t1-0	0.297	1	2	0.000	11.111	-0.5	0.122	0.000	D	F	1650.4	359.915	0.197	0.002	1503.890	841.981	0.026	-	-0.016	0.094	-	-	-	-	-	-	-	PAVEMENT_GENERAL	Urban	F	1011101000011101	0000000000010000	-	car	818.443	321.701	0.000	0.000	180.000	696.000	987.000	-0.000	Terminate	
Unknown	45.98425	01/16/0117 10:36.07	00002759	14.373	Inter612t1-0	0.263	1	2	0.000	11.111	-0.5	0.120	0.000	D	F	1658.0	359.810	0.197	0.003	1503.857	856.309	0.026	-	-0.026	0.091	-	-	-	-	-	-	-	PAVEMENT_GENERAL	Urban	F	1011101000011101	0000000000010000	-	car	816.000	348.359	0.000	0.000	180.000	696.000	987.000	-0.000	Terminate	
Unknown	46.98427	01/16/0117 10:36.08	00002819	14.463	Inter612t1-0	0.202	1	2	0.000	11.111	-0.4	0.122	0.000	D	F	1666.3	359.694	0.197	0.003	1503.795	870.727	0.026	-	-0.026	0.091	-	-	-	-	-	-	-	PAVEMENT_GENERAL	Urban	F	1011101000011101	0000000000010000	-	car	813.761	380.807	0.000	0.000	180.000	696.000	987.000	-0.000	Terminate	
Unknown	47.98429	01/16/0117 10:36.09	00002879	14.558	Inter612t1-0	0.121	1	2	0.000	11.111	0.4	0.122	0.000	D	F	1674.4	359.693	0.196	-0.001	1503.714	885.237	0.026	-	0.016	0.094	-	-	-	-	-	-	-	PAVEMENT_GENERAL	Urban	F	1011101000011101	0000000000010000	-	car	811.740	427.859	0.000	0.000	180.000	696.000	987.000	-0.000	Terminate	
Unknown	48.98431	01/16/0117 10:36.10	00002939	14.648	Inter612t1-0	0.055	1	2	0.000	11.111	0.8	0.123	0.000	D	F	1679.4	359.805	0.196	-0.004	1503.648	899.840	0.026	-	0.037	0.089	-	-	-	-	-	-	-	PAVEMENT_GENERAL	Urban	F	1011101000011101	0000000000010000	-	car	809.978	499.630	0.000	0.000	180.000	696.000	987.000	-0.000	Terminate	
Unknown	49.98433	01/16/0117 10:36.11	00002999	14.734	Inter612t1-0	0.020	1	2	0.000	11.111	0.3	0.122	0.000	D	F	1685.3	359.919	0.196	-0.002	1503.613	914.531	0.026	-	0.017	0.084	-	-	-	-	-	-	-	PAVEMENT_GENERAL	Urban	F	1011101000011101	0000000000010000	-	car	808.499	604.470	0.000	0.000	180.000	696.000	987.000	-0.000	Terminate	
Unknown	50.98435	01/16/0117 10:36.12	00003059	14.816	Inter612t1-0	0.003	1	2	0.000	11.111	-0.4	0.120	0.000	D	F	1693.7	359.942	0.196	0.001	1503.596	929.306	0.026	-	-0.009	0.084	-	-	-	-	-	-	-	PAVEMENT_GENERAL	Urban	F	1011101000011101	0000000000010000	-	car	807.295	753.974	0.000	0.000	180.000	696.000	987.000	-0.000	Terminate	
Unknown	51.98437	01/16/0117 10:36.13	00003119	14.897	Inter612t1-0	-0.017	1	2	0.000	11.111	-0.0	0.123	0.000	D	F	1698.1	359.913	0.196	-0.000	1503.576	944.163	0.026	-	-0.001	0.078	-	-	-	-	-	-	-	PAVEMENT_GENERAL	Urban	F	1011101000011101	0000000000010000	-	car	806.352	993.464	0.000	0.000	180.000	696.000	987.000	-0.000	Terminate	
Unknown	52.98439	01/16/0117 10:36.14	00003179	14.975	Inter612t1-0	-0.041	1	2	0.000	11.111	-0.1	0.122	0.000	D	F	1702.9	359.897	0.196	0.001	1503.552	959.100	0.026	-	-0.008	0.074	-	-	-	-	-	-	-	PAVEMENT_GENERAL	Urban	F	1011101000011101	0000000000010000	-	car	805.674	1481.069	0.000	0.000	180.000	696.000	987.000	-0.000	Terminate	
Unknown	53.98441	01/16/0117 10:36.15	00003239	15.046	Inter612t1-0	-0.067	1	2	0.000	11.111	0.4	0.122	0.000	D	F	1707.1	359.925	0.195	-0.003	1503.526	974.110	0.026	-	0.019	0.068	-	-	-	-	-	-	-	PAVEMENT_GENERAL	Urban	F	1011101000011101	0000000000010000	-	car	805.269	3098.404	0.000	0.000	180.000	696.000	987.000	-0.000	Terminate	
Unknown	54.98443	01/16/0117 10:36.16	00003299	15.114	Inter612t1-0	-0.077	1	2	0.000	11.111	0.5	0.122	0.000	D	F	1712.3	0.004	0.195	-0.004	1503.516	989.191	0.026	-	0.024	0.065	-	-	-	-	-	-	-	PAVEMENT_GENERAL	Urban	F	1011101000011101	0000000000010000	-	car	805.159	-19111.703	0.000	0.000	180.000	696.000	987.000	-0.000	Terminate	
Unknown	55.98445	01/16/0117 10:36.17	00003359	15.182	Inter613t1-0	-0.067	1	2	0.000	11.111	0.3	0.123	0.000	D	F	1717.5	0.068	0.195	-0.002	1503.526	1004.339	0.026	-	0.014	0.066	-	-	-	-	-	-	-	PAVEMENT_GENERAL	Urban	F	1011101000011101	0000000000010000	-	car	805.352	-2341.701	0.000	0.000	180.000	696.000	987.000	-0.000	Terminate	
Unknown	56.98447	01/16/0117 10:36.18	00003419	15.247	Inter613t1-0	-0.042	1	2	0.000	11.111	0.5	0.122	0.000	D	F	1720.4	0.131	0.195	-0.003	1503.551	1019.554	0.026	-	0.022	0.062	-	-	-	-	-	-	-	PAVEMENT_GENERAL	Urban	F	1011101000011101	0000000000010000	-	car	805.847	-1241.651	0.000	0.000	180.000	696.000	987.000	-0.000	Terminate	
Unknown	57.98449	01/16/0117 10:36.19	00003479	15.310	Inter613t1-0	0.004	1	2	0.000	11.111	0.5	0.122	0.000	D	F	1725.8	0.215	0.195	-0.003	1503.597	1034.832	0.026	-	0.022	0.064	-	-	-	-	-	-	-	PAVEMENT_GENERAL	Urban	F	1011101000011101	0000000000010000	-	car	806.653	-837.920	0.000	0.000	180.000	696.000	987.000	-0.000	Terminate	
Unknown	58.98451	01/16/0117 10:36.20	00003539	15.373	Inter613t1-0	0.074	1	2	0.000	11.111	0.3	0.123	0.000	D	F	1731.4	0.315	0.195	-0.003	1503.667	1050.174	0.026	-	0.022	0.064	-	-	-	-	-	-	-	PAVEMENT_GENERAL	Urban	F	1011101000011101	0000000000010000	-	car	807.774	-629.555	0.000	0.000	180.000	696.000	987.000	-0.000	Terminate	
Unknown	59.98453	01/16/0117 10:36.21	00003599	15.437	Inter613t1-0	0.160	1	2	0.000	11.111	0.1	0.125	0.000	D	F	1736.7	0.329	0.195	-0.000	1503.753	1065.579	0.026	-	0.004	0.062	-	-	-	-	-	-	-	PAVEMENT_GENERAL	Urban	F	1011101000011101	0000000000010000	-	car	809.207	-511.215	0.000	0.000	180.000	696.000	987.000	-0.000	Terminate	
Unknown	60.98455	01/16/0117 10:36.22	00003659	15.499	Inter613t1-0	0.247	1	2	0.000	11.111	-0.1	0.123	0.000	D	F	1740.7	0.311	0.195	0.001	1503.841	1081.047	0.026	-	-0.008	0.060	-	-	-	-	-	-	-	PAVEMENT_GENERAL	Urban	F	1011101000011101	0000000000010000	-	car	810.937	-432.343	0.000	0.000	180.000	696.000	987.000	-0.000	Terminate	
Unknown	61.98457	01/16/0117 10:36.23	00003719	15.548	Inter613t1-0	0.320	1	2	0.000	11.111	-0.7	0.122	0.000	D	F	1741.1	0.203	0.194	0.005	1503.913	1096.572	0.026	-	-0.036	0.045	-	-	-	-	-	-	-	PAVEMENT_GENERAL	Urban	F	1111101000011101	0000000000010000	-	car	812.950	-379.182	0.000	0.000	180.000	696.000	987.000	-0.000	Terminate	
Unknown	62.98459	01/16/0117 10:36.24	00003779	15.591	Inter613t1-0	0.360	1	2	0.000	11.111	-0.6	0.120	0.000	D	F	1741.2	0.083	0.195	0.004	1503.953	1112.142	0.026	-	-0.033	0.044	-	-	-	-	-	-	-	PAVEMENT_GENERAL	Urban	F	1011101000011101	0000000000010000	-	car	815.228	-338.459	0.000	0.000	180.000	696.000	987.000	-0.000	Terminate	
Unknown	63.98461	01/16/0117 10:36.25	00003839	15.632	Inter613t1-0	0.366	1	2	0.000	11.111	-0.7	0.120	0.000	D	F	1742.0	359.949	0.194	0.005	1503.959	1127.754	0.026	-	-0.039	0.037	-	-	-	-	-	-	-	PAVEMENT_GENERAL	Urban	F	1011101000011101	0000000000010000	-	car	817.769	-306.380	0.000	0.000	180.000	696.000	987.000	-0.000	Terminate	
Unknown	64.98463	01/16/0117 10:36.26	00003899	15.676	Inter613t1-0	0.333	1	2	0.000	11.111	-0.3	0.122	0.000	D	F	1749.2	359.795	0.195	0.004	1503.926	1143.407	0.026	-	-0.030	0.047	-	-	-	-	-	-	-	PAVEMENT_GENERAL	Urban	F	1011101000011101	0000000000010000	-	car	820.567	-280.599	0.000	0.000	180.000	696.000	987.000	-0.000	Terminate	
Unknown	65.98465	01/16/0117 10:36.27	00003959	15.723	Inter613t1-0	0.282	1	2	0.000	11.111	0.5	0.123	0.000	D	F	1754.1	359.851	0.194	-0.003	1503.875	1159.106	0.026	-	0.024	0.048	-	-	-	-	-	-	-	PAVEMENT_GENERAL	Urban	F	1011101000011101	0000000000010000	-	car	823.645	-254.527	0.000	0.000	180.000	696.000	987.000	-0.000	Terminate	
Unknown	66.98467	01/16/0117 10:36.28	00004019	15.767	Inter613t1-0	0.250	1	2	0.000	11.111	0.4	0.120	0.000	D	F	1754.8	359.918	0.194	-0.002	1503.844	1174.852	0.026	-	0.017	0.039	-	-	-	-	-	-	-	PAVEMENT_GENERAL	Urban	F	1011101000011101	0000000000010000	-	car	827.038	-233.028	0.000	0.000	180.000	696.000	987.000	-0.000	Terminate	
Unknown	67.98470	01/16/0117 10:36.29	00004079	15.804	Inter613t1-0	0.239	1	2	0.000	11.111	-2.3	0.120	0.000	D	F	1752.3	0.000	0.194	0.012	1503.832	1190.639	0.026	-	-0.075	0.028	-	-	-	-	-	-	-	PAVEMENT_GENERAL	Urban	F	1011101000011101	0000000000010000	-	car	830.744	-215.738	0.000	0.000	180.000	696.000	987.000	-0.000	Terminate	
Unknown	68.98471	01/16/0117 10:36.30	00004139	15.820	Inter615t9-0	0.137	1	2	0.000	11.111	-4.2	0.111	0.000	D	F	1740.5	359.231	0.194	0.029	1503.731	1206.451	0.026	-	-0.217	0.009	-	-	-	-	-	-	-	PAVEMENT_GENERAL	Urban	F	1011101000011101	0000000000010000	-	car	834.652	-211.708	0.000	0.000	180.000	696.000	987.000	-0.000	Terminate	
Unknown	69.98473	01/16/0117 10:36.31	00004199	15.803	Inter615t31-0	0.068	1	1	356.048	11.111	-21.6	0.083	0.000	D	F	1696.5	357.607	0.189	0.145	1503.366	1222.264	0.027	-	-1.044	-0.106	-	-	-	22	3.312	52.334	3.312	PAVEMENT_GENERAL	Urban	F	1011101000011101	0000000000010000	-	car	838.586	-221.628	0.000	0.000	180.000	696.000	987.000	-0.000	Terminate	
Unknown	70.98476	01/16/0117 10:36.32	00004259	15.271	Inter615t31-0	-0.203	1	1	354.892	11.111	5.5	0.000	0.000	D	F	1499.8	353.197	0.184	0.010	1502.067	1237.768	0.029	-	-0.186	-0.580	-	-	-	22	2.408	36.769	2.408	PAVEMENT_GENERAL	Urban	F	1011101000011101	0000000000010000	-	car	841.814	-303.120	0.000	0.000	180.000	696.000	987.000	-0.000	Terminate	
Unknown	71.98477	01/16/0117 10:36.33	00004319	12.759	Inter615t31-0	-0.297	1	1	356.903	11.111	13.0	0.000	0.409	D	F	1178.6	355.686	0.070	-0.105	1500.592	1252.240	0.041	-	0.670	-5.305	-	-	-	22	1.747	22.292	1.747	PAVEMENT_GENERAL	Urban	F	1011101000011101	0000000000010000	-	car	844.825	-275.023	0.000	0.000	180.000	696.000	987.000	-0.000	Terminate	
Unknown	72.98479	01/16/0117 10:36.34	00004379	6.243	Inter615t31-0	-0.305	1	1	356.903	11.111	16.6	0.000	0.681	D	F	580.8	358.402	-0.223	-0.041	1500.056	1262.010	0.043	-	0.281	-7.925	-	-	-	22	2.003	12.508	2.003	PAVEMENT_GENERAL	Urban	F	1011101000011101	0000000000010000	-	car	847.427	-456.875	0.000	0.000	180.000	696.000	987.000	-0.000	Terminate	
Unknown	73.98481	01/16/0117 10:36.35	00004439	0.579	Inter615t31-0	-0.184	1	1	356.903	11.111	10.8	0.000	0.343	D	F	477.5	359.248	0.124	0.004	1500.011	1265.085	0.039	-	-0.021	-3.437	-	-	-	22	16.284	9.435	16.284	PAVEMENT_GENERAL	Urban	F	1011101000011101	0000000000010000	-	car	848.384	-4656.562	0.000	0.000	180.000	696.000	987.000	-0.000	Terminate	
Unknown	74.98483	01/16/0117 10:36.36	00004499	-0.002	Inter615t31-0	-0.181	1	1	356.903	11.111	0.1	0.000	0.418	D	F	477.5	359.261	0.234	-0.000	1500.010	1265.149	0.033	-	-0.000	0.001	-	-	-	22	-	9.371	-	PAVEMENT_GENERAL	Urban	F	1011101000011101	0000000000010000	-	car	848.405	1559763.625	0.000	0.000	180.000	696.000	987.000	-0.000	Terminate	
Unknown	75.98486	01/16/0117 10:36.37	00004559	-0.001	Inter615t31-0	-0.181	1	1	356.903	11.111	-5.7	0.000	0.370	D	F	477.5	359.261	0.217	0.000	1500.010	1265.148	0.029	-	0.000	0.000	-	-	-	22	-	9.372	-	PAVEMENT_GENERAL	Urban	F	1111101000011101	0000000000010000	-	car	848.404	4856950.500	0.000	0.000	180.000	696.000	987.000	-0.000	Terminate	
Unknown	76.98487	01/16/0117 10:36.38	00004619	-0.000	Inter615t31-0	-0.181	1	1	356.903	11.111	-4.2	0.000	0.331	D	F	477.5	359.261	0.212	0.000	1500.010	1265.148	0.028	-	-0.000	0.000	-	-	-	22	-	9.373	-	PAVEMENT_GENERAL	Urban	F	1011101000011101	0000000000010000	-	car	848.404	13506754.000	0.000	0.000	180.000	696.000	987.000	-0.000	Terminate	
Unknown	77.98489	01/16/0117 10:36.39	00004679	-0.000	Inter615t31-0	-0.181	1	1	356.903	11.111	-3.8	0.000	0.203	D	F	477.5	359.261	0.210	0.000	1500.010	1265.148	0.028	-	-0.000	0.000	-	-	-	22	-	9.373	-	PAVEMENT_GENERAL	Urban	F	1011101000011101	0000000000010000	-	car	848.404	37200852.000	0.000	0.000	180.000	696.000	987.000	-0.000	Terminate	
Unknown	78.98492	01/16/0117 10:36.40	00004739	-0.000	Inter615t31-0	-0.181	1	1	356.903	11.111	-3.8	0.000	0.355	D	F	477.5	359.261	0.209	0.000	1500.010	1265.148	0.028	-	0.000	0.000	-	-	-	22	-	9.373	-	PAVEMENT_GENERAL	Urban	F	1011101000011101	0000000000010000	-	car	848.404	102398048.000	0.000	0.000	180.000	696.000	987.000	-0.000	Terminate	
Unknown	79.98493	01/16/0117 10:36.41	00004799	-0.000	Inter615t31-0	-0.181	1	1	356.903	11.111	-2.4	0.000	0.355	D	F	477.5	359.261	0.209	0.000	1500.010	1265.148	0.028	L	-0.000	0.000	-	-	-	22	-	9.373	-	PAVEMENT_GENERAL	Urban	F	1011101000111101	0000000000010000	-	car	848.404	281666176.000	0.000	0.000	180.000	696.000	987.000	-0.000	Terminate	
Unknown	80.98495	01/16/0117 10:36.42	00004859	-0.000	Inter615t31-0	-0.181	1	1	356.903	11.111	-4.9	0.000	0.343	D	F	477.5	359.261	0.209	0.000	1500.010	1265.148	0.028	L	-0.000	0.000	-	-	-	22	-	9.373	-	PAVEMENT_GENERAL	Urban	F	1011101000111101	0000000000010000	-	car	848.404	779963840.000	0.000	0.000	180.000	696.000	987.000	-0.000	Terminate	
Unknown	81.98497	01/16/0117 10:36.43	00004919	-0.000	Inter615t31-0	-0.181	1	1	356.903	11.111	-4.5	0.000	0.331	D	F	477.5	359.261	0.209	0.000	1500.010	1265.148	0.028	L	-0.000	0.000	-	-	-	22	-	9.373	-	PAVEMENT_GENERAL	Urban	F	1011101000111101	0000000000010000	-	car	848.404	-	0.000	0.000	180.000	696.000	987.000	-0.000	Terminate	
Unknown	82.98499	01/16/0117 10:36.44	00004979	-0.000	Inter615t31-0	-0.181	1	1	356.903	11.111	-4.5	0.000	0.325	D	F	477.5	359.261	0.209	0.000	1500.010	1265.148	0.028	L	-0.000	0.000	-	-	-	22	-	9.373	-	PAVEMENT_GENERAL	Urban	F	1011101000111101	0000000000010000	-	car	848.404	-	0.000	0.000	180.000	696.000	987.000	-0.000	Terminate	
Unknown	83.98502	01/16/0117 10:36.45	00005039	-0.000	Inter615t31-0	-0.181	1	1	356.903	11.111	-4.3	0.000	0.310	D	F	477.5	359.261	0.209	0.000	1500.010	1265.148	0.028	L	-0.000	0.000	-	-	-	22	-	9.373	-	PAVEMENT_GENERAL	Urban	F	1011101000111101	0000000000010000	-	car	848.404	-	0.000	0.000	180.000	696.000	987.000	-0.000	Terminate	
Unknown	84.98503	01/16/0117 10:36.46	00005099	-0.000	Inter615t31-0	-0.181	1	1	356.903	11.111	-4.3	0.000	0.296	D	F	477.5	359.261	0.209	0.000	1500.010	1265.148	0.028	L	-0.000	0.000	-	-	-	22	-	9.373	-	PAVEMENT_GENERAL	Urban	F	1011101000111101	0000000000010000	-	car	848.404	-	0.000	0.000	180.000	696.000	987.000	-0.000	Terminate	
Unknown	85.98505	01/16/0117 10:36.47	00005159	0.000	Inter615t31-0	-0.181	1	1	356.903	11.111	-4.3	0.000	0.248	D	F	477.5	359.261	0.209	0.000	1500.010	1265.148	0.028	L	0.000	-0.000	-	-	-	22	-	9.373	-	PAVEMENT_GENERAL	Urban	F	1011101000111101	0000000000010000	-	car	848.404	-	0.000	0.000	180.000	696.000	987.000	-0.000	Terminate	
Unknown	86.98507	01/16/0117 10:36.48	00005219	0.000	Inter615t31-0	-0.181	1	1	356.903	11.111	-3.6	0.000	0.239	D	F	477.5	359.261	0.209	0.000	1500.010	1265.148	0.028	L	0.000	0.000	-	-	-	22	-	9.373	-	PAVEMENT_GENERAL	Urban	F	1011101000111101	0000000000010000	-	car	848.404	-	0.000	0.000	180.000	696.000	987.000	-0.000	Terminate	
Unknown	87.98509	01/16/0117 10:36.49	00005279	0.000	Inter615t31-0	-0.181	1	1	356.903	11.111	-1.6	0.000	0.230	D	F	477.5	359.261	0.209	0.000	1500.010	1265.148	0.028	L	-0.000	0.000	-	-	-	22	-	9.373	-	PAVEMENT_GENERAL	Urban	F	1011101000111101	0000000000010000	-	car	848.404	-	0.000	0.000	180.000	696.000	987.000	-0.000	Terminate	
Unknown	88.98512	01/16/0117 10:36.50	00005339	0.000	Inter615t31-0	-0.181	1	1	356.903	11.111	0.5	0.000	0.209	D	F	477.5	359.261	0.209	-0.000	1500.010	1265.148	0.028	L	-0.000	-0.000	-	-	-	22	-	9.373	-	PAVEMENT_GENERAL	Urban	F	1011101000111101	0000000000010000	-	car	848.404	-	0.000	0.000	180.000	696.000	987.000	-0.000	Terminate	
Unknown	89.98513	01/16/0117 10:36.51	00005399	0.000	Inter615t31-0	-0.181	1	1	356.903	11.111	0.5	0.000	0.164	D	F	477.5	359.261	0.209	0.000	1500.010	1265.148	0.028	L	0.000	-0.000	-	-	-	22	-	9.373	-	PAVEMENT_GENERAL	Urban	F	1111101000111101	0000000000010000	-	car	848.404	-	0.000	0.000	180.000	696.000	987.000	-0.000	Terminate	
Unknown	90.98515	01/16/0117 10:36.52	00005459	0.000	Inter615t31-0	-0.181	1	1	356.903	11.111	0.3	0.000	0.158	D	F	477.5	359.261	0.209	0.000	1500.010	1265.148	0.028	L	0.000	0.000	-	-	-	22	-	9.373	-	PAVEMENT_GENERAL	Urban	F	1011101000111101	0000000000010000	-	car	848.404	-	0.000	0.000	180.000	696.000	987.000	-0.000	Terminate	
Unknown	91.98518	01/16/0117 10:36.53	00005519	0.000	Inter615t31-0	-0.181	1	1	356.903	11.111	0.7	0.000	0.155	D	F	477.5	359.261	0.209	0.000	1500.010	1265.148	0.028	L	-0.000	-0.000	-	-	-	22	-	9.373	-	PAVEMENT_GENERAL	Urban	F	1011101000111101	0000000000010000	-	car	848.404	-	0.000	0.000	180.000	696.000	987.000	-0.000	Terminate	
Unknown	92.98519	01/16/0117 10:36.54	00005579	0.000	Inter615t31-0	-0.181	1	1	356.903	11.111	0.6	0.000	0.158	D	F	477.5	359.261	0.209	0.000	1500.010	1265.148	0.028	L	-0.000	-0.000	-	-	-	22	-	9.373	-	PAVEMENT_GENERAL	Urban	F	1011101000111101	0000000000010000	-	car	848.404	-	0.000	0.000	180.000	696.000	987.000	-0.000	Terminate	
Unknown	93.98521	01/16/0117 10:36.55	00005639	0.000	Inter615t31-0	-0.181	1	1	356.903	11.111	0.8	0.000	0.155	D	F	477.5	359.261	0.209	0.000	1500.010	1265.148	0.028	L	0.000	-0.000	-	-	-	22	-	9.373	-	PAVEMENT_GENERAL	Urban	F	1011101000111101	0000000000010000	-	car	848.404	-	0.000	0.000	180.000	696.000	987.000	-0.000	Terminate	
Unknown	94.98523	01/16/0117 10:36.56	00005699	0.000	Inter615t31-0	-0.181	1	1	356.903	11.111	0.8	0.000	0.155	D	F	477.5	359.261	0.209	0.000	1500.010	1265.148	0.028	L	-0.000	0.000	-	-	-	22	-	9.373	-	PAVEMENT_GENERAL	Urban	F	1011101000111101	0000000000010000	-	car	848.404	-	0.000	0.000	180.000	696.000	987.000	-0.000	Terminate	
Unknown	95.98525	01/16/0117 10:36.57	00005759	0.000	Inter615t31-0	-0.181	1	1	356.903	11.111	1.0	0.000	0.155	D	F	477.5	359.261	0.209	0.000	1500.010	1265.148	0.028	L	0.000	0.000	-	-	-	22	-	9.373	-	PAVEMENT_GENERAL	Urban	F	1011101000111101	0000000000010000	-	car	848.404	-	0.000	0.000	180.000	696.000	987.000	-0.000	Terminate	
Unknown	96.98528	01/16/0117 10:36.58	00005819	0.000	Inter615t31-0	-0.181	1	1	356.903	11.111	2.3	0.000	0.084	D	F	477.5	359.261	0.209	0.000	1500.010	1265.148	0.028	L	0.000	-0.000	-	-	-	22	-	10.026	-	PAVEMENT_GENERAL	Urban	F	1011101000111101	0000000000010000	-	car	848.404	-	0.000	0.000	180.000	696.000	987.000	-0.000	Terminate	
Unknown	97.98529	01/16/0117 10:36.59	00005879	0.057	Inter615t31-0	-0.180	1	1	356.903	11.111	2.0	0.072	0.000	D	F	1039.5	359.261	0.197	0.000	1500.010	1265.156	0.022	L	0.001	0.165	-	-	-	22	220.315	12.635	-	PAVEMENT_GENERAL	Urban	F	1011101000111101	0000000000010000	-	car	848.407	-47003.809	0.000	0.000	180.000	696.000	987.000	-0.000	Terminate	
Unknown	98.98531	01/16/0117 10:37.00	00005939	2.364	Inter615t31-0	-0.135	1	1	356.903	11.111	1.1	0.109	0.000	D	F	1319.8	359.289	0.207	-0.001	1499.997	1266.243	0.014	L	0.003	2.224	-	-	-	22	5.858	13.850	-	PAVEMENT_GENERAL	Urban	F	1011101000111101	0000000000010000	-	car	848.751	-1134.819	0.000	0.000	180.000	696.000	987.000	-0.000	Terminate	
Unknown	99.98534	01/16/0117 10:37.01	00005999	3.824	Inter615t11-0	-0.100	LT1	2	0.000	11.111	2.2	0.046	0.000	D	F	1203.3	359.399	0.199	-0.002	1499.963	1269.487	0.021	L	0.014	0.519	-	-	-	22	5.125	19.598	-	PAVEMENT_GENERAL	Urban	F	1011101000111101	0000000000010000	-	car	849.788	-690.945	0.000	0.000	180.000	696.000	987.000	-0.000	Terminate	
Unknown	100.98535	01/16/0117 10:37.02	00006059	4.535	Inter615t11-0	-0.130	LT1	2	0.000	11.111	1.8	0.079	0.000	D	F	1448.4	359.606	0.210	-0.001	1499.932	1273.623	0.022	L	0.010	0.767	-	-	-	22	5.308	24.068	-	PAVEMENT_GENERAL	Urban	F	1011101000111101	0000000000010000	-	car	851.139	-569.921	0.000	0.000	180.000	696.000	987.000	-0.000	Terminate	
Unknown	101.98537	01/16/0117 10:37.03	00006119	5.243	Inter615t11-0	-0.164	LT1	2	0.000	11.111	-3.6	0.079	0.000	D	F	1268.9	359.550	0.208	0.006	1499.898	1278.522	0.023	L	-0.045	0.597	-	-	-	22	5.556	29.130	-	PAVEMENT_GENERAL	Urban	F	1011101000111101	0000000000010000	-	car	852.764	-487.686	0.000	0.000	180.000	696.000	987.000	-0.000	Terminate	
Unknown	102.98539	01/16/0117 10:37.04	00006179	5.761	Inter615t65-0	-0.176	1	1	350.994	11.111	-47.7	0.076	0.000	D	F	1263.3	357.112	0.206	0.085	1499.720	1284.028	0.024	L	-0.614	0.464	-	-	-	22	6.191	35.665	-	PAVEMENT_GENERAL	Urban	F	1011101000111101	0000000000010000	-	car	854.490	-496.190	0.000	0.000	180.000	696.000	987.000	-0.000	Terminate	
Unknown	103.98541	01/16/0117 10:37.05	00006239	6.173	Inter615t65-0	0.651	1	1	336.220	11.111	-82.1	0.072	0.000	D	F	1270.3	349.588	0.200	0.154	1498.899	1289.943	0.025	L	-1.124	0.321	-	-	-	22	6.988	43.141	-	PAVEMENT_GENERAL	Urban	F	1011101000111101	0000000000010000	-	car	855.790	-778.332	0.000	0.000	180.000	696.000	987.000	-0.000	Terminate	
Unknown	104.98544	01/16/0117 10:37.06	00006299	6.508	-Inter615t59-0	0.456	-1	1	89.733	11.111	-120.2	0.076	0.000	D	F	1305.3	337.280	0.192	0.246	1496.885	1295.945	0.025	L	-1.810	0.230	-	-	-	22	8.393	54.623	-	PAVEMENT_GENERAL	Urban	F	1011101000111101	0000000000010000	-	car	856.048	4638.055	0.000	0.000	180.000	696.000	987.000	-0.000	Terminate	
Unknown	105.98545	01/16/0117 10:37.07	00006359	6.767	-Inter615t57-0	1.786	-1	1	60.542	11.111	-154.2	0.072	0.000	D	F	1315.0	318.755	0.184	0.318	1493.102	1301.378	0.026	L	-2.435	0.110	-	-	-	22	9.745	65.941	-	PAVEMENT_GENERAL	Urban	F	1011101000111101	0000000000010000	-	car	854.498	374.232	0.000	0.000	180.000	696.000	987.000	-0.000	Terminate	
Unknown	106.98547	01/16/0117 10:37.08	00006419	6.992	Inter615t75-0	1.724	1	1	269.734	11.111	-156.4	0.074	0.000	D	F	1334.1	297.644	0.181	0.342	1487.468	1305.282	0.026	L	-2.619	0.083	-	-	-	22	11.102	77.633	-	PAVEMENT_GENERAL	Urban	F	1011101000111101	0000000000010000	-	car	850.708	187.525	0.000	0.000	180.000	696.000	987.000	-0.000	Terminate	
Unknown	107.98550	01/16/0117 10:37.09	00006479	7.246	Inter615t3-4	-0.146	2	2	270.000	11.111	-109.5	0.076	0.000	D	F	1354.9	277.507	0.187	0.237	1480.586	1306.984	0.026	L	-1.893	0.183	-	-	-	-	-	-	-	PAVEMENT_GENERAL	Urban	F	1011101000111101	0000000000010000	-	car	844.969	134.245	0.000	0.000	180.000	696.000	987.000	-0.000	Terminate	
Unknown	108.98551	01/16/0117 10:37.10	00006539	7.528	Inter615t3-4	-0.229	2	2	270.000	11.111	-15.1	0.081	0.000	D	F	1382.2	266.838	0.203	0.008	1473.209	1306.901	0.025	L	-0.221	0.273	-	-	-	-	-	-	-	PAVEMENT_GENERAL	Urban	F	1011101000111101	0000000000010000	-	car	838.111	117.901	0.000	0.000	180.000	696.000	987.000	-0.000	Terminate	
Unknown	109.98553	01/16/0117 10:37.11	00006599	7.789	Inter615t17-0	-0.716	1	1	270.067	11.111	19.2	0.081	0.000	D	F	1405.5	266.699	0.204	-0.068	1465.565	1306.416	0.025	-	0.405	0.246	-	-	-	-	-	-	-	PAVEMENT_GENERAL	Urban	F	1011101000011101	0000000000010000	-	car	830.862	112.977	0.000	0.000	180.000	696.000	987.000	-0.000	Terminate	
Unknown	110.98555	01/16/0117 10:37.12	00006659	8.065	Inter615t17-0	-1.015	1	1	270.091	11.111	2.1	0.097	0.000	D	F	1335.1	268.173	0.204	-0.008	1457.652	1306.126	0.025	-	0.048	0.316	-	-	-	22	15.511	125.092	-	PAVEMENT_GENERAL	Urban	F	1111101000011101	0000000000010000	-	car	823.446	109.301	0.000	0.000	180.000	696.000	987.000	-0.000	Terminate	
Unknown	111.98557	01/16/0117 10:37.13	00006719	8.461	Inter615t17-0	-1.217	1	1	270.110	11.111	8.6	0.111	0.000	D	F	1386.7	269.169	0.205	-0.021	1449.392	1305.934	0.024	-	0.189	0.407	-	-	-	22	16.741	141.656	-	PAVEMENT_GENERAL	Urban	F	1011101000011101	0000000000010000	-	car	815.760	104.065	0.000	0.000	180.000	696.000	987.000	-0.000	Terminate	
Unknown	112.98560	01/16/0117 10:37.14	00006779	8.826	Inter615t17-0	-1.294	1	1	270.083	11.111	-11.3	0.099	0.000	D	F	1358.2	269.443	0.204	0.041	1440.739	1305.875	0.025	-	-0.266	0.310	-	-	-	22	17.349	153.117	-	PAVEMENT_GENERAL	Urban	F	1011101000011101	0000000000010000	-	car	807.774	99.152	0.000	0.000	180.000	696.000	987.000	-0.000	Terminate	
Unknown	113.98561	01/16/0117 10:37.15	00006839	9.135	Inter615t17-0	-1.548	1	1	270.061	11.111	0.7	0.101	0.000	D	F	1370.4	267.984	0.204	-0.024	1431.761	1305.636	0.025	-	0.022	0.307	-	-	-	22	17.984	164.278	-	PAVEMENT_GENERAL	Urban	F	1011101000011101	0000000000010000	-	car	799.435	93.995	0.000	0.000	180.000	696.000	987.000	-0.000	Terminate	
Unknown	114.98563	01/16/0117 10:37.16	00006899	9.423	Inter615t19-0	1.567	1	1	270.061	11.111	-0.1	0.101	0.000	D	F	1383.6	265.992	0.204	-0.001	1422.494	1305.161	0.025	-	-0.073	0.289	-	-	-	22	18.332	172.746	-	PAVEMENT_GENERAL	Urban	F	1011101000011101	0000000000010000	-	car	790.749	89.102	0.000	0.000	180.000	696.000	987.000	-0.000	Terminate	
Unknown	115.98566	01/16/0117 10:37.17	00006959	9.693	Inter615t1-2	0.999	1	2	270.000	11.111	10.6	0.101	0.000	D	F	1391.6	267.296	0.203	-0.038	1412.951	1304.599	0.025	-	0.292	0.264	-	-	-	22	18.912	183.325	-	PAVEMENT_GENERAL	Urban	F	1011101000011101	0000000000010000	-	car	781.789	86.500	0.000	0.000	180.000	696.000	987.000	-0.000	Terminate	
Unknown	116.98567	01/16/0117 10:37.18	00007019	9.949	Inter615t1-2	0.705	1	2	270.000	11.111	2.7	0.102	0.000	D	F	1395.3	268.949	0.203	-0.013	1403.134	1304.305	0.025	-	0.115	0.240	-	-	-	22	19.463	193.627	-	PAVEMENT_GENERAL	Urban	F	1011101000011101	0000000000010000	-	car	772.702	84.450	0.000	0.000	180.000	696.000	987.000	-0.000	Terminate	
Unknown	117.98569	01/16/0117 10:37.19	00007079	10.224	Inter616t1-2	0.528	1	2	270.000	11.111	1.2	0.123	0.000	D	F	1479.5	269.070	0.203	-0.004	1393.057	1304.135	0.025	-	0.033	0.340	-	-	-	22	19.921	203.663	-	PAVEMENT_GENERAL	Urban	F	1011101000011101	0000000000010000	-	car	763.449	81.449	0.000	0.000	180.000	696.000	987.000	-0.000	Terminate	
Unknown	118.98571	01/16/0117 10:37.20	00007139	10.612	Inter616t1-2	0.404	1	2	270.000	11.111	2.5	0.136	0.000	D	F	1525.0	269.597	0.204	-0.011	1382.645	1304.011	0.024	-	0.090	0.413	-	-	-	22	20.106	213.371	-	PAVEMENT_GENERAL	Urban	F	1011101000011101	0000000000010000	-	car	753.933	77.997	0.000	0.000	180.000	696.000	987.000	-0.000	Terminate	
Unknown	119.98573	01/16/0117 10:37.21	00007199	11.051	Inter616t1-2	0.367	1	2	270.000	11.111	0.7	0.152	0.000	D	F	1583.3	269.943	0.204	-0.005	1371.818	1303.974	0.024	-	0.034	0.477	-	-	-	22	20.150	222.663	-	PAVEMENT_GENERAL	Urban	F	1011101000011101	0000000000010000	-	car	744.100	74.340	0.000	0.000	180.000	696.000	987.000	-0.000	Terminate	
Unknown	120.98576	01/16/0117 10:37.22	00007259	11.496	Inter616t1-2	0.358	1	2	270.000	11.111	0.8	0.146	0.000	D	F	1595.1	269.982	0.203	-0.005	1360.542	1303.964	0.024	-	0.029	0.426	-	-	-	22	20.137	231.506	-	PAVEMENT_GENERAL	Urban	F	1011101000011101	0000000000010000	-	car	733.903	70.717	0.000	0.000	180.000	696.000	987.000	-0.000	Terminate	
Unknown	121.98577	01/16/0117 10:37.23	00007319	11.903	Inter616t1-2	0.371	1	2	270.000	11.111	0.7	0.148	0.000	D	F	1610.8	270.145	0.202	-0.004	1348.838	1303.978	0.025	-	0.029	0.386	-	-	-	22	20.156	239.923	-	PAVEMENT_GENERAL	Urban	F	1011101000011101	0000000000010000	-	car	723.363	67.639	0.000	0.000	180.000	696.000	987.000	-0.000	Terminate	
Unknown	122.98579	01/16/0117 10:37.24	00007379	12.275	Inter616t1-2	0.410	1	2	270.000	11.111	-0.2	0.146	0.000	D	F	1626.5	270.184	0.201	0.001	1336.747	1304.017	0.025	-	-0.009	0.359	-	-	-	-	-	-	-	PAVEMENT_GENERAL	Urban	F	1011101000011101	0000000000010000	-	car	712.523	64.868	0.000	0.000	180.000	696.000	987.000	-0.000	Terminate	
Unknown	123.98581	01/16/0117 10:37.25	00007439	12.616	Inter616t1-2	0.444	1	2	270.000	11.111	-0.5	0.146	0.000	D	F	1640.7	270.114	0.201	0.004	1324.301	1304.051	0.025	-	-0.023	0.336	-	-	-	-	-	-	-	PAVEMENT_GENERAL	Urban	F	1011101000011101	0000000000010000	-	car	701.404	62.338	0.000	0.000	180.000	696.000	987.000	-0.000	Terminate	
Unknown	124.98583	01/16/0117 10:37.26	00007499	12.942	Inter616t1-2	0.473	1	2	270.000	11.111	0.7	0.146	0.000	D	F	1654.4	270.193	0.200	-0.004	1311.521	1304.080	0.025	-	0.033	0.315	-	-	-	-	-	-	-	PAVEMENT_GENERAL	Urban	F	1011101000011101	0000000000010000	-	car	690.032	60.082	0.000	0.000	180.000	696.000	987.000	-0.000	Terminate	
Unknown	125.98586	01/16/0117 10:37.27	00007559	13.253	Inter616t1-2	0.532	1	2	270.000	11.111	-0.5	0.148	0.000	D	F	1674.3	270.292	0.200	0.004	1298.422	1304.139	0.025	-	-0.011	0.309	-	-	-	-	-	-	-	PAVEMENT_GENERAL	Urban	F	1011101000011101	0000000000010000	-	car	678.441	58.008	0.000	0.000	180.000	696.000	987.000	-0.000	Terminate	
Unknown	126.98587	01/16/0117 10:37.28	00007619	13.555	Inter616t1-2	0.601	1	2	270.000	11.111	0.4	0.150	0.000	D	F	1688.5	270.339	0.200	-0.002	1285.017	1304.208	0.025	-	0.023	0.293	-	-	-	-	-	-	-	PAVEMENT_GENERAL	Urban	F	1011101000011101	0000000000010000	-	car	666.641	56.040	0.000	0.000	180.000	696.000	987.000	-0.000	Terminate	
Unknown	127.98589	01/16/0117 10:37.29	00007679	13.842	Inter616t1-2	0.688	1	2	270.000	11.111	-4.0	0.153	0.000	D	F	1706.2	270.312	0.199	0.020	1271.319	1304.295	0.025	-	-0.130	0.285	-	-	-	-	-	-	-	PAVEMENT_GENERAL	Urban	F	1111101000011101	0000000000010000	-	car	654.655	54.174	0.000	0.000	180.000	696.000	987.000	-0.000	Terminate	
Unknown	128.98592	01/16/0117 10:37.30	00007739	14.121	Inter616t1-2	0.670	1	2	270.000	11.111	1.8	0.155	0.000	D	F	1720.6	269.692	0.198	-0.007	1257.336	1304.277	0.025	-	0.029	0.273	-	-	-	-	-	-	-	PAVEMENT_GENERAL	Urban	F	1011101000011101	0000000000010000	-	car	642.437	52.103	0.000	0.000	180.000	696.000	987.000	-0.000	Terminate	
Unknown	129.98593	01/16/0117 10:37.31	00007799	14.384	Inter616t1-2	0.636	1	2	270.000	11.111	0.9	0.152	0.000	D	F	1733.5	270.022	0.198	-0.006	1243.083	1304.242	0.025	-	0.056	0.256	-	-	-	-	-	-	-	PAVEMENT_GENERAL	Urban	F	1011101000011101	0000000000010000	-	car	630.050	50.645	0.000	0.000	180.000	696.000	987.000	-0.000	Terminate	
Unknown	130.98595	01/16/0117 10:37.32	00007859	14.637	Inter616t1-2	0.652	1	2	270.000	11.111	0.2	0.152	0.000	D	F	1749.6	270.074	0.198	-0.002	1228.571	1304.259	0.025	-	0.002	0.250	-	-	-	-	-	-	-	PAVEMENT_GENERAL	Urban	F	1111101000011101	0000000000010000	-	car	617.548	49.146	0.000	0.000	180.000	696.000	987.000	-0.000	Terminate	
Unknown	131.98598	01/16/0117 10:37.33	00007919	14.869	Inter616t1-2	0.674	1	2	270.000	11.111	-0.1	0.148	0.000	D	F	1745.4	270.093	0.197	0.000	1213.814	1304.281	0.025	-	-0.000	0.208	-	-	-	-	-	-	-	PAVEMENT_GENERAL	Urban	F	1011101000011101	0000000000010000	-	car	604.929	47.762	0.000	0.000	180.000	696.000	987.000	-0.000	Terminate	
Unknown	132.98599	01/16/0117 10:37.34	00007979	15.077	Inter617t1-2	0.696	1	2	270.000	11.111	0.9	0.152	0.000	D	F	1766.2	270.081	0.197	-0.004	1198.843	1304.302	0.025	-	0.025	0.215	-	-	-	-	-	-	-	PAVEMENT_GENERAL	Urban	F	1011101000011101	0000000000010000	-	car	592.226	46.488	0.000	0.000	180.000	696.000	987.000	-0.000	Terminate	
Unknown	133.98601	01/16/0117 10:37.35	00008039	15.294	Inter617t1-2	0.741	1	2	270.000	11.111	-1.7	0.153	0.000	D	F	1785.2	270.282	0.196	0.002	1183.657	1304.348	0.026	-	-0.014	0.214	-	-	-	-	-	-	-	PAVEMENT_GENERAL	Urban	F	1011101000011101	0000000000010000	-	car	579.464	45.351	0.000	0.000	180.000	696.000	987.000	-0.000	Terminate	
Unknown	134.98604	01/16/0117 10:37.36	00008099	15.503	Inter617t1-2	0.761	1	2	270.000	11.111	-0.2	0.155	0.000	D	F	1800.6	269.830	0.196	0.009	1168.257	1304.368	0.026	-	-0.070	0.203	-	-	-	-	-	-	-	PAVEMENT_GENERAL	Urban	F	1011101000011101	0000000000010000	-	car	566.630	43.948	0.000	0.000	180.000	696.000	987.000	-0.000	Terminate	
Unknown	135.98605	01/16/0117 10:37.37	00008159	15.708	Inter617t1-2	0.703	1	2	270.000	11.111	-1.1	0.155	0.000	D	F	1816.4	269.699	0.196	0.007	1152.649	1304.310	0.026	-	-0.057	0.194	-	-	-	-	-	-	-	PAVEMENT_GENERAL	Urban	F	1011101000011101	0000000000010000	-	car	553.711	42.769	0.000	0.000	180.000	696.000	987.000	-0.000	Terminate	
Unknown	136.98607	01/16/0117 10:37.38	00008219	15.897	Inter617t1-2	0.594	1	2	270.000	11.111	0.2	0.155	0.000	D	F	1829.6	269.506	0.196	0.001	1136.846	1304.201	0.026	-	-0.015	0.191	-	-	-	-	-	-	-	PAVEMENT_GENERAL	Urban	F	1011101000011101	0000000000010000	-	car	540.744	41.649	0.000	0.000	180.000	696.000	987.000	-0.000	Terminate	
Unknown	137.98610	01/16/0117 10:37.39	00008279	16.065	Inter617t1-2	0.454	1	2	270.000	11.111	0.6	0.150	0.000	D	F	1831.6	269.506	0.195	-0.004	1120.863	1304.061	0.026	-	0.026	0.157	-	-	-	-	-	-	-	PAVEMENT_GENERAL	Urban	F	1011101000011101	0000000000010000	-	car	527.769	40.730	0.000	0.000	180.000	696.000	987.000	-0.000	Terminate	
Unknown	138.98611	01/16/0117 10:37.40	00008339	16.221	Inter617t1-2	0.332	1	2	270.000	11.111	1.5	0.148	0.000	D	F	1841.5	269.656	0.195	-0.009	1104.718	1303.939	0.026	-	0.068	0.151	-	-	-	-	-	-	-	PAVEMENT_GENERAL	Urban	F	1011101000011101	0000000000010000	-	car	514.845	39.979	0.000	0.000	180.000	696.000	987.000	-0.000	Terminate	
Unknown	139.98613	01/16/0117 10:37.41	00008399	16.364	Inter617t1-2	0.272	1	2	270.000	11.111	1.9	0.148	0.000	D	F	1851.3	269.961	0.194	-0.013	1088.425	1303.879	0.026	-	0.099	0.140	-	-	-	-	-	-	-	PAVEMENT_GENERAL	Urban	F	1011101000011101	0000000000010000	-	car	502.031	39.410	0.000	0.000	180.000	696.000	987.000	-0.000	Terminate	
Unknown	140.98616	01/16/0117 10:37.42	00008459	16.515	Inter617t1-2	0.317	1	2	270.000	11.111	4.7	0.152	0.000	D	F	1867.3	270.443	0.194	-0.032	1071.986	1303.923	0.026	-	0.223	0.155	-	-	-	-	-	-	-	PAVEMENT_GENERAL	Urban	F	1011101000011101	0000000000010000	-	car	489.378	39.011	0.000	0.000	180.000	696.000	987.000	-0.000	Terminate	
Unknown	141.98618	01/16/0117 10:37.43	00008519	16.655	Inter617t1-2	0.496	1	2	270.000	11.111	-2.6	0.148	0.000	D	F	1872.7	270.596	0.194	0.021	1055.401	1304.103	0.026	-	-0.126	0.135	-	-	-	-	-	-	-	PAVEMENT_GENERAL	Urban	F	1011101000011101	0000000000010000	-	car	476.935	38.544	0.000	0.000	180.000	696.000	987.000	-0.000	Terminate	
Unknown	142.98619	01/16/0117 10:37.44	00008579	16.779	Inter617t1-2	0.613	1	2	270.000	11.111	0.1	0.141	0.000	D	F	1866.1	270.248	0.193	-0.002	1038.681	1304.220	0.026	R	-0.022	0.097	-	-	-	-	-	-	-	PAVEMENT_GENERAL	Urban	F	1011101001011101	0000000000010000	-	car	464.608	37.884	0.000	0.000	180.000	696.000	987.000	-0.000	Terminate	
Unknown	143.98621	01/16/0117 10:37.45	00008639	16.874	Inter617t1-2	0.797	1	2	270.000	11.111	9.7	0.143	0.000	D	F	1870.0	271.264	0.193	-0.061	1021.855	1304.404	0.026	R	0.468	0.097	-	-	-	-	-	-	-	PAVEMENT_GENERAL	Urban	F	1011101001011101	0000000000010000	-	car	452.532	38.269	0.000	0.000	180.000	696.000	987.000	-0.000	Terminate	
Unknown	144.98624	01/16/0117 10:37.46	00008699	16.960	Inter617t1-2	1.486	1	2	270.000	11.111	8.0	0.143	0.000	D	F	1875.5	273.520	0.192	-0.065	1004.953	1305.093	0.026	R	0.539	0.088	-	-	-	-	-	-	-	PAVEMENT_GENERAL	Urban	F	1011101001011101	0000000000010000	-	car	441.076	39.926	0.000	0.000	180.000	696.000	987.000	-0.000	Terminate	
Unknown	145.98625	01/16/0117 10:37.47	00008759	17.042	Inter618t1-1	-1.551	2	2	269.943	24.444	-7.0	0.138	0.000	D	F	1877.4	274.858	0.288	-0.077	987.997	1306.347	0.036	R	-0.073	0.087	31	49.8	6.020	31	-0.216	-3.677	-0.343	FREEWAY_SMOOTH	Urban	F	1011101001011101	0000000000010000	-	car	430.358	41.406	0.000	0.000	180.000	696.000	987.000	-0.000	Terminate	
Unknown	146.98627	01/16/0117 10:37.48	00008819	17.095	Inter618t1-1	-0.686	2	2	269.402	24.444	-33.1	0.141	0.000	D	F	1881.1	268.553	0.274	-0.009	970.949	1307.132	0.068	R	-2.512	0.065	-	-	-	-	-	-	-	FREEWAY_SMOOTH	Urban	F	1011101001011101	0000000000010000	-	car	419.637	36.611	0.000	0.000	180.000	696.000	987.000	-0.000	Terminate	
Unknown	147.98630	01/16/0117 10:37.49	00008879	17.155	Inter618t1-1	-1.638	2	2	268.290	24.444	-3.7	0.138	0.000	D	F	1887.8	263.474	0.229	-0.525	953.882	1305.856	0.087	-	-0.527	0.082	-	-	-	-	-	-	-	FREEWAY_SMOOTH	Urban	F	1011101000011101	0000000000010000	-	car	407.729	33.328	0.000	0.000	180.000	696.000	987.000	-0.000	Terminate	
Unknown	148.98631	01/16/0117 10:37.50	00008939	17.230	Inter618t1-0	0.605	1	2	266.608	24.444	-2.1	0.136	0.000	D	F	1891.4	262.463	0.202	-0.784	936.817	1303.761	0.094	-	-0.254	0.074	-	-	-	-	-	-	-	FREEWAY_SMOOTH	Urban	F	1011101000011101	0000000000010000	-	car	395.548	32.592	0.000	0.000	180.000	696.000	987.000	-0.000	Terminate	
Unknown	149.98633	01/16/0117 10:37.51	00008999	17.300	Inter618t1-0	-0.396	1	2	264.332	24.444	0.1	0.134	0.000	D	F	1898.2	262.195	0.204	-1.051	919.710	1301.427	0.096	-	-0.050	0.064	-	-	-	-	-	-	-	FREEWAY_SMOOTH	Urban	F	1011101000011101	0000000000010000	-	car	383.529	32.364	0.000	0.000	180.000	696.000	987.000	-0.000	Terminate	
Unknown	150.98636	01/16/0117 10:37.52	00009059	17.360	Inter618t1-0	-0.759	1	2	261.465	24.444	-3.9	0.138	0.000	D	F	1902.2	261.332	0.236	-1.252	902.556	1298.952	0.104	-	-0.343	0.053	-	-	-	-	-	-	-	FREEWAY_SMOOTH	Urban	F	1011101000011101	0000000000010000	-	car	371.779	31.896	0.000	0.000	180.000	696.000	987.000	-0.000	Terminate	
Unknown	151.98637	01/16/0117 10:37.53	00009119	17.404	Inter618t1-0	-0.572	1	2	257.986	24.444	-13.9	0.134	0.000	D	F	1901.9	259.048	0.261	-1.396	885.413	1296.068	0.124	-	-1.039	0.031	-	-	-	-	-	-	-	FREEWAY_SMOOTH	Urban	F	1011101000011101	0000000000010000	-	car	360.133	30.655	0.000	0.000	180.000	696.000	987.000	-0.000	Terminate	
Unknown	152.98639	01/16/0117 10:37.54	00009179	17.434	Inter618t1-0	-0.165	1	2	253.950	24.444	-18.3	0.134	0.000	D	F	1905.8	255.529	0.260	-1.593	868.414	1292.278	0.151	-	-1.280	0.033	-	-	-	-	-	-	-	FREEWAY_SMOOTH	Urban	F	1011101000011101	0000000000010000	-	car	348.241	28.792	0.000	0.000	180.000	696.000	987.000	-0.000	Terminate	
Unknown	153.98642	01/16/0117 10:37.55	00009239	17.447	Inter618t1-0	0.235	1	2	249.694	24.444	-19.9	0.136	0.000	D	F	1904.9	250.513	0.208	-1.552	851.720	1287.243	0.163	-	-1.566	0.021	-	-	-	-	-	-	-	FREEWAY_SMOOTH	Urban	F	1011101000011101	0000000000010000	-	car	335.863	26.365	0.000	0.000	180.000	696.000	987.000	-0.000	Terminate	
Unknown	154.98643	01/16/0117 10:37.56	00009299	17.465	Inter618t1-0	0.370	1	2	245.428	24.444	-20.8	0.136	0.000	D	F	1909.0	245.227	0.178	-1.541	835.532	1280.728	0.167	-	-1.637	0.040	-	-	-	-	-	-	-	FREEWAY_SMOOTH	Urban	F	1011101000011101	0000000000010000	-	car	322.826	24.065	0.000	0.000	180.000	696.000	987.000	-0.000	Terminate	
Unknown	155.98645	01/16/0117 10:37.57	00009359	17.484	Inter618t1-0	0.224	1	2	241.170	24.444	-17.0	0.134	0.000	D	F	1906.7	240.389	0.163	-1.585	819.980	1272.768	0.163	-	-1.355	0.037	-	-	-	-	-	-	-	FREEWAY_SMOOTH	Urban	F	1111101000011101	0000000000010000	-	car	309.144	22.121	0.000	0.000	180.000	696.000	987.000	-0.000	Terminate	
Unknown	156.98647	01/16/0117 10:37.58	00009419	17.508	Inter618t1-0	0.004	1	2	236.889	24.444	-15.3	0.136	0.000	D	F	1911.2	236.155	0.159	-1.594	805.084	1263.598	0.156	-	-1.245	0.030	-	-	-	-	-	-	-	FREEWAY_SMOOTH	Urban	F	1011101000011101	0000000000010000	-	car	294.971	20.476	0.000	0.000	180.000	696.000	987.000	-0.000	Terminate	
Unknown	157.98650	01/16/0117 10:37.59	00009479	17.533	Inter618t1-0	-0.144	1	2	232.580	24.444	-14.2	0.136	0.000	D	F	1913.6	232.334	0.179	-1.609	790.851	1253.384	0.151	-	-1.136	0.032	-	-	-	-	-	-	-	FREEWAY_SMOOTH	Urban	F	1011101000011101	0000000000010000	-	car	280.408	19.013	0.000	0.000	180.000	696.000	987.000	-0.000	Terminate	
Unknown	158.98651	01/16/0117 10:38.00	00009539	17.558	Inter618t1-0	-0.132	1	2	228.310	24.444	-15.6	0.134	0.000	D	F	1916.6	228.545	0.193	-1.598	777.301	1242.241	0.152	-	-1.214	0.031	-	-	-	-	-	-	-	FREEWAY_SMOOTH	Urban	F	1011101000011101	0000000000010000	-	car	265.517	17.619	0.000	0.000	180.000	696.000	987.000	-0.000	Terminate	
Unknown	159.98653	01/16/0117 10:38.01	00009599	17.575	Inter618t1-0	-0.015	1	2	224.012	24.444	-17.5	0.132	0.000	D	F	1914.8	224.354	0.192	-1.580	764.535	1230.175	0.155	-	-1.357	0.011	-	-	-	-	-	-	-	FREEWAY_SMOOTH	Urban	F	1011101000011101	0000000000010000	-	car	250.289	16.222	0.000	0.000	180.000	696.000	987.000	-0.000	Terminate	
Unknown	160.98656	01/16/0117 10:38.02	00009659	17.581	Inter618t1-0	0.056	1	2	219.702	24.444	-18.4	0.131	0.000	D	F	1914.3	219.658	0.182	-1.567	752.737	1217.149	0.158	-	-1.451	0.014	-	-	-	-	-	-	-	FREEWAY_SMOOTH	Urban	F	1011101000011101	0000000000010000	-	car	234.680	14.827	0.000	0.000	180.000	696.000	987.000	-0.000	Terminate	
Unknown	161.98657	01/16/0117 10:38.03	00009719	17.583	Inter618t1-0	-0.029	1	2	215.411	24.444	-19.9	0.131	0.000	D	F	1913.9	214.618	0.160	-1.551	742.070	1203.177	0.155	-	-1.587	0.013	-	-	-	-	-	-	-	FREEWAY_SMOOTH	Urban	F	1011101000011101	0000000000010000	-	car	218.672	13.470	0.000	0.000	180.000	696.000	987.000	-0.000	Terminate	
Unknown	162.98659	01/16/0117 10:38.04	00009779	17.583	Inter618t1-0	-0.380	1	2	211.115	24.444	-22.3	0.131	0.000	D	F	1912.8	209.299	0.128	-1.528	732.705	1188.302	0.145	-	-1.717	0.012	-	-	-	-	-	-	-	FREEWAY_SMOOTH	Urban	F	1011101000011101	0000000000010000	-	car	202.261	12.164	0.000	0.000	180.000	696.000	987.000	-0.000	Terminate	
Unknown	163.98662	01/16/0117 10:38.05	00009839	17.591	Inter618t1-0	-1.038	1	2	206.799	24.444	-4.3	0.132	0.000	D	F	1916.6	204.683	0.121	-1.677	724.755	1172.621	0.125	-	-0.738	0.024	-	-	-	-	-	-	-	FREEWAY_SMOOTH	Urban	F	1011101000011101	0000000000010000	-	car	185.476	10.962	0.000	0.000	180.000	696.000	987.000	-0.000	Terminate	
Unknown	164.98663	01/16/0117 10:38.06	00009899	17.608	Inter618t1-0	-1.287	1	2	202.460	24.444	-8.4	0.131	0.000	D	F	1921.1	202.951	0.201	-1.674	717.624	1156.531	0.117	-	-0.649	0.019	-	-	-	-	-	-	-	FREEWAY_SMOOTH	Urban	F	1011101000011101	0000000000010000	-	car	168.545	9.942	0.000	0.000	180.000	696.000	987.000	-0.000	Terminate	
Unknown	165.98665	01/16/0117 10:38.07	00009959	17.617	Inter618t1-0	-0.846	1	2	198.151	24.444	-13.9	0.129	0.000	D	F	1915.2	200.595	0.259	-1.633	711.077	1140.178	0.130	-	-0.912	-0.005	-	-	-	-	-	-	-	FREEWAY_SMOOTH	Urban	F	1011101000011101	0000000000010000	-	car	151.559	8.906	0.000	0.000	180.000	696.000	987.000	-0.000	Terminate	
Unknown	166.98668	01/16/0117 10:38.08	00010019	17.491	Inter618t1-0	-0.112	1	2	193.889	24.444	-21.4	0.093	0.000	D	F	1852.1	195.651	0.174	-1.437	705.511	1123.518	0.147	-	-1.727	-0.177	-	-	-	-	-	-	-	FREEWAY_SMOOTH	Urban	F	1011101000011101	0000000000010000	-	car	134.490	7.851	0.000	0.000	180.000	696.000	987.000	-0.000	Terminate	
Unknown	167.98669	01/16/0117 10:38.09	00010079	17.342	Inter618t1-0	0.223	1	2	190.154	24.444	-17.7	0.101	0.000	D	F	1853.9	190.318	0.127	-1.235	701.554	1106.568	0.138	-	-1.469	-0.119	-	-	-	-	-	-	-	FREEWAY_SMOOTH	Urban	F	1011101000011101	0000000000010000	-	car	117.337	6.827	0.000	0.000	180.000	696.000	987.000	-0.000	Terminate	
Unknown	168.98671	01/16/0117 10:38.10	00010139	17.210	Inter618t1-0	0.122	1	2	187.020	24.444	-14.0	0.101	0.000	D	F	1839.5	185.947	0.103	-1.030	699.072	1089.474	0.117	-	-1.182	-0.120	-	-	-	-	-	-	-	FREEWAY_SMOOTH	Urban	F	1011101000011101	0000000000010000	-	car	100.161	5.836	0.000	0.000	180.000	696.000	987.000	-0.000	Terminate	
Unknown	169.98674	01/16/0117 10:38.11	00010199	17.081	Inter618t1-0	-0.246	1	2	184.467	24.444	-9.9	0.099	0.000	D	F	1826.8	183.037	0.111	-0.846	697.723	1072.383	0.093	-	-0.762	-0.130	-	-	-	-	-	-	-	FREEWAY_SMOOTH	Urban	F	1011101000011101	0000000000010000	-	car	83.041	4.864	0.000	0.000	180.000	696.000	987.000	-0.000	Terminate	
Unknown	170.98676	01/16/0117 10:38.12	00010259	16.955	Inter618t1-0	-0.641	1	2	182.504	24.444	-4.3	0.099	0.000	D	F	1818.5	181.440	0.128	-0.667	697.086	1055.378	0.072	-	-0.317	-0.124	-	-	-	-	-	-	-	FREEWAY_SMOOTH	Urban	F	1011101000011101	0000000000010000	-	car	66.027	3.894	0.000	0.000	180.000	696.000	987.000	-0.000	Terminate	
Unknown	171.98677	01/16/0117 10:38.13	00010319	16.835	Inter618t1-0	-0.897	1	2	181.110	24.444	-5.2	0.099	0.000	D	F	1806.9	180.344	0.139	-0.427	696.818	1038.485	0.055	-	-0.336	-0.121	-	-	-	-	-	-	-	FREEWAY_SMOOTH	Urban	F	1011101000011101	0000000000010000	-	car	49.132	2.919	0.000	0.000	180.000	696.000	987.000	-0.000	Terminate	
Unknown	172.98679	01/16/0117 10:38.14	00010379	16.721	Inter618t1-0	-1.172	1	2	180.274	24.444	-5.4	0.099	0.000	D	F	1800.0	179.032	0.143	-0.192	696.900	1021.708	0.040	-	-0.351	-0.110	-	-	-	-	-	-	-	FREEWAY_SMOOTH	Urban	F	1011101000011101	0000000000010000	-	car	32.445	2.015	0.600	2.000	179.866	696.000	986.915	-0.000	Terminate	
Unknown	173.98682	01/16/0117 10:38.15	00010439	16.615	Inter618t1-0	-1.665	1	2	180.001	24.444	-3.9	0.099	0.000	D	F	1789.9	177.510	0.154	0.038	697.365	1005.048	0.027	-	-0.387	-0.102	-	-	-	-	-	-	-	FREEWAY_SMOOTH	Urban	F	1011101000011101	0000000000010000	-	car	17.396	1.248	2.600	2.000	176.629	696.091	985.334	-0.000	Terminate	
Unknown	174.98683	01/16/0117 10:38.16	00010499	16.522	Inter686t1-0	-1.657	1	1	180.000	11.111	8.9	0.101	0.000	D	F	1781.8	178.315	0.191	-0.077	698.053	988.494	0.027	-	0.565	-0.091	-	-	-	car	0.122	2.020	0.169	PAVEMENT_GENERAL	Urban	F	1011101000011101	0000000000010000	-	car	4.610	0.402	4.600	2.000	177.342	696.275	981.755	-0.000	Terminate	
Unknown	175.98685	01/16/0117 10:38.17	00010559	16.430	-	-	CL	0	-	-	10.9	0.097	0.000	D	F	1772.1	180.716	0.190	-0.096	698.243	972.020	0.027	-	0.743	-0.091	-	-	-	-	-	-	-	PAVEMENT_GENERAL	Urban	F	1011101000011101	0000000000010000	-	car	3.269	-0.263	3.150	-0.500	179.086	696.376	977.330	-0.000	Terminate	
Unknown	176.98688	01/16/0117 10:38.18	00010619	16.329	Inter686t1-0	-1.440	1	1	180.000	11.111	-13.4	0.095	0.000	D	F	1760.1	181.494	0.191	0.081	697.836	955.646	0.027	-	-0.547	-0.104	-	-	-	-	-	-	-	PAVEMENT_GENERAL	Urban	F	1011101000011101	0000000000010000	-	car	16.195	-1.307	3.858	2.000	179.744	696.394	974.144	-0.000	Terminate	
Unknown	177.98689	01/16/0117 10:38.19	00010679	16.227	Inter686t1-0	-1.470	1	1	180.000	11.111	2.3	0.099	0.000	D	F	1757.9	178.132	0.188	0.029	697.867	939.371	0.027	-	-0.373	-0.087	-	-	-	-	-	-	-	PAVEMENT_GENERAL	Urban	F	1011101000011101	0000000000010000	-	car	27.607	-2.661	5.858	2.000	179.983	696.398	969.302	-0.000	Terminate	
Unknown	178.98691	01/16/0117 10:38.20	00010739	16.138	Inter686t1-0	-1.764	1	1	180.000	11.111	10.3	0.099	0.000	D	F	1744.3	180.367	0.190	-0.103	698.160	923.191	0.027	-	0.788	-0.094	-	-	-	-	-	-	-	PAVEMENT_GENERAL	Urban	F	1011101000011101	0000000000010000	-	car	36.949	-4.470	7.858	2.000	180.012	696.397	962.460	-0.000	Terminate	
Unknown	179.98694	01/16/0117 10:38.21	00010799	16.053	Inter686t1-0	-1.592	1	1	180.000	11.111	-6.0	0.101	0.000	D	F	1743.7	180.057	0.193	0.061	697.988	907.099	0.027	-	-0.465	-0.072	-	-	-	-	-	-	-	PAVEMENT_GENERAL	Urban	F	1011101000011101	0000000000010000	-	car	44.187	-7.138	9.858	2.000	180.007	696.397	953.618	-0.000	Terminate	
Unknown	180.98695	01/16/0117 10:38.22	00010859	15.990	Inter686t1-0	-1.525	1	1	180.000	11.111	9.0	0.102	0.000	D	F	1740.5	181.202	0.192	-0.082	697.921	891.078	0.027	-	0.634	-0.061	-	-	-	-	-	-	-	PAVEMENT_GENERAL	Urban	F	1011101000011101	0000000000010000	-	car	49.361	-11.991	11.859	2.000	180.006	696.397	942.776	-0.000	Terminate	
