ZoneName	Time	SystemTime	Frame	Velocity	LaneName	LanePos	LaneIndex	LaneCount	LaneHeading	SpeedLimit	Steer	Accel	Brake	Gear	Horn	SubjectEngineRPM	SubjectHeading	SubjectPitch	SubjectRoll	SubjectX	SubjectY	SubjectZ	Signal	LatAccel	LongAccel	Collision	CollisionAngle	CollisionVelocity	VehAhead	HeadwayTime	HeadwayDist	TTC	TerrainType	CultureType	Slip	DigitalInputs	DigitalInputs2	ActiveTrigger	EntityName	DistToEntity	TimeToEntity	EntityVelocity	EntityAccel	EntityHeading	EntityX	EntityY	EntityZ	GrabData	
Unknown	0.98335	01/16/0117 10:05.23	00000059	0.002	Inter625t13-0	-0.088	1	2	0.000	11.111	4.1	0.000	0.000	D	F	0.0	0.001	0.153	-0.001	1503.500	523.206	0.019	-	-0.000	0.000	-	-	-	-	-	-	-	PAVEMENT_GENERAL	Urban	F	1011101000011101	0000000000010000	-	car	928.855	774720.375	0.000	0.000	180.000	696.000	987.000	-0.000	Terminate	
Unknown	1.98337	01/16/0117 10:05.24	00000119	0.000	Inter625t13-0	-0.088	1	2	0.000	11.111	2.1	0.000	0.000	D	F	0.0	0.001	0.197	-0.000	1503.500	523.208	0.026	-	0.000	-0.001	-	-	-	-	-	-	-	PAVEMENT_GENERAL	Urban	F	1011101000011101	0000000000010000	-	car	928.855	4213441.000	0.000	0.000	180.000	696.000	987.000	-0.000	Terminate	
Unknown	2.98339	01/16/0117 10:05.25	00000179	-0.000	Inter625t13-0	-0.088	1	2	0.000	11.111	2.0	0.000	0.000	D	F	0.0	0.001	0.207	-0.000	1503.500	523.208	0.028	-	0.000	-0.000	-	-	-	-	-	-	-	PAVEMENT_GENERAL	Urban	F	1011101000011101	0000000000010000	-	car	928.854	-116136376.000	0.000	0.000	180.000	696.000	987.000	-0.000	Terminate	
Unknown	3.98341	01/16/0117 10:05.26	00000239	0.000	Inter625t13-0	-0.088	1	2	0.000	11.111	1.4	0.000	0.000	D	F	133.3	0.001	0.209	-0.000	1503.500	523.208	0.028	-	0.000	0.000	-	-	-	-	-	-	-	PAVEMENT_GENERAL	Urban	F	1011101000011111	0000000000010000	-	car	928.854	14416339.000	0.000	0.000	180.000	696.000	987.000	-0.000	Terminate	
Unknown	4.98343	01/16/0117 10:05.27	00000299	0.003	Inter625t13-0	-0.088	1	2	0.000	11.111	0.9	0.000	0.000	D	F	466.7	0.001	0.209	-0.000	1503.500	523.208	0.028	-	0.000	0.013	-	-	-	-	-	-	-	PAVEMENT_GENERAL	Urban	F	1011101000011101	0000000000010000	-	car	928.854	701228.250	0.000	0.000	180.000	696.000	987.000	-0.000	Terminate	
Unknown	5.98345	01/16/0117 10:05.28	00000359	0.126	Inter625t13-0	-0.088	1	2	0.000	11.111	0.6	0.041	0.000	D	F	663.4	0.002	0.205	0.000	1503.500	523.239	0.023	-	-0.000	0.387	-	-	-	-	-	-	-	PAVEMENT_GENERAL	Urban	F	1011101000011101	0000000000010000	-	car	928.839	14830.244	0.000	0.000	180.000	696.000	987.000	-0.000	Terminate	
Unknown	6.98347	01/16/0117 10:05.29	00000419	0.753	Inter625t13-0	-0.088	1	2	0.000	11.111	2.2	0.034	0.000	D	F	748.9	0.018	0.208	-0.000	1503.500	523.676	0.023	-	0.002	0.638	-	-	-	-	-	-	-	PAVEMENT_GENERAL	Urban	F	1011101000011101	0000000000010000	-	car	928.622	2479.686	0.000	0.000	180.000	696.000	987.000	-0.000	Terminate	
Unknown	7.98349	01/16/0117 10:05.30	00000479	1.951	Inter625t13-0	-0.083	1	2	0.000	11.111	6.7	0.063	0.000	D	F	1070.2	0.134	0.216	-0.001	1503.505	524.958	0.020	-	0.011	1.344	-	-	-	-	-	-	-	PAVEMENT_GENERAL	Urban	F	1011101000011101	0000000000010000	-	car	927.988	961.493	0.000	0.000	180.000	696.000	987.000	-0.000	Terminate	
Unknown	8.98351	01/16/0117 10:05.31	00000539	3.053	Inter625t13-0	-0.058	1	2	0.000	11.111	10.5	0.062	0.000	D	F	1174.4	0.547	0.210	-0.008	1503.530	527.499	0.022	-	0.050	0.900	-	-	-	-	-	-	-	PAVEMENT_GENERAL	Urban	F	1011101000011101	0000000000010000	-	car	926.751	624.231	0.000	0.000	180.000	696.000	987.000	-0.000	Terminate	
Unknown	9.98353	01/16/0117 10:05.32	00000599	3.794	Inter625t13-0	0.016	1	2	0.000	11.111	4.2	0.062	0.000	D	F	1265.3	1.265	0.211	0.000	1503.604	530.940	0.023	-	-0.009	0.676	-	-	-	-	-	-	-	PAVEMENT_GENERAL	Urban	F	1011101000011101	0000000000010000	-	car	925.118	516.170	0.000	0.000	180.000	696.000	987.000	-0.000	Terminate	
Unknown	10.98355	01/16/0117 10:05.33	00000659	4.523	Inter625t49-0	0.105	1	1	0.005	11.111	-0.6	0.081	0.000	D	F	1444.4	1.166	0.210	-0.003	1503.693	535.091	0.023	-	0.012	0.746	-	-	-	-	-	-	-	PAVEMENT_GENERAL	Urban	F	1011101000011101	0000000000010000	-	car	923.162	433.846	0.000	0.000	180.000	696.000	987.000	-0.000	Terminate	
Unknown	11.98357	01/16/0117 10:05.34	00000719	5.256	Inter625t49-0	0.221	1	1	0.006	11.111	4.4	0.081	0.000	D	F	1296.1	1.512	0.209	-0.006	1503.810	539.983	0.023	-	0.034	0.648	-	-	-	-	-	-	-	PAVEMENT_GENERAL	Urban	F	1011101000011101	0000000000010000	-	car	920.885	380.144	0.000	0.000	180.000	696.000	987.000	-0.000	Terminate	
Unknown	12.98359	01/16/0117 10:05.35	00000779	5.930	Inter625t49-0	0.384	1	1	0.007	11.111	0.0	0.122	0.000	D	F	1432.1	1.688	0.214	0.000	1503.973	545.553	0.022	-	-0.001	0.877	-	-	-	-	-	-	-	PAVEMENT_GENERAL	Urban	F	1011101000011101	0000000000010000	-	car	918.345	341.545	0.000	0.000	180.000	696.000	987.000	-0.000	Terminate	
Unknown	13.98361	01/16/0117 10:05.36	00000839	6.715	Inter625t49-0	0.561	1	1	0.008	11.111	-5.7	0.111	0.000	D	F	1453.8	1.508	0.209	0.014	1504.151	551.890	0.023	-	-0.099	0.725	-	-	-	-	-	-	-	PAVEMENT_GENERAL	Urban	F	1011101000011101	0000000000010000	-	car	915.480	302.497	0.000	0.000	180.000	696.000	987.000	-0.000	Terminate	
Unknown	14.98363	01/16/0117 10:05.37	00000899	7.356	Inter625t49-0	0.693	1	1	0.006	11.111	-2.6	0.106	0.000	D	F	1478.0	0.904	0.207	0.004	1504.284	558.933	0.023	-	-0.043	0.591	-	-	-	-	-	-	-	PAVEMENT_GENERAL	Urban	F	1011101000011101	0000000000010000	-	car	912.279	273.160	0.000	0.000	180.000	696.000	987.000	-0.000	Terminate	
Unknown	15.98365	01/16/0117 10:05.38	00000959	7.886	Inter625t49-0	0.780	1	1	0.005	11.111	-3.9	0.108	0.000	D	F	1512.0	0.512	0.207	0.013	1504.372	566.560	0.024	-	-0.079	0.502	-	-	-	-	-	-	-	PAVEMENT_GENERAL	Urban	F	1011101000011101	0000000000010000	-	car	908.813	254.125	0.000	0.000	180.000	696.000	987.000	-0.000	Terminate	
Unknown	16.98367	01/16/0117 10:05.39	00001019	8.370	Inter625t49-0	0.798	1	1	0.005	11.111	-1.7	0.111	0.000	D	F	1552.7	359.915	0.206	0.004	1504.391	574.691	0.024	-	-0.037	0.462	-	-	-	-	-	-	-	PAVEMENT_GENERAL	Urban	F	1011101000011101	0000000000010000	-	car	905.106	237.319	0.000	0.000	180.000	696.000	987.000	-0.000	Terminate	
Unknown	17.98369	01/16/0117 10:05.40	00001079	8.856	Inter625t15-0	0.777	1	2	0.000	11.111	-0.3	0.120	0.000	D	F	1615.3	359.866	0.206	0.000	1504.370	583.298	0.024	-	-0.005	0.504	-	-	-	-	-	-	-	PAVEMENT_GENERAL	Urban	F	1011101000011101	0000000000010000	-	car	901.210	226.712	0.000	0.000	180.000	696.000	987.000	-0.000	Terminate	
Unknown	18.98371	01/16/0117 10:05.41	00001139	9.346	Inter625t15-0	0.745	1	2	0.000	11.111	-0.9	0.131	0.000	D	F	1681.9	359.742	0.206	0.003	1504.338	592.398	0.024	-	-0.024	0.508	-	-	-	-	-	-	-	PAVEMENT_GENERAL	Urban	F	1011101000011101	0000000000010000	-	car	897.152	216.829	0.000	0.000	180.000	696.000	987.000	-0.000	Terminate	
Unknown	19.98373	01/16/0117 10:05.42	00001199	9.825	Inter614t1-0	0.687	1	2	0.000	11.111	-1.1	0.131	0.000	D	F	1735.8	359.577	0.205	0.004	1504.280	601.985	0.024	-	-0.033	0.466	-	-	-	-	-	-	-	PAVEMENT_GENERAL	Urban	F	1011101000011101	0000000000010000	-	car	892.935	208.111	0.000	0.000	180.000	696.000	987.000	-0.000	Terminate	
Unknown	20.98375	01/16/0117 10:05.43	00001259	10.292	Inter614t1-0	0.593	1	2	0.000	11.111	-1.1	0.129	0.000	D	F	1549.3	359.375	0.203	0.005	1504.186	612.043	0.024	-	-0.036	0.435	-	-	-	-	-	-	-	PAVEMENT_GENERAL	Urban	F	1011101000011101	0000000000010000	-	car	888.571	200.450	0.000	0.000	180.000	696.000	987.000	-0.000	Terminate	
Unknown	21.98377	01/16/0117 10:05.44	00001319	10.680	Inter614t1-0	0.459	1	2	0.000	11.111	-0.3	0.132	0.000	D	F	1511.6	359.184	0.203	0.003	1504.052	622.534	0.025	-	-0.018	0.361	-	-	-	-	-	-	-	PAVEMENT_GENERAL	Urban	F	1011101000011101	0000000000010000	-	car	884.085	195.192	0.000	0.000	180.000	696.000	987.000	-0.000	Terminate	
Unknown	22.98379	01/16/0117 10:05.45	00001379	11.020	Inter614t1-0	0.330	1	2	0.000	11.111	3.0	0.127	0.000	D	F	1516.3	359.540	0.202	-0.014	1503.923	633.388	0.025	-	0.104	0.322	-	-	-	-	-	-	-	PAVEMENT_GENERAL	Urban	F	1011101000011101	0000000000010000	-	car	879.560	195.476	0.000	0.000	180.000	696.000	987.000	-0.000	Terminate	
Unknown	23.98381	01/16/0117 10:05.46	00001439	11.344	Inter614t1-0	0.288	1	2	0.000	11.111	1.5	0.131	0.000	D	F	1535.3	0.000	0.202	-0.007	1503.881	644.570	0.025	-	0.057	0.317	-	-	-	-	-	-	-	PAVEMENT_GENERAL	Urban	F	1011101000011101	0000000000010000	-	car	875.097	197.296	0.000	0.000	180.000	696.000	987.000	-0.000	Terminate	
Unknown	24.98383	01/16/0117 10:05.47	00001499	11.662	Inter614t1-0	0.302	1	2	0.000	11.111	1.0	0.131	0.000	D	F	1554.1	0.155	0.202	-0.005	1503.895	656.073	0.025	-	0.037	0.308	-	-	-	-	-	-	-	PAVEMENT_GENERAL	Urban	F	1011101000011101	0000000000010000	-	car	870.685	198.280	0.000	0.000	180.000	696.000	987.000	-0.000	Terminate	
Unknown	25.98385	01/16/0117 10:05.48	00001559	11.948	Inter614t1-0	0.354	1	2	0.000	11.111	0.8	0.129	0.000	D	F	1560.3	0.345	0.201	-0.004	1503.947	667.881	0.025	-	0.032	0.274	-	-	-	-	-	-	-	PAVEMENT_GENERAL	Urban	F	1011101000011101	0000000000010000	-	car	866.327	200.425	0.000	0.000	180.000	696.000	987.000	-0.000	Terminate	
Unknown	26.98387	01/16/0117 10:05.49	00001619	12.216	Inter614t1-0	0.435	1	2	0.000	11.111	0.1	0.127	0.000	D	F	1567.6	0.400	0.200	-0.001	1504.028	679.965	0.025	-	0.004	0.248	-	-	-	-	-	-	-	PAVEMENT_GENERAL	Urban	F	1011101000011101	0000000000010000	-	car	862.036	202.390	0.000	0.000	180.000	696.000	987.000	-0.000	Terminate	
Unknown	27.98389	01/16/0117 10:05.50	00001679	12.455	Inter614t1-0	0.513	1	2	0.000	11.111	-0.9	0.123	0.000	D	F	1574.8	0.307	0.200	0.006	1504.106	692.302	0.025	-	-0.034	0.227	-	-	-	-	-	-	-	PAVEMENT_GENERAL	Urban	F	1011101000011101	0000000000010000	-	car	857.805	204.029	0.000	0.000	180.000	696.000	987.000	-0.000	Terminate	
Unknown	28.98391	01/16/0117 10:05.51	00001739	12.676	Inter614t1-0	0.563	1	2	0.000	11.111	-1.0	0.125	0.000	D	F	1584.8	0.150	0.200	0.005	1504.156	704.868	0.025	-	-0.039	0.215	-	-	-	-	-	-	-	PAVEMENT_GENERAL	Urban	F	1011101000011101	0000000000010000	-	car	853.628	205.858	0.000	0.000	180.000	696.000	987.000	-0.000	Terminate	
Unknown	29.98393	01/16/0117 10:05.52	00001799	12.872	Inter614t1-0	0.573	1	2	0.000	11.111	-2.0	0.123	0.000	D	F	1585.4	359.927	0.199	0.010	1504.167	717.645	0.026	-	-0.073	0.189	-	-	-	-	-	-	-	PAVEMENT_GENERAL	Urban	F	1011101000011101	0000000000010000	-	car	849.512	207.931	0.000	0.000	180.000	696.000	987.000	-0.000	Terminate	
Unknown	30.98395	01/16/0117 10:05.53	00001859	13.007	Inter614t1-0	0.509	1	2	0.000	11.111	-3.0	0.106	0.000	D	F	1542.9	359.471	0.198	0.016	1504.102	730.598	0.026	-	-0.127	0.081	-	-	-	-	-	-	-	PAVEMENT_GENERAL	Urban	F	1011101000011101	0000000000010000	-	car	845.444	208.855	0.000	0.000	180.000	696.000	987.000	-0.000	Terminate	
Unknown	31.98397	01/16/0117 10:05.54	00001919	13.140	Inter614t1-0	0.367	1	2	0.000	11.111	7.4	0.120	0.000	D	F	1586.7	359.644	0.198	-0.044	1503.960	743.666	0.026	-	0.294	0.144	-	-	-	-	-	-	-	PAVEMENT_GENERAL	Urban	F	1011101000011101	0000000000010000	-	car	841.448	217.579	0.000	0.000	180.000	696.000	987.000	-0.000	Terminate	
Unknown	32.98399	01/16/0117 10:05.55	00001979	13.297	Inter614t1-0	0.409	1	2	0.000	11.111	0.8	0.123	0.000	D	F	1599.4	0.429	0.199	-0.005	1504.003	756.884	0.026	-	0.033	0.155	-	-	-	-	-	-	-	PAVEMENT_GENERAL	Urban	F	1011101000011101	0000000000010000	-	car	837.772	236.235	0.000	0.000	180.000	696.000	987.000	-0.000	Terminate	
Unknown	33.98401	01/16/0117 10:05.56	00002039	13.457	Inter614t1-0	0.523	1	2	0.000	11.111	0.5	0.123	0.000	D	F	1611.9	0.541	0.198	-0.003	1504.116	770.261	0.026	-	0.022	0.156	-	-	-	-	-	-	-	PAVEMENT_GENERAL	Urban	F	1011101000011101	0000000000010000	-	car	834.317	248.089	0.000	0.000	180.000	696.000	987.000	-0.000	Terminate	
Unknown	34.98403	01/16/0117 10:05.57	00002099	13.603	Inter614t1-0	0.640	1	2	0.000	11.111	0.9	0.120	0.000	D	F	1609.4	0.442	0.198	-0.004	1504.233	783.792	0.026	-	0.020	0.132	-	-	-	-	-	-	-	PAVEMENT_GENERAL	Urban	F	1011101000011101	0000000000010000	-	car	831.028	258.485	0.000	0.000	180.000	696.000	987.000	-0.000	Terminate	
Unknown	35.98405	01/16/0117 10:05.58	00002159	13.729	Inter614t1-0	0.766	1	2	0.000	11.111	0.6	0.118	0.000	D	F	1612.7	0.599	0.197	-0.003	1504.359	797.459	0.026	-	0.027	0.119	-	-	-	-	-	-	-	PAVEMENT_GENERAL	Urban	F	1011101000011101	0000000000010000	-	car	827.924	276.507	0.000	0.000	180.000	696.000	987.000	-0.000	Terminate	
Unknown	36.98407	01/16/0117 10:05.59	00002219	13.835	Inter612t1-0	0.922	1	2	0.000	11.111	0.5	0.118	0.000	D	F	1613.9	0.708	0.197	-0.004	1504.516	811.241	0.026	-	0.027	0.101	-	-	-	-	-	-	-	PAVEMENT_GENERAL	Urban	F	1011101000011101	0000000000010000	-	car	825.039	297.694	0.000	0.000	180.000	696.000	987.000	-0.000	Terminate	
Unknown	37.98409	01/16/0117 10:06.00	00002279	13.933	Inter612t1-0	1.105	1	2	0.000	11.111	-0.0	0.116	0.000	D	F	1620.5	0.793	0.197	-0.001	1504.698	825.124	0.026	-	0.007	0.099	-	-	-	14	3.118	43.445	-	PAVEMENT_GENERAL	Urban	F	1011101000011101	0000000000010000	-	car	822.381	323.094	0.000	0.000	180.000	696.000	987.000	-0.000	Terminate	
Unknown	38.98411	01/16/0117 10:06.01	00002339	14.032	Inter612t1-0	1.282	1	2	0.000	11.111	-1.3	0.122	0.000	D	F	1630.9	0.621	0.197	0.009	1504.875	839.105	0.026	-	-0.059	0.096	-	-	-	14	3.533	49.578	-	PAVEMENT_GENERAL	Urban	F	1011101000011101	0000000000010000	-	car	819.925	345.397	0.000	0.000	180.000	696.000	987.000	-0.000	Terminate	
Unknown	39.98413	01/16/0117 10:06.02	00002399	14.123	Inter612t1-0	1.387	1	2	0.000	11.111	-2.8	0.116	0.000	D	F	1633.7	0.180	0.197	0.016	1504.980	853.183	0.026	-	-0.128	0.085	-	-	-	14	3.938	55.610	-	PAVEMENT_GENERAL	Urban	F	1111101000011101	0000000000010000	-	car	817.614	361.620	0.000	0.000	180.000	696.000	987.000	-0.000	Terminate	
Unknown	40.98415	01/16/0117 10:06.03	00002459	14.206	Inter612t1-0	1.368	1	2	0.000	11.111	-1.8	0.115	0.000	D	F	1636.4	359.688	0.197	0.012	1504.961	867.349	0.026	-	-0.093	0.075	-	-	-	14	4.333	61.553	-	PAVEMENT_GENERAL	Urban	F	1011101000011101	0000000000010000	-	car	815.402	378.364	0.000	0.000	180.000	696.000	987.000	-0.000	Terminate	
Unknown	41.98417	01/16/0117 10:06.04	00002519	14.278	Inter612t1-0	1.249	1	2	0.000	11.111	-0.2	0.118	0.000	D	F	1645.6	359.361	0.197	0.003	1504.842	881.590	0.026	-	-0.035	0.079	-	-	-	14	4.722	67.423	-	PAVEMENT_GENERAL	Urban	F	1011101000011101	0000000000010000	-	car	813.322	406.058	0.000	0.000	180.000	696.000	987.000	-0.000	Terminate	
Unknown	42.98419	01/16/0117 10:06.05	00002579	14.358	Inter612t1-0	1.058	1	2	0.000	11.111	-2.3	0.116	0.000	D	F	1652.7	358.995	0.197	0.017	1504.651	895.907	0.026	-	-0.122	0.081	-	-	-	14	5.428	77.936	-	PAVEMENT_GENERAL	Urban	F	1011101000011101	0000000000010000	-	car	811.406	436.876	0.000	0.000	180.000	696.000	987.000	-0.000	Terminate	
Unknown	43.98421	01/16/0117 10:06.06	00002639	14.440	Inter612t1-0	0.795	1	2	0.000	11.111	2.5	0.116	0.000	D	F	1658.9	359.036	0.196	-0.014	1504.388	910.304	0.026	-	0.097	0.081	-	-	-	-	-	-	-	PAVEMENT_GENERAL	Urban	F	1011101000011101	0000000000010000	-	car	809.659	504.276	0.000	0.000	180.000	696.000	987.000	-0.000	Terminate	
Unknown	44.98423	01/16/0117 10:06.07	00002699	14.515	Inter612t1-0	0.580	1	2	0.000	11.111	-0.9	0.116	0.000	D	F	1661.1	359.130	0.196	0.008	1504.173	924.780	0.026	-	-0.050	0.072	-	-	-	-	-	-	-	PAVEMENT_GENERAL	Urban	F	1011101000011101	0000000000010000	-	car	808.205	605.938	0.000	0.000	180.000	696.000	987.000	-0.000	Terminate	
Unknown	45.98425	01/16/0117 10:06.08	00002759	14.581	Inter612t1-0	0.344	1	2	0.000	11.111	-0.3	0.116	0.000	D	F	1663.3	359.015	0.196	0.003	1503.937	939.326	0.026	-	-0.020	0.064	-	-	-	-	-	-	-	PAVEMENT_GENERAL	Urban	F	1011101000011101	0000000000010000	-	car	806.983	727.653	0.000	0.000	180.000	696.000	987.000	-0.000	Terminate	
Unknown	46.98427	01/16/0117 10:06.09	00002819	14.645	Inter612t1-0	0.103	1	2	0.000	11.111	5.5	0.116	0.000	D	F	1670.2	359.233	0.196	-0.028	1503.696	953.937	0.026	-	0.212	0.067	-	-	-	-	-	-	-	PAVEMENT_GENERAL	Urban	F	1011101000011101	0000000000010000	-	car	806.013	1013.931	0.000	0.000	180.000	696.000	987.000	-0.000	Terminate	
Unknown	47.98429	01/16/0117 10:06.10	00002879	14.718	Inter612t1-0	0.056	1	2	0.000	11.111	1.9	0.120	0.000	D	F	1681.2	0.388	0.196	-0.017	1503.649	968.617	0.026	-	0.165	0.078	-	-	-	-	-	-	-	PAVEMENT_GENERAL	Urban	F	1011101000011101	0000000000010000	-	car	805.499	3424.102	0.000	0.000	180.000	696.000	987.000	-0.000	Terminate	
Unknown	48.98431	01/16/0117 10:06.11	00002939	14.801	Inter612t1-0	0.178	1	2	0.000	11.111	1.1	0.123	0.000	D	F	1691.6	0.564	0.196	-0.006	1503.772	983.376	0.026	-	0.052	0.085	-	-	-	-	-	-	-	PAVEMENT_GENERAL	Urban	F	1011101000011101	0000000000010000	-	car	805.420	-10149.692	0.000	0.000	180.000	696.000	987.000	-0.000	Terminate	
Unknown	49.98433	01/16/0117 10:06.12	00002999	14.883	Inter612t1-0	0.340	1	2	0.000	11.111	-0.9	0.122	0.000	D	F	1695.7	0.607	0.196	0.007	1503.933	998.218	0.026	-	-0.044	0.079	-	-	-	-	-	-	-	PAVEMENT_GENERAL	Urban	F	1011101000011101	0000000000010000	-	car	805.652	-2212.313	0.000	0.000	180.000	696.000	987.000	-0.000	Terminate	
Unknown	50.98435	01/16/0117 10:06.13	00003059	14.954	Inter613t1-0	0.456	1	2	0.000	11.111	-1.5	0.122	0.000	D	F	1697.4	0.220	0.195	0.012	1504.050	1013.137	0.026	-	-0.098	0.065	-	-	-	-	-	-	-	PAVEMENT_GENERAL	Urban	F	1011101000011101	0000000000010000	-	car	806.113	-1490.748	0.000	0.000	180.000	696.000	987.000	-0.000	Terminate	
Unknown	51.98437	01/16/0117 10:06.14	00003119	15.020	Inter613t1-0	0.479	1	2	0.000	11.111	-1.7	0.120	0.000	D	F	1702.9	359.934	0.196	0.011	1504.072	1028.124	0.026	-	-0.082	0.067	-	-	-	-	-	-	-	PAVEMENT_GENERAL	Urban	F	1011101000011101	0000000000010000	-	car	806.759	-1081.132	0.000	0.000	180.000	696.000	987.000	-0.000	Terminate	
Unknown	52.98439	01/16/0117 10:06.15	00003179	15.086	Inter613t1-0	0.419	1	2	0.000	11.111	-1.5	0.123	0.000	D	F	1711.8	359.589	0.195	0.011	1504.012	1043.177	0.026	-	-0.083	0.068	-	-	-	-	-	-	-	PAVEMENT_GENERAL	Urban	F	1011101000011101	0000000000010000	-	car	807.603	-860.533	0.000	0.000	180.000	696.000	987.000	-0.000	Terminate	
Unknown	53.98441	01/16/0117 10:06.16	00003239	15.150	Inter613t1-0	0.272	1	2	0.000	11.111	-1.8	0.109	0.000	D	F	1690.1	359.274	0.194	0.012	1503.866	1058.299	0.026	-	-0.091	0.021	-	-	-	-	-	-	-	PAVEMENT_GENERAL	Urban	F	1011101000011101	0000000000010000	-	car	808.646	-709.037	0.000	0.000	180.000	696.000	987.000	-0.000	Terminate	
Unknown	54.98443	01/16/0117 10:06.17	00003299	15.169	Inter613t1-0	0.067	1	2	0.000	11.111	3.7	0.113	0.000	D	F	1698.6	359.359	0.195	-0.022	1503.660	1073.456	0.026	-	0.161	0.028	-	-	-	-	-	-	-	PAVEMENT_GENERAL	Urban	F	1011101000011101	0000000000010000	-	car	809.915	-560.226	0.000	0.000	180.000	696.000	987.000	-0.000	Terminate	
Unknown	55.98445	01/16/0117 10:06.18	00003359	15.198	Inter613t1-0	-0.014	1	2	0.000	11.111	3.1	0.115	0.000	D	F	1705.0	0.042	0.195	-0.021	1503.579	1088.639	0.026	-	0.164	0.034	-	-	-	-	-	-	-	PAVEMENT_GENERAL	Urban	F	1011101000011101	0000000000010000	-	car	811.590	-425.156	0.000	0.000	180.000	696.000	987.000	-0.000	Terminate	
Unknown	56.98447	01/16/0117 10:06.19	00003419	15.230	Inter613t1-0	0.069	1	2	0.000	11.111	2.1	0.113	0.000	D	F	1704.5	0.586	0.195	-0.015	1503.662	1103.853	0.026	-	0.119	0.030	-	-	-	-	-	-	-	PAVEMENT_GENERAL	Urban	F	1011101000011101	0000000000010000	-	car	813.712	-348.497	0.000	0.000	180.000	696.000	987.000	-0.000	Terminate	
Unknown	57.98449	01/16/0117 10:06.20	00003479	15.258	Inter613t1-0	0.259	1	2	0.000	11.111	0.2	0.113	0.000	D	F	1704.7	0.803	0.195	-0.002	1503.853	1119.096	0.026	-	0.017	0.027	-	-	-	-	-	-	-	PAVEMENT_GENERAL	Urban	F	1011101000011101	0000000000010000	-	car	816.222	-305.337	0.000	0.000	180.000	696.000	987.000	-0.000	Terminate	
Unknown	58.98451	01/16/0117 10:06.21	00003539	15.285	Inter613t1-0	0.464	1	2	0.000	11.111	-1.7	0.115	0.000	D	F	1706.6	0.665	0.195	0.011	1504.057	1134.366	0.026	-	-0.079	0.025	-	-	-	-	-	-	-	PAVEMENT_GENERAL	Urban	F	1011101000011101	0000000000010000	-	car	819.025	-280.817	0.000	0.000	180.000	696.000	987.000	-0.000	Terminate	
Unknown	59.98453	01/16/0117 10:06.22	00003599	15.308	Inter613t1-0	0.602	1	2	0.000	11.111	-1.6	0.113	0.000	D	F	1707.4	0.386	0.194	0.007	1504.196	1149.662	0.026	-	-0.069	0.023	-	-	-	-	-	-	-	PAVEMENT_GENERAL	Urban	F	1011101000011101	0000000000010000	-	car	822.043	-263.359	0.000	0.000	180.000	696.000	987.000	-0.000	Terminate	
Unknown	60.98455	01/16/0117 10:06.23	00003659	15.324	Inter613t1-0	0.675	1	2	0.000	11.111	-2.0	0.113	0.000	D	F	1705.7	0.129	0.195	0.012	1504.268	1164.978	0.026	-	-0.092	0.017	-	-	-	-	-	-	-	PAVEMENT_GENERAL	Urban	F	1011101000011101	0000000000010000	-	car	825.272	-247.904	0.000	0.000	180.000	696.000	987.000	-0.000	Terminate	
Unknown	61.98457	01/16/0117 10:06.24	00003719	15.341	Inter613t1-0	0.663	1	2	0.000	11.111	-1.7	0.113	0.000	D	F	1706.0	359.771	0.195	0.012	1504.256	1180.311	0.026	-	-0.088	0.017	-	-	-	-	-	-	-	PAVEMENT_GENERAL	Urban	F	1011101000011101	0000000000010000	-	car	828.692	-236.182	0.000	0.000	180.000	696.000	987.000	-0.000	Terminate	
Unknown	62.98459	01/16/0117 10:06.25	00003779	15.354	Inter613t1-0	0.560	1	2	0.000	11.111	-1.7	0.111	0.000	D	F	1706.2	359.443	0.195	0.011	1504.154	1195.658	0.026	-	-0.088	0.013	-	-	-	-	-	-	-	PAVEMENT_GENERAL	Urban	F	1011101000011101	0000000000010000	-	car	832.296	-225.328	0.000	0.000	180.000	696.000	987.000	-0.000	Terminate	
Unknown	63.98461	01/16/0117 10:06.26	00003839	15.365	Inter615t9-0	0.370	1	2	0.000	11.111	-1.8	0.109	0.000	D	F	1701.2	359.108	0.194	0.012	1503.963	1211.017	0.026	-	-0.093	0.007	-	-	-	-	-	-	-	PAVEMENT_GENERAL	Urban	F	1011101000011101	0000000000010000	-	car	836.084	-215.803	0.000	0.000	180.000	696.000	987.000	-0.000	Terminate	
Unknown	64.98463	01/16/0117 10:06.27	00003899	15.368	Inter615t33-0	0.140	1	1	0.090	11.111	8.6	0.109	0.000	D	F	1701.0	359.707	0.194	-0.060	1503.743	1226.382	0.027	-	0.451	0.004	-	-	-	22	3.139	48.242	3.139	PAVEMENT_GENERAL	Urban	F	1011101000011101	0000000000010000	-	car	840.109	-195.763	0.000	0.000	180.000	696.000	987.000	-0.000	Terminate	
Unknown	65.98465	01/16/0117 10:06.28	00003959	15.368	Inter615t33-0	0.226	1	1	0.088	11.111	2.2	0.095	0.000	D	F	1684.8	0.959	0.194	-0.017	1503.853	1241.751	0.027	-	0.153	-0.016	-	-	-	22	2.297	35.296	2.297	PAVEMENT_GENERAL	Urban	F	1011101000011101	0000000000010000	-	car	844.708	-173.575	0.000	0.000	180.000	696.000	987.000	-0.000	Terminate	
Unknown	66.98467	01/16/0117 10:06.29	00004019	14.800	Inter615t33-0	0.317	1	1	0.061	11.111	-36.0	0.000	0.000	D	F	1453.3	358.234	0.171	0.269	1503.968	1256.882	0.030	-	-1.941	-0.602	-	-	-	-	-	-	-	PAVEMENT_GENERAL	Urban	F	1011101000011101	0000000000010000	-	car	849.491	-199.684	0.000	0.000	180.000	696.000	987.000	-0.000	Terminate	
Unknown	67.98470	01/16/0117 10:06.30	00004079	14.105	Inter615t11-1	-0.971	2	2	0.000	11.111	3.7	0.000	0.104	D	F	1366.8	353.077	0.153	-0.005	1502.691	1271.315	0.029	-	-0.027	-1.641	-	-	-	22	0.068	0.964	0.068	PAVEMENT_GENERAL	Urban	F	1011101000011101	0000000000010000	-	car	852.968	-279.595	0.000	0.000	180.000	696.000	987.000	-0.000	Terminate	
Unknown	68.98471	01/16/0117 10:06.31	00004139	12.267	Inter615t65-0	1.273	1	1	351.192	11.111	-19.9	0.000	0.000	D	F	1205.1	352.835	0.194	0.103	1501.164	1284.173	0.029	-	-0.707	-0.540	-	-	-	25	2.966	36.378	5.996	PAVEMENT_GENERAL	Urban	F	1011101000011101	0000000000010000	-	car	855.895	-308.007	0.000	0.000	180.000	696.000	987.000	-0.000	Terminate	
Unknown	69.98473	01/16/0117 10:06.32	00004199	11.815	-Inter615t59-0	0.460	-1	1	89.733	11.111	-118.4	0.086	0.000	D	F	1392.9	342.744	0.188	0.587	1498.848	1295.951	0.030	-	-4.174	-0.339	-	-	-	-	-	-	-	PAVEMENT_GENERAL	Urban	F	1011101000011101	0000000000010000	-	car	857.882	-1097.958	0.000	0.000	180.000	696.000	987.000	-0.000	Terminate	
Unknown	70.98476	01/16/0117 10:06.33	00004259	11.379	Inter615t77-0	-1.281	1	1	269.734	11.111	-222.5	0.046	0.000	D	F	1241.7	314.457	0.092	1.054	1492.961	1305.903	0.041	-	-6.684	-0.847	-	-	-	25	3.300	37.548	31.857	PAVEMENT_GENERAL	Urban	F	1011101000011101	0000000000010000	-	car	856.037	186.912	0.000	0.000	180.000	696.000	987.000	-0.000	Terminate	
Unknown	71.98477	01/16/0117 10:06.34	00004319	10.059	-	-	INT	0	-	-	-325.5	0.032	0.000	D	F	1081.5	274.856	-0.137	1.255	1483.482	1310.545	0.048	-	-7.673	-1.387	-	-	-	-	-	-	-	PAVEMENT_GENERAL	Urban	F	1011101000011101	0000000000010000	-	car	848.997	94.885	0.000	0.000	180.000	696.000	987.000	-0.000	Terminate	
Unknown	72.98479	01/16/0117 10:06.35	00004379	9.055	Inter615t3-4	1.448	2	2	270.000	11.111	-121.1	0.035	0.000	D	F	1067.2	243.072	-1.458	1.341	1474.429	1308.578	0.033	-	-2.230	-0.290	-	-	-	-	-	-	-	PAVEMENT_GENERAL	Urban	F	1011101000011101	0000000000010000	-	car	839.878	93.038	0.000	0.000	180.000	696.000	987.000	-0.000	Terminate	
Unknown	73.98481	01/16/0117 10:06.36	00004439	8.641	Inter615t19-0	0.435	1	1	270.063	11.111	95.5	0.009	0.000	D	F	850.4	240.577	0.193	-0.308	1466.850	1303.966	0.029	-	2.308	-0.539	-	-	-	25	5.260	45.449	-	PAVEMENT_GENERAL	Urban	F	1011101000011101	0000000000010000	-	car	831.114	96.916	0.000	0.000	180.000	696.000	987.000	-0.000	Terminate	
Unknown	74.98483	01/16/0117 10:06.37	00004499	8.145	-	-	SH	1	-	-	157.0	0.005	0.000	D	F	803.8	261.520	0.152	-0.465	1458.896	1301.436	0.031	-	3.499	-0.697	-	-	-	-	-	-	-	PAVEMENT_GENERAL	Urban	F	1011101000011101	0000000000010000	-	car	822.795	104.078	0.000	0.000	180.000	696.000	987.000	-0.000	Terminate	
Unknown	75.98486	01/16/0117 10:06.38	00004559	7.648	Inter615t19-0	-1.640	1	1	270.112	11.111	-4.4	0.000	0.000	D	F	751.8	277.667	0.195	0.072	1451.043	1301.908	0.028	-	-0.228	-0.469	-	-	-	25	7.373	56.385	-	PAVEMENT_GENERAL	Urban	F	1011101000011101	0000000000010000	-	car	815.722	123.545	0.000	0.000	180.000	696.000	987.000	-0.000	Terminate	
Unknown	76.98487	01/16/0117 10:06.39	00004619	7.256	Inter615t19-0	-0.864	1	1	270.092	11.111	-26.3	0.055	0.000	D	F	1071.6	274.826	0.204	0.062	1443.660	1302.698	0.027	-	-0.462	-0.100	-	-	-	25	8.601	62.412	-	PAVEMENT_GENERAL	Urban	F	1011101000011101	0000000000010000	-	car	809.220	125.976	0.000	0.000	180.000	696.000	987.000	-0.000	Terminate	
Unknown	77.98489	01/16/0117 10:06.40	00004679	7.395	Inter615t19-0	-0.531	1	1	270.069	11.111	-9.6	0.086	0.000	D	F	1239.2	271.897	0.203	0.029	1436.374	1303.045	0.025	-	-0.161	0.271	-	-	-	25	9.268	68.536	-	PAVEMENT_GENERAL	Urban	F	1011101000011101	0000000000010000	-	car	802.648	119.777	0.000	0.000	180.000	696.000	987.000	-0.000	Terminate	
Unknown	78.98492	01/16/0117 10:06.41	00004739	7.746	Inter615t19-0	-0.342	1	1	270.061	11.111	-1.1	0.090	0.000	D	F	1283.2	271.473	0.204	0.004	1428.805	1303.245	0.025	-	-0.022	0.318	-	-	-	25	9.602	74.377	-	PAVEMENT_GENERAL	Urban	F	1011101000011101	0000000000010000	-	car	795.773	113.190	0.000	0.000	180.000	696.000	987.000	-0.000	Terminate	
Unknown	79.98493	01/16/0117 10:06.42	00004799	8.113	Inter615t19-0	-0.177	1	1	270.061	11.111	-0.1	0.099	0.000	D	F	1337.3	271.107	0.205	-0.003	1420.879	1303.418	0.025	-	-0.001	0.365	-	-	-	25	9.844	79.862	-	PAVEMENT_GENERAL	Urban	F	1011101000011101	0000000000010000	-	car	788.571	106.979	0.000	0.000	180.000	696.000	987.000	-0.000	Terminate	
Unknown	80.98495	01/16/0117 10:06.43	00004859	8.480	Inter615t1-2	-0.034	1	2	270.000	11.111	-0.5	0.104	0.000	D	F	1359.3	270.940	0.205	0.002	1412.579	1303.566	0.025	-	-0.014	0.341	-	-	-	25	10.021	84.972	-	PAVEMENT_GENERAL	Urban	F	1011101000011101	0000000000010000	-	car	781.031	101.443	0.000	0.000	180.000	696.000	987.000	-0.000	Terminate	
Unknown	81.98497	01/16/0117 10:06.44	00004919	9.006	Inter615t1-2	0.114	1	2	270.000	11.111	-0.6	0.143	0.000	D	F	1485.7	270.987	0.206	0.002	1403.853	1303.714	0.024	-	-0.013	0.556	-	-	-	25	9.956	89.657	-	PAVEMENT_GENERAL	Urban	F	1011101000011101	0000000000010000	-	car	773.117	94.795	0.000	0.000	180.000	696.000	987.000	-0.000	Terminate	
Unknown	82.98499	01/16/0117 10:06.45	00004979	9.593	Inter616t1-2	0.214	1	2	270.000	11.111	-8.5	0.157	0.000	D	F	1547.9	270.179	0.206	0.030	1394.559	1303.820	0.024	-	-0.232	0.596	-	-	-	25	9.774	93.767	-	PAVEMENT_GENERAL	Urban	F	1011101000011101	0000000000010000	-	car	764.687	87.651	0.000	0.000	180.000	696.000	987.000	-0.000	Terminate	
Unknown	83.98502	01/16/0117 10:06.46	00005039	10.149	Inter616t1-2	0.130	1	2	270.000	11.111	2.5	0.150	0.000	D	F	1545.2	269.230	0.205	-0.007	1384.682	1303.737	0.024	-	0.047	0.525	-	-	-	25	9.587	97.300	-	PAVEMENT_GENERAL	Urban	F	1011101000011101	0000000000010000	-	car	755.668	81.456	0.000	0.000	180.000	696.000	987.000	-0.000	Terminate	
Unknown	84.98503	01/16/0117 10:06.47	00005099	10.644	Inter616t1-2	0.036	1	2	270.000	11.111	2.3	0.143	0.000	D	F	1552.3	269.690	0.204	-0.009	1374.283	1303.643	0.024	-	0.073	0.469	-	-	-	25	9.425	100.312	-	PAVEMENT_GENERAL	Urban	F	1011101000011101	0000000000010000	-	car	746.193	77.177	0.000	0.000	180.000	696.000	987.000	-0.000	Terminate	
Unknown	85.98505	01/16/0117 10:06.48	00005159	11.082	Inter616t1-2	0.016	1	2	270.000	11.111	2.1	0.145	0.000	D	F	1566.0	270.055	0.204	-0.010	1363.416	1303.623	0.024	-	0.072	0.429	-	-	-	25	9.281	102.855	-	PAVEMENT_GENERAL	Urban	F	1011101000011101	0000000000010000	-	car	736.352	73.578	0.000	0.000	180.000	696.000	987.000	-0.000	Terminate	
Unknown	86.98507	01/16/0117 10:06.49	00005219	11.488	Inter616t1-2	0.067	1	2	270.000	11.111	2.3	0.141	0.000	D	F	1574.4	270.422	0.203	-0.013	1352.126	1303.673	0.025	-	0.081	0.380	-	-	-	25	9.138	104.977	-	PAVEMENT_GENERAL	Urban	F	1011101000011101	0000000000010000	-	car	726.190	70.439	0.000	0.000	180.000	696.000	987.000	-0.000	Terminate	
Unknown	87.98509	01/16/0117 10:06.50	00005279	11.846	Inter616t1-2	0.192	1	2	270.000	11.111	1.7	0.139	0.000	D	F	1575.2	270.776	0.201	-0.009	1340.455	1303.799	0.025	-	0.066	0.319	-	-	-	25	9.009	106.716	-	PAVEMENT_GENERAL	Urban	F	1011101000011101	0000000000010000	-	car	715.752	67.786	0.000	0.000	180.000	696.000	987.000	-0.000	Terminate	
Unknown	88.98512	01/16/0117 10:06.51	00005339	12.163	Inter616t1-2	0.377	1	2	270.000	11.111	0.7	0.136	0.000	D	F	1593.7	270.954	0.201	-0.004	1328.451	1303.983	0.025	-	0.030	0.312	-	-	-	25	8.889	108.122	-	PAVEMENT_GENERAL	Urban	F	1011101000011101	0000000000010000	-	car	705.081	65.398	0.000	0.000	180.000	696.000	987.000	-0.000	Terminate	
Unknown	89.98513	01/16/0117 10:06.52	00005399	12.452	Inter616t1-2	0.568	1	2	270.000	11.111	-9.5	0.132	0.000	D	F	1593.3	270.555	0.200	0.050	1316.140	1304.175	0.025	-	-0.340	0.262	-	-	-	25	8.771	109.222	-	PAVEMENT_GENERAL	Urban	F	1011101000011101	0000000000010000	-	car	694.184	62.930	0.000	0.000	180.000	696.000	987.000	-0.000	Terminate	
Unknown	90.98515	01/16/0117 10:06.53	00005459	12.725	Inter616t1-2	0.536	1	2	270.000	11.111	-0.6	0.146	0.000	D	F	1648.4	269.493	0.202	0.006	1303.555	1304.142	0.025	-	-0.047	0.332	-	-	-	25	8.648	110.048	-	PAVEMENT_GENERAL	Urban	F	1011101000011101	0000000000010000	-	car	682.989	60.270	0.000	0.000	180.000	696.000	987.000	-0.000	Terminate	
Unknown	91.98518	01/16/0117 10:06.54	00005519	12.998	Inter616t1-2	0.419	1	2	270.000	11.111	-0.7	0.138	0.000	D	F	1631.7	269.463	0.200	0.003	1290.687	1304.026	0.025	-	-0.021	0.256	-	-	-	25	8.508	110.591	-	PAVEMENT_GENERAL	Urban	F	1011101000011101	0000000000010000	-	car	671.553	58.258	0.000	0.000	180.000	696.000	987.000	-0.000	Terminate	
Unknown	92.98519	01/16/0117 10:06.55	00005579	13.246	Inter616t1-2	0.283	1	2	270.000	11.111	-1.1	0.138	0.000	D	F	1641.2	269.342	0.200	0.006	1277.564	1303.890	0.025	-	-0.041	0.242	-	-	-	25	8.370	110.878	-	PAVEMENT_GENERAL	Urban	F	1011101000011101	0000000000010000	-	car	659.936	56.388	0.000	0.000	180.000	696.000	987.000	-0.000	Terminate	
Unknown	93.98521	01/16/0117 10:06.56	00005639	13.473	Inter616t1-2	0.117	1	2	270.000	11.111	0.7	0.134	0.000	D	F	1647.8	269.321	0.199	-0.004	1264.203	1303.724	0.025	-	0.035	0.224	-	-	-	25	8.233	110.928	1795.141	PAVEMENT_GENERAL	Urban	F	1011101000011101	0000000000010000	-	car	648.155	54.720	0.000	0.000	180.000	696.000	987.000	-0.000	Terminate	
Unknown	94.98523	01/16/0117 10:06.57	00005699	13.688	Inter616t1-2	-0.022	1	2	270.000	11.111	1.3	0.134	0.000	D	F	1659.0	269.540	0.199	-0.007	1250.623	1303.585	0.025	-	0.062	0.215	-	-	-	25	8.091	110.758	399.390	PAVEMENT_GENERAL	Urban	F	1011101000011101	0000000000010000	-	car	636.258	53.279	0.000	0.000	180.000	696.000	987.000	-0.000	Terminate	
Unknown	95.98525	01/16/0117 10:06.58	00005759	13.890	Inter616t1-2	-0.107	1	2	270.000	11.111	0.9	0.131	0.000	D	F	1655.7	269.742	0.197	-0.005	1236.832	1303.500	0.026	-	0.042	0.180	-	-	-	25	7.947	110.378	230.519	PAVEMENT_GENERAL	Urban	F	1011101000011101	0000000000010000	-	car	624.275	51.939	0.000	0.000	180.000	696.000	987.000	-0.000	Terminate	
Unknown	96.98528	01/16/0117 10:06.59	00005819	14.042	Inter616t1-2	-0.140	1	2	270.000	11.111	1.3	0.104	0.000	D	F	1592.0	270.054	0.193	-0.009	1222.857	1303.467	0.026	-	0.078	0.012	-	-	-	25	7.820	109.814	173.999	PAVEMENT_GENERAL	Urban	F	1011101000011101	0000000000010000	-	car	612.238	50.890	0.000	0.000	180.000	696.000	987.000	-0.000	Terminate	
Unknown	97.98529	01/16/0117 10:07.00	00005879	14.098	Inter616t1-2	-0.104	1	2	270.000	11.111	0.2	0.120	0.000	D	F	1634.3	270.188	0.197	-0.001	1208.795	1303.503	0.026	-	0.005	0.088	-	-	-	25	7.743	109.162	158.850	PAVEMENT_GENERAL	Urban	F	1011101000011101	0000000000010000	-	car	600.245	50.134	0.000	0.000	180.000	696.000	987.000	-0.000	Terminate	
Unknown	98.98531	01/16/0117 10:07.01	00005939	14.190	Inter617t1-2	-0.052	1	2	270.000	11.111	0.6	0.120	0.000	D	F	1644.4	270.246	0.197	-0.004	1194.651	1303.554	0.026	-	0.025	0.093	-	-	-	25	7.641	108.428	139.161	PAVEMENT_GENERAL	Urban	F	1011101000011101	0000000000010000	-	car	588.284	49.240	0.000	0.000	180.000	696.000	987.000	-0.000	Terminate	
Unknown	99.98534	01/16/0117 10:07.02	00005999	14.280	Inter617t1-2	0.021	1	2	270.000	11.111	0.6	0.120	0.000	D	F	1648.9	270.350	0.197	-0.003	1180.416	1303.628	0.026	-	0.027	0.090	-	-	-	25	7.536	107.604	123.891	PAVEMENT_GENERAL	Urban	F	1011101000011101	0000000000010000	-	car	576.356	48.414	0.000	0.000	180.000	696.000	987.000	-0.000	Terminate	
Unknown	100.98535	01/16/0117 10:07.03	00006059	14.361	Inter617t1-2	0.111	1	2	270.000	11.111	0.3	0.116	0.000	D	F	1649.4	270.379	0.196	-0.002	1166.094	1303.718	0.026	-	0.014	0.073	-	-	-	25	7.429	106.693	112.336	PAVEMENT_GENERAL	Urban	F	1011101000011101	0000000000010000	-	car	564.472	47.608	0.000	0.000	180.000	696.000	987.000	-0.000	Terminate	
Unknown	101.98537	01/16/0117 10:07.04	00006119	14.431	Inter617t1-2	0.212	1	2	270.000	11.111	0.2	0.115	0.000	D	F	1649.0	270.426	0.196	-0.001	1151.698	1303.819	0.026	-	0.009	0.062	-	-	-	25	7.325	105.708	103.674	PAVEMENT_GENERAL	Urban	F	1011101000011101	0000000000010000	-	car	552.649	46.887	0.000	0.000	180.000	696.000	987.000	-0.000	Terminate	
Unknown	102.98539	01/16/0117 10:07.05	00006179	14.496	Inter617t1-2	0.324	1	2	270.000	11.111	0.3	0.113	0.000	D	F	1655.8	270.471	0.196	-0.002	1137.235	1303.931	0.026	-	0.016	0.060	-	-	-	25	7.220	104.655	96.472	PAVEMENT_GENERAL	Urban	F	1011101000011101	0000000000010000	-	car	540.902	46.217	0.000	0.000	180.000	696.000	987.000	-0.000	Terminate	
Unknown	103.98541	01/16/0117 10:07.06	00006239	14.543	Inter617t1-2	0.446	1	2	270.000	11.111	-0.5	0.111	0.000	D	F	1652.2	270.483	0.196	0.001	1122.715	1304.053	0.026	-	-0.013	0.041	-	-	-	25	7.120	103.546	91.474	PAVEMENT_GENERAL	Urban	F	1011101000011101	0000000000010000	-	car	529.250	45.625	0.000	0.000	180.000	696.000	987.000	-0.000	Terminate	
Unknown	104.98544	01/16/0117 10:07.07	00006299	14.590	Inter617t1-2	0.499	1	2	270.000	11.111	-3.6	0.116	0.000	D	F	1661.9	269.757	0.196	0.023	1108.149	1304.106	0.026	-	-0.206	0.058	-	-	-	25	7.018	102.391	86.819	PAVEMENT_GENERAL	Urban	F	1011101000011101	0000000000010000	-	car	517.663	44.621	0.000	0.000	180.000	696.000	987.000	-0.000	Terminate	
Unknown	105.98545	01/16/0117 10:07.08	00006359	14.627	Inter617t1-2	0.387	1	2	270.000	11.111	0.4	0.090	0.000	D	F	1610.6	269.451	0.192	-0.002	1093.534	1303.994	0.026	-	0.002	-0.070	-	-	-	-	-	-	-	PAVEMENT_GENERAL	Urban	F	1011101000011101	0000000000010000	-	car	506.088	43.919	0.000	0.000	180.000	696.000	987.000	-0.000	Terminate	
Unknown	106.98547	01/16/0117 10:07.09	00006419	14.221	Inter617t1-2	0.254	1	2	270.000	11.111	0.1	0.000	0.000	D	F	1396.7	269.489	0.190	-0.001	1079.058	1303.861	0.029	-	0.005	-0.562	-	-	-	-	-	-	-	PAVEMENT_GENERAL	Urban	F	1011101000011101	0000000000010000	-	car	494.767	44.823	0.000	0.000	180.000	696.000	987.000	-0.000	Terminate	
Unknown	107.98550	01/16/0117 10:07.10	00006479	13.140	Inter617t1-2	0.136	1	2	270.000	11.111	0.8	0.000	0.191	D	F	1256.7	269.579	0.119	-0.005	1065.183	1303.743	0.032	-	0.038	-2.936	-	-	-	-	-	-	-	PAVEMENT_GENERAL	Urban	F	1011101000011101	0000000000010000	-	car	484.079	48.237	0.000	0.000	180.000	696.000	987.000	-0.000	Terminate	
Unknown	108.98551	01/16/0117 10:07.11	00006539	11.427	Inter617t1-2	0.063	1	2	270.000	11.111	0.8	0.000	0.099	D	F	1108.3	269.747	0.174	-0.005	1052.988	1303.670	0.031	-	0.035	-1.605	-	-	-	-	-	-	-	PAVEMENT_GENERAL	Urban	F	1011101000011101	0000000000010000	-	car	474.841	55.331	0.000	0.000	180.000	696.000	987.000	-0.000	Terminate	
Unknown	109.98553	01/16/0117 10:07.12	00006599	7.944	Inter617t1-2	0.032	1	2	270.000	11.111	0.8	0.000	0.319	D	F	746.7	269.892	0.135	-0.003	1043.050	1303.639	0.038	-	0.020	-4.314	-	-	-	-	-	-	-	PAVEMENT_GENERAL	Urban	F	1011101000011101	0000000000010000	-	car	467.432	79.519	0.000	0.000	180.000	696.000	987.000	-0.000	Terminate	
Unknown	110.98555	01/16/0117 10:07.13	00006659	4.905	Inter617t1-2	0.028	1	2	270.000	11.111	0.9	0.000	0.000	D	F	482.8	269.994	0.227	-0.001	1037.000	1303.635	0.030	-	0.008	-0.456	-	-	-	-	-	-	-	PAVEMENT_GENERAL	Urban	F	1011101000011101	0000000000010000	-	car	462.977	128.797	0.000	0.000	180.000	696.000	987.000	-0.000	Terminate	
Unknown	111.98557	01/16/0117 10:07.14	00006719	4.627	Inter617t1-2	0.033	1	2	270.000	11.111	1.1	0.044	0.000	D	F	987.3	270.086	0.201	-0.002	1032.291	1303.640	0.026	-	0.010	0.097	-	-	-	-	-	-	-	PAVEMENT_GENERAL	Urban	F	1011101000011101	0000000000010000	-	car	459.542	136.598	0.000	0.000	180.000	696.000	987.000	-0.000	Terminate	
Unknown	112.98560	01/16/0117 10:07.15	00006779	5.183	Inter617t1-2	0.053	1	2	270.000	11.111	3.0	0.113	0.000	D	F	1368.6	270.297	0.214	-0.003	1027.432	1303.660	0.023	-	0.029	0.829	-	-	-	-	-	-	-	PAVEMENT_GENERAL	Urban	F	1011101000011101	0000000000010000	-	car	456.030	122.287	0.000	0.000	180.000	696.000	987.000	-0.000	Terminate	
Unknown	113.98561	01/16/0117 10:07.16	00006839	6.041	Inter617t1-2	0.106	1	2	270.000	11.111	2.5	0.116	0.000	D	F	1432.8	270.640	0.211	-0.004	1021.816	1303.713	0.022	-	0.029	0.866	-	-	-	-	-	-	-	PAVEMENT_GENERAL	Urban	F	1011101000011101	0000000000010000	-	car	452.023	105.511	0.000	0.000	180.000	696.000	987.000	-0.000	Terminate	
Unknown	114.98563	01/16/0117 10:07.17	00006899	6.918	Inter617t1-2	0.189	1	2	270.000	11.111	0.9	0.153	0.000	D	F	1567.4	270.752	0.213	-0.004	1015.347	1303.796	0.022	-	0.015	0.958	-	-	-	-	-	-	-	PAVEMENT_GENERAL	Urban	F	1011101000011101	0000000000010000	-	car	447.466	92.313	0.000	0.000	180.000	696.000	987.000	-0.000	Terminate	
Unknown	115.98566	01/16/0117 10:07.18	00006959	7.762	Inter617t1-2	0.302	1	2	270.000	11.111	1.7	0.132	0.000	D	F	1565.5	270.957	0.209	-0.004	1007.969	1303.909	0.023	-	0.033	0.699	-	-	-	-	-	-	-	PAVEMENT_GENERAL	Urban	F	1011101000011101	0000000000010000	-	car	442.338	82.652	0.000	0.000	180.000	696.000	987.000	-0.000	Terminate	
Unknown	116.98567	01/16/0117 10:07.19	00007019	8.462	Inter618t1-0	-0.234	1	2	270.000	24.444	1.0	0.136	0.000	D	F	1632.8	271.210	0.208	-0.002	999.852	1304.066	0.023	-	0.023	0.675	-	-	-	-	-	-	-	PAVEMENT_GENERAL	Urban	F	1011101000011101	0000000000010000	-	car	436.795	76.297	0.000	0.000	180.000	696.000	987.000	-0.000	Terminate	
Unknown	117.98569	01/16/0117 10:07.20	00007079	9.098	Inter618t1-0	-0.041	1	2	269.987	24.444	-0.6	0.136	0.000	D	F	1675.6	271.249	0.265	-0.055	991.067	1304.259	0.027	-	-0.021	0.597	-	-	-	32	5.456	49.643	-	FREEWAY_SMOOTH	Urban	F	1011101000011101	0000000000010000	-	car	430.905	71.231	0.000	0.000	180.000	696.000	987.000	-0.000	Terminate	
Unknown	118.98571	01/16/0117 10:07.21	00007139	9.662	Inter618t1-0	0.164	1	2	269.809	24.444	-3.1	0.132	0.000	D	F	1726.5	271.075	0.270	-0.181	981.684	1304.449	0.038	-	-0.084	0.529	-	-	-	32	5.870	56.710	-	FREEWAY_SMOOTH	Urban	F	1011101000011101	0000000000010000	-	car	424.711	67.125	0.000	0.000	180.000	696.000	987.000	-0.000	Terminate	
Unknown	119.98573	01/16/0117 10:07.22	00007199	10.157	Inter618t1-0	0.329	1	2	269.444	24.444	-5.7	0.132	0.000	D	F	1774.5	270.199	0.271	-0.302	971.771	1304.555	0.050	-	-0.186	0.473	-	-	-	32	6.396	64.969	-	FREEWAY_SMOOTH	Urban	F	1011101000011101	0000000000010000	-	car	418.225	63.048	0.000	0.000	180.000	696.000	987.000	-0.000	Terminate	
Unknown	120.98576	01/16/0117 10:07.23	00007259	10.611	Inter618t1-0	0.407	1	2	268.851	24.444	-5.0	0.131	0.000	D	F	1512.8	269.215	0.270	-0.450	961.376	1304.484	0.062	-	-0.181	0.379	-	-	-	32	6.938	73.619	-	FREEWAY_SMOOTH	Urban	F	1011101000011101	0000000000010000	-	car	411.429	59.489	0.000	0.000	180.000	696.000	987.000	-0.000	Terminate	
Unknown	121.98577	01/16/0117 10:07.24	00007319	10.978	Inter618t1-0	0.435	1	2	268.010	24.444	-6.2	0.129	0.000	D	F	1518.3	268.190	0.270	-0.594	950.581	1304.224	0.075	-	-0.231	0.348	-	-	-	32	7.481	82.131	-	FREEWAY_SMOOTH	Urban	F	1011101000011101	0000000000010000	-	car	404.387	56.651	0.000	0.000	180.000	696.000	987.000	-0.000	Terminate	
Unknown	122.98579	01/16/0117 10:07.25	00007379	11.318	Inter618t1-0	0.411	1	2	266.899	24.444	-6.5	0.132	0.000	D	F	1546.6	266.777	0.264	-0.745	939.444	1303.714	0.087	-	-0.269	0.342	-	-	-	32	8.030	90.884	-	FREEWAY_SMOOTH	Urban	F	1011101000011101	0000000000010000	-	car	397.106	53.729	0.000	0.000	180.000	696.000	987.000	-0.000	Terminate	
Unknown	123.98581	01/16/0117 10:07.26	00007439	11.715	Inter618t1-0	0.362	1	2	265.506	24.444	-5.8	0.143	0.000	D	F	1588.9	265.486	0.264	-0.907	927.961	1302.913	0.099	-	-0.260	0.396	-	-	-	32	8.476	99.300	-	FREEWAY_SMOOTH	Urban	F	1011101000011101	0000000000010000	-	car	389.568	50.887	0.000	0.000	180.000	696.000	987.000	-0.000	Terminate	
Unknown	124.98583	01/16/0117 10:07.27	00007499	12.034	Inter618t1-0	0.364	1	2	263.798	24.444	-5.6	0.132	0.000	D	F	1574.3	264.198	0.272	-1.069	916.130	1301.821	0.113	-	-0.273	0.298	-	-	-	32	8.925	107.400	-	FREEWAY_SMOOTH	Urban	F	1011101000011101	0000000000010000	-	car	381.788	48.590	0.000	0.000	180.000	696.000	987.000	-0.000	Terminate	
Unknown	125.98586	01/16/0117 10:07.28	00007559	12.320	Inter618t1-0	0.478	1	2	261.759	24.444	-11.1	0.131	0.000	D	F	1583.5	262.737	0.282	-1.209	904.031	1300.419	0.129	-	-0.460	0.264	-	-	-	32	9.352	115.213	-	FREEWAY_SMOOTH	Urban	F	1011101000011101	0000000000010000	-	car	373.816	46.401	0.000	0.000	180.000	696.000	987.000	-0.000	Terminate	
Unknown	126.98587	01/16/0117 10:07.29	00007619	12.576	Inter618t1-0	0.613	1	2	259.373	24.444	-16.5	0.129	0.000	D	F	1586.3	259.984	0.283	-1.349	891.725	1298.530	0.146	-	-0.735	0.240	-	-	-	32	9.735	122.426	-	FREEWAY_SMOOTH	Urban	F	1011101000011101	0000000000010000	-	car	365.553	43.312	0.000	0.000	180.000	696.000	987.000	-0.000	Terminate	
Unknown	127.98589	01/16/0117 10:07.30	00007679	12.809	Inter618t1-0	0.573	1	2	256.675	24.444	-14.9	0.129	0.000	D	F	1595.6	256.249	0.245	-1.522	879.314	1295.879	0.160	-	-0.761	0.226	-	-	-	32	10.141	129.886	-	FREEWAY_SMOOTH	Urban	F	1011101000011101	0000000000010000	-	car	356.820	39.788	0.000	0.000	180.000	696.000	987.000	-0.000	Terminate	
Unknown	128.98592	01/16/0117 10:07.31	00007739	13.028	Inter618t1-0	0.423	1	2	253.573	24.444	-15.0	0.129	0.000	D	F	1606.7	253.199	0.167	-1.663	866.861	1292.440	0.168	-	-0.727	0.209	-	-	-	32	10.510	136.926	-	FREEWAY_SMOOTH	Urban	F	1011101000011101	0000000000010000	-	car	347.622	37.078	0.000	0.000	180.000	696.000	987.000	-0.000	Terminate	
Unknown	129.98593	01/16/0117 10:07.32	00007799	13.231	Inter618t1-0	0.264	1	2	250.401	24.444	-14.4	0.131	0.000	D	F	1619.0	249.892	0.176	-1.658	854.418	1288.249	0.163	-	-0.748	0.196	-	-	-	32	10.884	144.010	-	FREEWAY_SMOOTH	Urban	F	1111101000011101	0000000000010000	-	car	338.004	34.458	0.000	0.000	180.000	696.000	987.000	-0.000	Terminate	
Unknown	130.98595	01/16/0117 10:07.33	00007859	13.413	Inter618t1-0	0.177	1	2	247.146	24.444	-7.1	0.123	0.000	D	F	1616.9	247.622	0.208	-1.705	842.022	1283.359	0.160	-	-0.407	0.164	-	-	-	32	11.241	150.775	-	FREEWAY_SMOOTH	Urban	F	1011101000011101	0000000000010000	-	car	328.021	32.597	0.000	0.000	180.000	696.000	987.000	-0.000	Terminate	
Unknown	131.98598	01/16/0117 10:07.34	00007919	13.581	Inter618t1-0	0.400	1	2	243.825	24.444	-13.5	0.125	0.000	D	F	1630.8	245.584	0.247	-1.672	829.643	1277.980	0.167	-	-0.636	0.164	-	-	-	32	11.560	156.997	-	FREEWAY_SMOOTH	Urban	F	1011101000011101	0000000000010000	-	car	317.843	30.970	0.000	0.000	180.000	696.000	987.000	-0.000	Terminate	
Unknown	132.98599	01/16/0117 10:07.35	00007979	13.738	Inter618t1-0	0.696	1	2	240.518	24.444	-19.9	0.129	0.000	D	F	1637.7	241.404	0.218	-1.618	817.420	1271.884	0.176	-	-1.087	0.156	-	-	-	32	11.905	163.551	-	FREEWAY_SMOOTH	Urban	F	1111101000011101	0000000000010000	-	car	307.321	28.513	0.000	0.000	180.000	696.000	987.000	-0.000	Terminate	
Unknown	133.98601	01/16/0117 10:07.36	00008039	13.892	Inter618t1-0	0.709	1	2	237.148	24.444	-21.0	0.131	0.000	D	F	1653.9	236.678	0.177	-1.607	805.587	1264.762	0.176	-	-1.150	0.168	-	-	-	32	12.228	169.862	-	FREEWAY_SMOOTH	Urban	F	1011101000011101	0000000000010000	-	car	296.239	26.080	0.000	0.000	180.000	696.000	987.000	-0.000	Terminate	
Unknown	134.98604	01/16/0117 10:07.37	00008099	14.038	Inter618t1-0	0.344	1	2	233.754	24.444	-10.9	0.127	0.000	D	F	1648.1	231.598	0.125	-1.638	794.288	1256.560	0.166	-	-0.895	0.143	-	-	-	32	12.541	176.047	-	FREEWAY_SMOOTH	Urban	F	1011101000011101	0000000000010000	-	car	284.560	23.791	0.000	0.000	180.000	696.000	987.000	-0.000	Terminate	
Unknown	135.98605	01/16/0117 10:07.38	00008159	14.176	Inter618t1-0	-0.020	1	2	230.292	24.444	-3.0	0.125	0.000	D	F	1652.3	230.106	0.188	-1.726	783.383	1247.606	0.155	-	-0.249	0.129	-	-	-	32	12.842	182.048	-	FREEWAY_SMOOTH	Urban	F	1011101000011101	0000000000010000	-	car	272.507	22.562	0.000	0.000	180.000	696.000	987.000	-0.000	Terminate	
Unknown	136.98607	01/16/0117 10:07.39	00008219	14.295	Inter618t1-0	0.190	1	2	226.808	24.444	-4.2	0.127	0.000	D	F	1661.3	229.080	0.257	-1.718	772.562	1238.354	0.161	-	-0.284	0.111	-	-	-	-	-	-	-	FREEWAY_SMOOTH	Urban	F	1011101000011101	0000000000010000	-	car	260.396	21.512	0.000	0.000	180.000	696.000	987.000	-0.000	Terminate	
Unknown	137.98610	01/16/0117 10:07.40	00008279	14.385	Inter618t1-0	0.766	1	2	223.306	24.444	-30.1	0.123	0.000	D	F	1663.8	224.949	0.236	-1.529	761.999	1228.654	0.178	-	-1.679	0.080	-	-	-	-	-	-	-	FREEWAY_SMOOTH	Urban	F	1011101000011101	0000000000010000	-	car	248.145	19.854	0.000	0.000	180.000	696.000	987.000	-0.000	Terminate	
Unknown	138.98611	01/16/0117 10:07.41	00008339	14.480	Inter618t1-0	0.763	1	2	219.794	24.444	-15.1	0.125	0.000	D	F	1670.6	218.909	0.163	-1.637	752.417	1217.870	0.178	-	-1.035	0.103	-	-	-	-	-	-	-	FREEWAY_SMOOTH	Urban	F	1011101000011101	0000000000010000	-	car	235.304	17.956	0.000	0.000	180.000	696.000	987.000	-0.000	Terminate	
Unknown	139.98613	01/16/0117 10:07.42	00008399	14.585	Inter618t1-0	0.512	1	2	216.252	24.444	-14.5	0.125	0.000	D	F	1681.2	215.452	0.167	-1.643	743.650	1206.282	0.171	-	-0.873	0.107	-	-	-	-	-	-	-	FREEWAY_SMOOTH	Urban	F	1011101000011101	0000000000010000	-	car	222.040	16.562	0.000	0.000	180.000	696.000	987.000	-0.000	Terminate	
Unknown	140.98616	01/16/0117 10:07.43	00008459	14.694	Inter618t1-0	0.298	1	2	212.679	24.444	-13.6	0.127	0.000	D	F	1690.6	212.142	0.180	-1.649	735.528	1194.104	0.164	-	-0.823	0.110	-	-	-	-	-	-	-	FREEWAY_SMOOTH	Urban	F	1011101000011101	0000000000010000	-	car	208.483	15.233	0.000	0.000	180.000	696.000	987.000	-0.000	Terminate	
Unknown	141.98618	01/16/0117 10:07.44	00008519	14.750	Inter618t1-0	0.177	1	2	209.070	24.444	-13.5	0.051	0.000	D	F	1546.1	208.974	0.179	-1.648	728.051	1181.404	0.161	-	-0.842	-0.208	-	-	-	-	-	-	-	FREEWAY_SMOOTH	Urban	F	1011101000011101	0000000000010000	-	car	194.669	14.011	0.000	0.000	180.000	696.000	987.000	-0.000	Terminate	
Unknown	142.98619	01/16/0117 10:07.45	00008579	14.205	Inter618t1-0	0.145	1	2	205.537	24.444	-5.3	0.000	0.000	D	F	1395.3	205.742	0.189	-1.684	721.416	1168.526	0.163	-	-0.571	-0.560	-	-	-	-	-	-	-	FREEWAY_SMOOTH	Urban	F	1011101000011101	0000000000010000	-	car	180.937	13.375	0.000	0.000	180.000	696.000	987.000	-0.000	Terminate	
