ZoneName	Time	SystemTime	Frame	Velocity	LaneName	LanePos	LaneIndex	LaneCount	LaneHeading	SpeedLimit	Steer	Accel	Brake	Gear	Horn	SubjectEngineRPM	SubjectHeading	SubjectPitch	SubjectRoll	SubjectX	SubjectY	SubjectZ	Signal	LatAccel	LongAccel	Collision	CollisionAngle	CollisionVelocity	VehAhead	HeadwayTime	HeadwayDist	TTC	TerrainType	CultureType	Slip	DigitalInputs	DigitalInputs2	ActiveTrigger	EntityName	DistToEntity	TimeToEntity	EntityVelocity	EntityAccel	EntityHeading	EntityX	EntityY	EntityZ	GrabData	
Unknown	0.98335	11/01/0116 07:15.25	00000059	0.003	Inter625t13-0	-0.088	1	2	0.000	11.111	-1.8	0.000	0.639	P	F	0.0	0.000	0.139	-0.000	1503.500	523.206	0.017	-	-0.000	0.001	-	-	-	-	-	-	-	PAVEMENT_GENERAL	Urban	F	1011101000011101	0000000000000000	-	-	-	-	-	-	-	-	-	-	Terminate	
Unknown	1.98337	11/01/0116 07:15.26	00000119	0.001	Inter625t13-0	-0.088	1	2	0.000	11.111	-1.8	0.000	0.734	P	F	0.0	0.000	0.184	-0.000	1503.500	523.209	0.023	-	0.000	-0.001	-	-	-	-	-	-	-	PAVEMENT_GENERAL	Urban	F	1011101000011101	0000000000000000	-	-	-	-	-	-	-	-	-	-	Terminate	
Unknown	2.98339	11/01/0116 07:15.27	00000179	0.000	Inter625t13-0	-0.088	1	2	0.000	11.111	-1.8	0.000	0.848	P	F	0.0	0.000	0.199	-0.000	1503.500	523.210	0.026	-	0.000	-0.000	-	-	-	-	-	-	-	PAVEMENT_GENERAL	Urban	F	1011101000011101	0000000000000000	-	-	-	-	-	-	-	-	-	-	Terminate	
Unknown	3.98341	11/01/0116 07:15.28	00000239	0.000	Inter625t13-0	-0.088	1	2	0.000	11.111	-1.8	0.000	0.854	P	F	0.0	0.000	0.205	-0.000	1503.500	523.210	0.027	-	0.000	-0.000	-	-	-	-	-	-	-	PAVEMENT_GENERAL	Urban	F	1011101000011101	0000000000000000	-	-	-	-	-	-	-	-	-	-	Terminate	
Unknown	4.98343	11/01/0116 07:15.29	00000299	0.000	Inter625t13-0	-0.088	1	2	0.000	11.111	-1.8	0.000	0.833	P	F	0.0	0.000	0.207	-0.000	1503.500	523.210	0.027	-	0.000	-0.000	-	-	-	-	-	-	-	PAVEMENT_GENERAL	Urban	F	1011101000011101	0000000000000000	-	-	-	-	-	-	-	-	-	-	Terminate	
Unknown	5.98345	11/01/0116 07:15.30	00000359	0.000	Inter625t13-0	-0.088	1	2	0.000	11.111	-1.8	0.000	0.830	P	F	50.0	0.000	0.208	-0.000	1503.500	523.210	0.028	-	-0.000	-0.000	-	-	-	-	-	-	-	PAVEMENT_GENERAL	Urban	F	1011101000011111	0000000000000000	-	-	-	-	-	-	-	-	-	-	Terminate	
Unknown	6.98347	11/01/0116 07:15.31	00000419	0.000	Inter625t13-0	-0.088	1	2	0.000	11.111	-1.8	0.000	0.821	P	F	383.3	0.000	0.208	-0.000	1503.500	523.210	0.028	-	0.000	-0.000	-	-	-	-	-	-	-	PAVEMENT_GENERAL	Urban	F	1011101000011101	0000000000000000	-	-	-	-	-	-	-	-	-	-	Terminate	
Unknown	7.98349	11/01/0116 07:15.32	00000479	0.000	Inter625t13-0	-0.088	1	2	0.000	11.111	-1.8	0.000	0.824	P	F	477.5	0.000	0.208	-0.000	1503.500	523.210	0.028	-	0.000	-0.000	-	-	-	-	-	-	-	PAVEMENT_GENERAL	Urban	F	1011101000011101	0000000000000000	-	-	-	-	-	-	-	-	-	-	Terminate	
Unknown	8.98351	11/01/0116 07:15.33	00000539	0.000	Inter625t13-0	-0.088	1	2	0.000	11.111	-1.8	0.000	0.845	P	F	477.5	0.000	0.208	-0.000	1503.500	523.210	0.028	-	0.000	-0.000	-	-	-	-	-	-	-	PAVEMENT_GENERAL	Urban	F	1011101000011101	0000000000000000	-	-	-	-	-	-	-	-	-	-	Terminate	
Unknown	9.98353	11/01/0116 07:15.34	00000599	0.000	Inter625t13-0	-0.088	1	2	0.000	11.111	-1.8	0.000	0.836	N	F	477.5	0.000	0.209	-0.000	1503.500	523.210	0.028	-	0.000	-0.000	-	-	-	-	-	-	-	PAVEMENT_GENERAL	Urban	F	1011101000011101	0000000000000000	-	-	-	-	-	-	-	-	-	-	Terminate	
Unknown	10.98355	11/01/0116 07:15.35	00000659	0.000	Inter625t13-0	-0.088	1	2	0.000	11.111	-1.8	0.000	0.806	D	F	477.5	0.000	0.209	-0.000	1503.500	523.210	0.028	-	0.000	-0.000	-	-	-	-	-	-	-	PAVEMENT_GENERAL	Urban	F	1011101000011101	0000000000000000	-	-	-	-	-	-	-	-	-	-	Terminate	
Unknown	11.98357	11/01/0116 07:15.36	00000719	0.000	Inter625t13-0	-0.088	1	2	0.000	11.111	-1.8	0.000	0.588	D	F	477.5	0.000	0.209	-0.000	1503.500	523.210	0.028	-	0.000	-0.000	-	-	-	-	-	-	-	PAVEMENT_GENERAL	Urban	F	1011101000011101	0000000000000000	-	-	-	-	-	-	-	-	-	-	Terminate	
Unknown	12.98359	11/01/0116 07:15.37	00000779	0.000	Inter625t13-0	-0.088	1	2	0.000	11.111	-4.6	0.000	0.000	D	F	477.5	0.000	0.209	0.000	1503.500	523.210	0.028	-	-0.000	0.001	-	-	-	-	-	-	-	PAVEMENT_GENERAL	Urban	F	1011101000011101	0000000000000000	-	-	-	-	-	-	-	-	-	-	Terminate	
Unknown	13.98361	11/01/0116 07:15.38	00000839	0.015	Inter625t13-0	-0.088	1	2	0.000	11.111	-4.4	0.062	0.000	D	F	799.0	0.000	0.203	0.000	1503.500	523.214	0.025	-	-0.000	0.065	-	-	-	-	-	-	-	PAVEMENT_GENERAL	Urban	F	1011101000011101	0000000000000000	-	-	-	-	-	-	-	-	-	-	Terminate	
Unknown	14.98363	11/01/0116 07:15.39	00000899	1.844	Inter625t13-0	-0.090	1	2	0.000	11.111	-3.9	0.125	0.000	D	F	1326.3	359.944	0.225	0.001	1503.498	523.838	0.014	-	-0.011	2.824	-	-	-	-	-	-	-	PAVEMENT_GENERAL	Urban	F	1011101000011101	0000000000000000	-	-	-	-	-	-	-	-	-	-	Terminate	
Unknown	15.98365	11/01/0116 07:15.40	00000959	4.079	Inter625t13-0	-0.104	1	2	0.000	11.111	-2.9	0.136	0.000	D	F	1557.9	359.727	0.215	0.003	1503.484	526.867	0.017	-	-0.018	1.835	-	-	-	-	-	-	-	PAVEMENT_GENERAL	Urban	F	1011101000011101	0000000000000000	-	-	-	-	-	-	-	-	-	-	Terminate	
Unknown	16.98367	11/01/0116 07:15.41	00001019	5.440	Inter625t13-0	-0.130	1	2	0.000	11.111	0.9	0.122	0.000	D	F	1725.8	359.716	0.214	-0.002	1503.458	531.664	0.020	-	0.012	1.185	-	-	-	-	-	-	-	PAVEMENT_GENERAL	Urban	F	1011101000011101	0000000000000000	-	-	-	-	-	-	-	-	-	-	Terminate	
Unknown	17.98369	11/01/0116 07:15.42	00001079	6.437	Inter625t49-0	-0.158	1	1	0.006	11.111	-0.3	0.111	0.000	D	F	1440.5	359.732	0.207	0.000	1503.431	537.646	0.022	-	-0.002	0.757	-	-	-	-	-	-	-	PAVEMENT_GENERAL	Urban	F	1111101000011101	0000000000000000	-	-	-	-	-	-	-	-	-	-	Terminate	
Unknown	18.98371	11/01/0116 07:15.43	00001139	7.301	Inter625t49-0	-0.194	1	1	0.007	11.111	-0.7	0.153	0.000	D	F	1600.0	359.684	0.210	0.002	1503.395	544.489	0.021	-	-0.015	0.979	-	-	-	-	-	-	-	PAVEMENT_GENERAL	Urban	F	1011101000011101	0000000000000000	-	-	-	-	-	-	-	-	-	-	Terminate	
Unknown	19.98373	11/01/0116 07:15.44	00001199	7.994	Inter625t49-0	-0.243	1	1	0.008	11.111	-0.6	0.132	0.000	D	F	1597.5	359.621	0.225	0.003	1503.347	552.191	0.024	-	-0.013	0.755	-	-	-	-	-	-	-	PAVEMENT_GENERAL	Urban	F	1011101000011101	0000000000000000	-	-	-	-	-	-	-	-	-	-	Terminate	
Unknown	20.98375	11/01/0116 07:15.45	00001259	8.784	Inter625t49-0	-0.311	1	1	0.006	11.111	0.4	0.164	0.000	D	F	1729.7	359.478	0.208	-0.001	1503.280	560.566	0.022	-	0.007	0.833	-	-	-	-	-	-	-	PAVEMENT_GENERAL	Urban	F	1011101000011101	0000000000000000	-	-	-	-	-	-	-	-	-	-	Terminate	
Unknown	21.98377	11/01/0116 07:15.46	00001319	9.680	Inter625t49-0	-0.378	1	1	0.005	11.111	2.8	0.176	0.000	D	F	1826.7	359.740	0.207	-0.010	1503.214	569.800	0.022	-	0.078	0.837	-	-	-	-	-	-	-	PAVEMENT_GENERAL	Urban	F	1011101000011101	0000000000000000	-	-	-	-	-	-	-	-	-	-	Terminate	
Unknown	22.98379	11/01/0116 07:15.47	00001379	10.492	Inter625t49-0	-0.389	1	1	0.005	11.111	0.3	0.182	0.000	D	F	1908.6	0.053	0.208	-0.001	1503.204	579.889	0.023	-	0.015	0.798	-	-	-	-	-	-	-	PAVEMENT_GENERAL	Urban	F	1011101000011101	0000000000000000	-	-	-	-	-	-	-	-	-	-	Terminate	
Unknown	23.98381	11/01/0116 07:15.48	00001439	11.283	Inter625t15-0	-0.377	1	2	0.000	11.111	0.4	0.190	0.000	D	F	2012.6	0.071	0.208	-0.001	1503.216	590.776	0.023	-	0.011	0.800	-	-	-	-	-	-	-	PAVEMENT_GENERAL	Urban	F	1011101000011101	0000000000000000	-	-	-	-	-	-	-	-	-	-	Terminate	
Unknown	24.98383	11/01/0116 07:15.49	00001499	12.106	Inter614t1-0	-0.341	1	2	0.000	11.111	0.3	0.203	0.000	D	F	2130.4	0.303	0.205	-0.003	1503.252	602.465	0.022	-	0.029	0.828	-	-	-	12	19.548	236.655	-	PAVEMENT_GENERAL	Urban	F	1011101000011101	0000000000000000	-	-	-	-	-	-	-	-	-	-	Terminate	
Unknown	25.98385	11/01/0116 07:15.50	00001559	12.933	Inter614t1-0	-0.271	1	2	0.000	11.111	-0.5	0.208	0.000	D	F	2229.1	0.304	0.205	0.003	1503.322	614.986	0.023	-	-0.018	0.796	-	-	-	12	18.773	242.799	-	PAVEMENT_GENERAL	Urban	F	1011101000011101	0000000000000000	-	-	-	-	-	-	-	-	-	-	Terminate	
Unknown	26.98387	11/01/0116 07:15.51	00001619	13.685	Inter614t1-0	-0.212	1	2	0.000	11.111	-0.5	0.210	0.000	D	F	1875.5	0.195	0.202	0.003	1503.381	628.310	0.023	-	-0.026	0.652	-	-	-	-	-	-	-	PAVEMENT_GENERAL	Urban	F	1011101000011101	0000000000000000	-	-	-	-	-	-	-	-	-	-	Terminate	
Unknown	27.98389	11/01/0116 07:15.52	00001679	14.324	Inter614t1-0	-0.174	1	2	0.000	11.111	-0.7	0.215	0.000	D	F	1894.6	0.111	0.202	0.004	1503.419	642.318	0.024	-	-0.030	0.623	-	-	-	-	-	-	-	PAVEMENT_GENERAL	Urban	F	1011101000011101	0000000000000000	-	-	-	-	-	-	-	-	-	-	Terminate	
Unknown	28.98391	11/01/0116 07:15.53	00001739	14.936	Inter614t1-0	-0.162	1	2	0.000	11.111	-0.8	0.217	0.000	D	F	1930.0	0.000	0.201	0.005	1503.431	656.950	0.024	-	-0.041	0.599	-	-	-	-	-	-	-	PAVEMENT_GENERAL	Urban	F	1011101000011101	0000000000000000	-	-	-	-	-	-	-	-	-	-	Terminate	
Unknown	29.98393	11/01/0116 07:15.54	00001799	15.493	Inter614t1-0	-0.183	1	2	0.000	11.111	0.4	0.213	0.000	D	F	1935.4	359.891	0.199	-0.001	1503.410	672.172	0.024	-	0.006	0.518	-	-	-	-	-	-	-	PAVEMENT_GENERAL	Urban	F	1011101000011101	0000000000000000	-	-	-	-	-	-	-	-	-	-	Terminate	
Unknown	30.98395	11/01/0116 07:15.55	00001859	15.997	Inter614t1-0	-0.202	1	2	0.000	11.111	0.2	0.213	0.000	D	F	1962.1	0.000	0.198	-0.002	1503.391	687.919	0.024	-	0.015	0.491	-	-	-	-	-	-	-	PAVEMENT_GENERAL	Urban	F	1011101000011101	0000000000000000	-	-	-	-	-	-	-	-	-	-	Terminate	
Unknown	31.98397	11/01/0116 07:15.56	00001919	16.475	Inter614t1-0	-0.200	1	2	0.000	11.111	0.3	0.213	0.000	D	F	1991.5	0.049	0.198	-0.003	1503.393	704.158	0.024	-	0.021	0.472	-	-	-	-	-	-	-	PAVEMENT_GENERAL	Urban	F	1011101000011101	0000000000000000	-	-	-	-	-	-	-	-	-	-	Terminate	
Unknown	32.98399	11/01/0116 07:15.57	00001979	16.927	Inter614t1-0	-0.176	1	2	0.000	11.111	-0.1	0.206	0.000	D	F	2000.6	0.119	0.196	-0.000	1503.417	720.862	0.025	-	0.005	0.428	-	-	-	-	-	-	-	PAVEMENT_GENERAL	Urban	F	1011101000011101	0000000000000000	-	-	-	-	-	-	-	-	-	-	Terminate	
Unknown	33.98401	11/01/0116 07:15.58	00002039	17.344	Inter614t1-0	-0.151	1	2	0.000	11.111	-1.3	0.213	0.000	D	F	2035.5	0.000	0.196	0.010	1503.442	737.998	0.025	-	-0.082	0.410	-	-	-	-	-	-	-	PAVEMENT_GENERAL	Urban	F	1011101000011101	0000000000000000	-	-	-	-	-	-	-	-	-	-	Terminate	
Unknown	34.98403	11/01/0116 07:15.59	00002099	17.748	Inter614t1-0	-0.180	1	2	0.000	11.111	-0.4	0.210	0.000	D	F	2059.5	359.839	0.195	0.004	1503.413	755.546	0.025	-	-0.027	0.395	-	-	-	-	-	-	-	PAVEMENT_GENERAL	Urban	F	1011101000011101	0000000000000000	-	-	-	-	-	-	-	-	-	-	Terminate	
Unknown	35.98405	11/01/0116 07:16.00	00002159	18.128	Inter614t1-0	-0.245	1	2	0.000	11.111	-0.8	0.212	0.000	D	F	2088.4	359.713	0.194	0.007	1503.348	773.485	0.025	-	-0.050	0.372	-	-	-	-	-	-	-	PAVEMENT_GENERAL	Urban	F	1011101000011101	0000000000000000	-	-	-	-	-	-	-	-	-	-	Terminate	
Unknown	36.98407	11/01/0116 07:16.01	00002219	18.293	Inter614t1-0	-0.352	1	2	0.000	11.111	0.9	0.000	0.000	D	F	1489.3	359.664	0.168	-0.007	1503.241	791.770	0.028	-	0.045	-0.539	-	-	-	-	-	-	-	PAVEMENT_GENERAL	Urban	F	1011101000011101	0000000000000000	-	-	-	-	-	-	-	-	-	-	Terminate	
Unknown	37.98409	11/01/0116 07:16.02	00002279	17.735	Inter612t1-0	-0.406	1	2	0.000	11.111	2.1	0.016	0.000	D	F	1215.7	0.108	0.187	-0.021	1503.188	809.783	0.029	-	0.165	-0.495	-	-	-	-	-	-	-	PAVEMENT_GENERAL	Urban	F	1011101000011101	0000000000000000	-	-	-	-	-	-	-	-	-	-	Terminate	
Unknown	38.98411	11/01/0116 07:16.03	00002339	17.408	Inter612t1-0	-0.333	1	2	0.000	11.111	-0.3	0.097	0.000	D	F	1468.2	0.298	0.191	0.002	1503.260	827.328	0.028	-	-0.010	-0.186	-	-	-	-	-	-	-	PAVEMENT_GENERAL	Urban	F	1011101000011101	0000000000000000	-	-	-	-	-	-	-	-	-	-	Terminate	
Unknown	39.98413	11/01/0116 07:16.04	00002399	17.347	Inter612t1-0	-0.257	1	2	0.000	11.111	-0.8	0.134	0.000	D	F	1580.4	0.182	0.192	0.007	1503.336	844.692	0.027	-	-0.047	0.022	-	-	-	-	-	-	-	PAVEMENT_GENERAL	Urban	F	1011101000011101	0000000000000000	-	-	-	-	-	-	-	-	-	-	Terminate	
Unknown	40.98415	11/01/0116 07:16.05	00002459	17.407	Inter612t1-0	-0.221	1	2	0.000	11.111	-0.6	0.150	0.000	D	F	1618.9	0.050	0.192	0.004	1503.372	862.062	0.026	-	-0.035	0.082	-	-	-	-	-	-	-	PAVEMENT_GENERAL	Urban	F	1011101000011101	0000000000000000	-	-	-	-	-	-	-	-	-	-	Terminate	
Unknown	41.98417	11/01/0116 07:16.06	00002519	17.515	Inter612t1-0	-0.222	1	2	0.000	11.111	-0.8	0.169	0.000	D	F	1676.9	359.918	0.193	0.006	1503.371	879.516	0.026	-	-0.047	0.148	-	-	-	-	-	-	-	PAVEMENT_GENERAL	Urban	F	1011101000011101	0000000000000000	-	-	-	-	-	-	-	-	-	-	Terminate	
Unknown	42.98419	11/01/0116 07:16.07	00002579	17.710	Inter612t1-0	-0.269	1	2	0.000	11.111	-0.7	0.199	0.000	D	F	1758.3	359.766	0.194	0.003	1503.324	897.118	0.025	-	-0.039	0.260	-	-	-	-	-	-	-	PAVEMENT_GENERAL	Urban	F	1011101000011101	0000000000000000	-	-	-	-	-	-	-	-	-	-	Terminate	
Unknown	43.98421	11/01/0116 07:16.08	00002639	18.046	Inter612t1-0	-0.353	1	2	0.000	11.111	0.2	0.222	0.000	D	F	1825.1	359.706	0.194	0.000	1503.240	914.991	0.025	-	-0.000	0.356	-	-	-	-	-	-	-	PAVEMENT_GENERAL	Urban	F	1011101000011101	0000000000000000	-	-	-	-	-	-	-	-	-	-	Terminate	
Unknown	44.98423	11/01/0116 07:16.09	00002699	18.415	Inter612t1-0	-0.434	1	2	0.000	11.111	0.5	0.247	0.000	D	F	1856.9	359.813	0.194	-0.005	1503.159	933.219	0.025	-	0.040	0.381	-	-	-	-	-	-	-	PAVEMENT_GENERAL	Urban	F	1011101000011101	0000000000000000	-	-	-	-	-	-	-	-	-	-	Terminate	
Unknown	45.98425	11/01/0116 07:16.10	00002759	18.785	Inter612t1-0	-0.476	1	2	0.000	11.111	1.2	0.240	0.000	D	F	1863.5	0.000	0.193	-0.011	1503.117	951.821	0.025	-	0.078	0.359	-	-	-	-	-	-	-	PAVEMENT_GENERAL	Urban	F	1011101000011101	0000000000000000	-	-	-	-	-	-	-	-	-	-	Terminate	
Unknown	46.98427	11/01/0116 07:16.11	00002819	19.135	Inter612t1-0	-0.447	1	2	0.000	11.111	0.0	0.222	0.000	D	F	1864.0	0.203	0.192	-0.004	1503.146	970.784	0.025	-	0.034	0.329	-	-	-	-	-	-	-	PAVEMENT_GENERAL	Urban	F	1011101000011101	0000000000000000	-	-	-	-	-	-	-	-	-	-	Terminate	
Unknown	47.98429	11/01/0116 07:16.12	00002879	18.844	Inter612t1-0	-0.386	1	2	0.000	11.111	-0.3	0.000	0.000	D	F	1285.0	0.164	0.182	0.003	1503.207	989.868	0.029	-	-0.017	-0.586	-	-	-	-	-	-	-	PAVEMENT_GENERAL	Urban	F	1011101000011101	0000000000000000	-	-	-	-	-	-	-	-	-	-	Terminate	
Unknown	48.98431	11/01/0116 07:16.13	00002939	18.371	Inter613t1-0	-0.356	1	2	0.000	11.111	-0.6	0.072	0.000	D	F	1421.4	359.926	0.190	0.008	1503.237	1008.449	0.028	-	-0.086	-0.288	-	-	-	-	-	-	-	PAVEMENT_GENERAL	Urban	F	1011101000011101	0000000000000000	-	-	-	-	-	-	-	-	-	-	Terminate	
Unknown	49.98433	11/01/0116 07:16.14	00002999	18.117	Inter613t1-0	-0.393	1	2	0.000	11.111	-0.2	0.081	0.000	D	F	1445.4	359.824	0.188	0.003	1503.200	1026.688	0.028	-	-0.022	-0.227	-	-	-	-	-	-	-	PAVEMENT_GENERAL	Urban	F	1011101000011101	0000000000000000	-	-	-	-	-	-	-	-	-	-	Terminate	
Unknown	50.98435	11/01/0116 07:16.15	00003059	17.904	Inter613t1-0	-0.426	1	2	0.000	11.111	2.0	0.085	0.000	D	F	1442.0	0.062	0.189	-0.016	1503.167	1044.696	0.028	-	0.118	-0.208	-	-	-	-	-	-	-	PAVEMENT_GENERAL	Urban	F	1011101000011101	0000000000000000	-	-	-	-	-	-	-	-	-	-	Terminate	
Unknown	51.98437	11/01/0116 07:16.16	00003119	17.718	Inter613t1-0	-0.354	1	2	0.000	11.111	-0.6	0.090	0.000	D	F	1467.2	0.370	0.190	0.002	1503.240	1062.504	0.027	-	0.002	-0.164	-	-	-	-	-	-	-	PAVEMENT_GENERAL	Urban	F	1011101000011101	0000000000000000	-	-	-	-	-	-	-	-	-	-	Terminate	
Unknown	52.98439	11/01/0116 07:16.17	00003179	17.536	Inter613t1-0	-0.311	1	2	0.000	11.111	-3.9	0.085	0.000	D	F	1428.0	359.723	0.189	0.034	1503.282	1080.132	0.027	-	-0.259	-0.189	-	-	-	-	-	-	-	PAVEMENT_GENERAL	Urban	F	1011101000011101	0000000000000000	-	-	-	-	-	-	-	-	-	-	Terminate	
Unknown	53.98441	11/01/0116 07:16.18	00003239	17.353	Inter613t1-0	-0.486	1	2	0.000	11.111	-2.3	0.085	0.000	D	F	1427.2	359.085	0.190	0.021	1503.107	1097.575	0.027	-	-0.155	-0.178	-	-	-	-	-	-	-	PAVEMENT_GENERAL	Urban	F	1011101000011101	0000000000000000	-	-	-	-	-	-	-	-	-	-	Terminate	
Unknown	54.98443	11/01/0116 07:16.19	00003299	17.186	Inter613t1-0	-0.778	1	2	0.000	11.111	4.1	0.092	0.000	D	F	1441.3	359.215	0.191	-0.031	1502.816	1114.839	0.027	-	0.219	-0.150	-	-	-	-	-	-	-	PAVEMENT_GENERAL	Urban	F	1011101000011101	0000000000000000	-	-	-	-	-	-	-	-	-	-	Terminate	
Unknown	55.98445	11/01/0116 07:16.20	00003359	17.041	Inter613t1-0	-0.884	1	2	0.000	11.111	3.5	0.093	0.000	D	F	1444.2	0.236	0.190	-0.036	1502.709	1131.951	0.027	-	0.284	-0.140	-	-	-	-	-	-	-	PAVEMENT_GENERAL	Urban	F	1011101000011101	0000000000000000	-	-	-	-	-	-	-	-	-	-	Terminate	
Unknown	56.98447	11/01/0116 07:16.21	00003419	16.905	Inter613t1-0	-0.798	1	2	0.000	11.111	-1.6	0.095	0.000	D	F	1444.5	0.099	0.191	0.020	1502.795	1148.922	0.027	-	-0.148	-0.132	-	-	-	-	-	-	-	PAVEMENT_GENERAL	Urban	F	1011101000011101	0000000000000000	-	-	-	-	-	-	-	-	-	-	Terminate	
Unknown	57.98449	11/01/0116 07:16.22	00003479	16.777	Inter613t1-0	-0.792	1	2	0.000	11.111	1.2	0.092	0.000	D	F	1433.2	0.001	0.191	-0.005	1502.802	1165.764	0.027	-	0.041	-0.143	-	-	-	-	-	-	-	PAVEMENT_GENERAL	Urban	F	1011101000011101	0000000000000000	-	-	-	-	-	-	-	-	-	-	Terminate	
Unknown	58.98451	11/01/0116 07:16.23	00003539	16.649	Inter613t1-0	-0.751	1	2	0.000	11.111	1.7	0.095	0.000	D	F	1444.4	0.335	0.191	-0.014	1502.843	1182.474	0.027	-	0.104	-0.118	-	-	-	-	-	-	-	PAVEMENT_GENERAL	Urban	F	1011101000011101	0000000000000000	-	-	-	-	-	-	-	-	-	-	Terminate	
Unknown	59.98453	11/01/0116 07:16.24	00003599	16.530	Inter613t1-0	-0.616	1	2	0.000	11.111	1.1	0.093	0.000	D	F	1432.3	0.606	0.191	-0.008	1502.977	1199.063	0.027	-	0.066	-0.121	-	-	-	-	-	-	-	PAVEMENT_GENERAL	Urban	F	1011101000011101	0000000000000000	-	-	-	-	-	-	-	-	-	-	Terminate	
Unknown	60.98455	11/01/0116 07:16.25	00003659	16.410	Inter746t1-0	-0.417	1	2	0.000	11.111	1.1	0.093	0.000	D	F	1426.9	0.795	0.192	-0.007	1503.176	1215.531	0.027	-	0.056	-0.119	-	-	-	-	-	-	-	PAVEMENT_GENERAL	Urban	F	1011101000011101	0000000000000000	-	-	-	-	-	-	-	-	-	-	Terminate	
Unknown	61.98457	11/01/0116 07:16.26	00003719	16.286	Inter746t1-0	-0.180	1	2	0.000	11.111	-0.7	0.086	0.000	D	F	1411.4	0.813	0.192	0.005	1503.414	1231.879	0.027	-	-0.035	-0.130	-	-	-	-	-	-	-	PAVEMENT_GENERAL	Urban	F	1011101000011101	0000000000000000	-	-	-	-	-	-	-	-	-	-	Terminate	
Unknown	62.98459	11/01/0116 07:16.27	00003779	16.159	Inter746t1-0	0.011	1	2	0.000	11.111	-2.3	0.092	0.000	D	F	1422.8	0.436	0.192	0.018	1503.604	1248.100	0.027	-	-0.136	-0.111	-	-	-	-	-	-	-	PAVEMENT_GENERAL	Urban	F	1011101000011101	0000000000000000	-	-	-	-	-	-	-	-	-	-	Terminate	
Unknown	63.98461	11/01/0116 07:16.28	00003839	16.046	Inter746t1-0	0.075	1	2	0.000	11.111	-2.0	0.120	0.000	D	F	1492.7	0.000	0.194	0.015	1503.669	1264.197	0.027	-	-0.116	-0.015	-	-	-	-	-	-	-	PAVEMENT_GENERAL	Urban	F	1011101000011101	0000000000000000	-	-	-	-	-	-	-	-	-	-	Terminate	
Unknown	64.98463	11/01/0116 07:16.29	00003899	16.237	Inter746t1-0	0.041	1	2	0.000	11.111	-0.2	0.175	0.000	D	F	1658.1	359.805	0.195	0.004	1503.634	1280.321	0.025	-	-0.019	0.217	-	-	-	-	-	-	-	PAVEMENT_GENERAL	Urban	F	1011101000011101	0000000000000000	-	-	-	-	-	-	-	-	-	-	Terminate	
Unknown	65.98465	11/01/0116 07:16.30	00003959	16.448	Inter746t1-0	-0.023	1	2	0.000	11.111	-0.7	0.176	0.000	D	F	1659.1	359.728	0.195	0.005	1503.570	1296.663	0.026	-	-0.036	0.221	-	-	-	-	-	-	-	PAVEMENT_GENERAL	Urban	F	1011101000011101	0000000000000000	-	-	-	-	-	-	-	-	-	-	Terminate	
Unknown	66.98467	11/01/0116 07:16.31	00004019	16.696	Inter746t1-0	-0.108	1	2	0.000	11.111	-0.3	0.183	0.000	D	F	1707.5	359.696	0.196	0.001	1503.485	1313.228	0.025	-	-0.007	0.287	-	-	-	-	-	-	-	PAVEMENT_GENERAL	Urban	F	1011101000011101	0000000000000000	-	-	-	-	-	-	-	-	-	-	Terminate	
Unknown	67.98470	11/01/0116 07:16.32	00004079	16.968	Inter746t1-0	-0.206	1	2	0.000	11.111	-0.3	0.185	0.000	D	F	1715.4	359.611	0.195	0.004	1503.387	1330.061	0.025	-	-0.027	0.269	-	-	-	-	-	-	-	PAVEMENT_GENERAL	Urban	F	1011101000011101	0000000000000000	-	-	-	-	-	-	-	-	-	-	Terminate	
Unknown	68.98471	11/01/0116 07:16.33	00004139	17.212	Inter746t1-0	-0.332	1	2	0.000	11.111	-0.3	0.189	0.000	D	F	1714.0	359.534	0.194	0.002	1503.261	1347.153	0.026	-	-0.020	0.232	-	-	-	-	-	-	-	PAVEMENT_GENERAL	Urban	F	1011101000011101	0000000000000000	-	-	-	-	-	-	-	-	-	-	Terminate	
Unknown	69.98473	11/01/0116 07:16.34	00004199	17.448	Inter746t1-0	-0.479	1	2	0.000	11.111	-0.8	0.187	0.000	D	F	1720.6	359.470	0.194	0.006	1503.114	1364.483	0.026	-	-0.037	0.235	-	-	-	-	-	-	-	PAVEMENT_GENERAL	Urban	F	1011101000011101	0000000000000000	-	-	-	-	-	-	-	-	-	-	Terminate	
Unknown	70.98476	11/01/0116 07:16.35	00004259	17.638	Inter746t1-0	-0.639	1	2	0.000	11.111	1.8	0.168	0.000	D	F	1676.1	359.641	0.192	-0.018	1502.954	1382.035	0.026	-	0.129	0.132	-	-	-	-	-	-	-	PAVEMENT_GENERAL	Urban	F	1011101000011101	0000000000000000	-	-	-	-	-	-	-	-	-	-	Terminate	
Unknown	71.98477	11/01/0116 07:16.36	00004319	17.718	Inter746t1-0	-0.698	1	2	0.000	11.111	3.1	0.123	0.000	D	F	1557.2	0.069	0.188	-0.023	1502.895	1399.726	0.026	-	0.175	-0.043	-	-	-	-	-	-	-	PAVEMENT_GENERAL	Urban	F	1011101000011101	0000000000000000	-	-	-	-	-	-	-	-	-	-	Terminate	
Unknown	72.98479	11/01/0116 07:16.37	00004379	17.322	Inter749t33-0	-0.644	1	1	0.062	11.111	-9.2	0.000	0.000	D	F	1181.1	359.830	0.185	0.076	1502.950	1417.303	0.029	L	-0.525	-0.565	-	-	-	-	-	-	-	PAVEMENT_GENERAL	Urban	F	1011101000111101	0000000000000000	-	-	-	-	-	-	-	-	-	-	Terminate	
Unknown	73.98481	11/01/0116 07:16.38	00004439	14.045	Inter749t31-0	-0.131	1	1	354.283	11.111	-13.1	0.000	0.418	D	F	903.9	356.691	0.013	0.142	1502.557	1433.524	0.040	L	-0.856	-5.308	-	-	-	-	-	-	-	PAVEMENT_GENERAL	Urban	F	1011101000111101	0000000000000000	-	-	-	-	-	-	-	-	-	-	Terminate	
Unknown	74.98483	11/01/0116 07:16.39	00004499	8.628	Inter749t31-0	0.197	1	1	355.985	11.111	3.8	0.000	0.361	D	F	800.8	355.289	0.065	-0.010	1501.763	1444.780	0.039	L	0.026	-4.788	-	-	-	-	-	-	-	PAVEMENT_GENERAL	Urban	F	1011101000111101	0000000000000000	-	-	-	-	-	-	-	-	-	-	Terminate	
Unknown	75.98486	11/01/0116 07:16.40	00004559	7.162	Inter749t31-0	0.343	1	1	356.903	11.111	13.6	0.206	0.000	D	F	1632.6	356.476	0.232	-0.032	1501.236	1452.200	0.027	L	0.239	0.895	-	-	-	-	-	-	-	PAVEMENT_GENERAL	Urban	F	1011101000111101	0000000000000000	-	-	-	-	-	-	-	-	-	-	Terminate	
Unknown	76.98487	11/01/0116 07:16.41	00004619	8.092	Inter749t31-0	0.448	1	1	356.903	11.111	5.2	0.000	0.000	D	F	933.7	358.255	0.172	-0.008	1500.919	1459.982	0.026	L	0.105	-0.431	-	-	-	-	-	-	-	PAVEMENT_GENERAL	Urban	F	1011101000111101	0000000000000000	-	-	-	-	-	-	-	-	-	-	Terminate	
Unknown	77.98489	11/01/0116 07:16.42	00004679	6.640	Inter749t11-0	0.672	LT1	2	0.000	11.111	2.4	0.000	0.194	D	F	637.2	358.756	0.148	-0.007	1500.735	1467.596	0.032	L	0.043	-2.777	-	-	-	-	-	-	-	PAVEMENT_GENERAL	Urban	F	1011101000111101	0000000000000000	-	-	-	-	-	-	-	-	-	-	Terminate	
Unknown	78.98492	11/01/0116 07:16.43	00004739	3.304	Inter749t11-0	0.578	LT1	2	0.000	11.111	2.6	0.000	0.245	D	F	477.5	358.987	0.148	-0.001	1500.640	1472.615	0.035	L	0.008	-3.477	-	-	-	-	-	-	-	PAVEMENT_GENERAL	Urban	F	1011101000111101	0000000000000000	-	-	-	-	-	-	-	-	-	-	Terminate	
Unknown	79.98493	11/01/0116 07:16.44	00004799	0.486	Inter749t11-0	0.551	LT1	2	0.000	11.111	3.4	0.000	0.167	D	F	477.5	359.087	0.200	0.000	1500.614	1474.346	0.033	L	-0.002	-1.677	-	-	-	-	-	-	-	PAVEMENT_GENERAL	Urban	F	1011101000111101	0000000000000000	-	-	-	-	-	-	-	-	-	-	Terminate	
Unknown	80.98495	11/01/0116 07:16.45	00004859	0.003	Inter749t11-0	0.550	LT1	2	0.000	11.111	1.3	0.000	0.137	D	F	477.5	359.094	0.225	0.000	1500.612	1474.459	0.029	L	-0.000	-0.019	-	-	-	-	-	-	-	PAVEMENT_GENERAL	Urban	F	1011101000111101	0000000000000000	-	-	-	-	-	-	-	-	-	-	Terminate	
Unknown	81.98497	11/01/0116 07:16.46	00004919	-0.000	Inter749t11-0	0.550	LT1	2	0.000	11.111	-7.1	0.000	0.278	D	F	477.5	359.094	0.213	0.000	1500.612	1474.459	0.028	L	-0.000	0.000	-	-	-	-	-	-	-	PAVEMENT_GENERAL	Urban	F	1011101000111101	0000000000000000	-	-	-	-	-	-	-	-	-	-	Terminate	
Unknown	82.98499	11/01/0116 07:16.47	00004979	-0.000	Inter749t11-0	0.550	LT1	2	0.000	11.111	-1.9	0.000	0.319	D	F	477.5	359.094	0.210	0.000	1500.612	1474.459	0.028	L	0.000	0.000	-	-	-	-	-	-	-	PAVEMENT_GENERAL	Urban	F	1011101000111101	0000000000000000	-	-	-	-	-	-	-	-	-	-	Terminate	
Unknown	83.98502	11/01/0116 07:16.48	00005039	-0.000	Inter749t11-0	0.550	LT1	2	0.000	11.111	-4.5	0.000	0.334	D	F	477.5	359.094	0.209	0.000	1500.612	1474.459	0.028	L	-0.000	0.000	-	-	-	-	-	-	-	PAVEMENT_GENERAL	Urban	F	1011101000111101	0000000000000000	-	-	-	-	-	-	-	-	-	-	Terminate	
Unknown	84.98503	11/01/0116 07:16.49	00005099	-0.000	Inter749t11-0	0.550	LT1	2	0.000	11.111	-4.0	0.000	0.367	D	F	477.5	359.094	0.209	0.000	1500.612	1474.459	0.028	L	0.000	0.000	-	-	-	-	-	-	-	PAVEMENT_GENERAL	Urban	F	1011101000111101	0000000000000000	-	-	-	-	-	-	-	-	-	-	Terminate	
Unknown	85.98505	11/01/0116 07:16.50	00005159	-0.000	Inter749t11-0	0.550	LT1	2	0.000	11.111	0.7	0.000	0.385	D	F	477.5	359.094	0.209	0.000	1500.612	1474.459	0.028	L	0.000	0.000	-	-	-	-	-	-	-	PAVEMENT_GENERAL	Urban	F	1011101000111101	0000000000000000	-	-	-	-	-	-	-	-	-	-	Terminate	
Unknown	86.98507	11/01/0116 07:16.51	00005219	-0.000	Inter749t11-0	0.550	LT1	2	0.000	11.111	0.7	0.000	0.370	D	F	477.5	359.094	0.209	-0.000	1500.612	1474.459	0.028	L	0.000	0.000	-	-	-	-	-	-	-	PAVEMENT_GENERAL	Urban	F	1011101000111101	0000000000000000	-	-	-	-	-	-	-	-	-	-	Terminate	
Unknown	87.98509	11/01/0116 07:16.52	00005279	-0.000	Inter749t11-0	0.550	LT1	2	0.000	11.111	0.9	0.000	0.340	D	F	477.5	359.094	0.209	-0.000	1500.612	1474.459	0.028	L	-0.000	0.000	-	-	-	-	-	-	-	PAVEMENT_GENERAL	Urban	F	1011101000111101	0000000000000000	-	-	-	-	-	-	-	-	-	-	Terminate	
Unknown	88.98512	11/01/0116 07:16.53	00005339	-0.000	Inter749t11-0	0.550	LT1	2	0.000	11.111	1.0	0.000	0.343	D	F	477.5	359.094	0.209	-0.000	1500.612	1474.459	0.028	L	-0.000	0.000	-	-	-	-	-	-	-	PAVEMENT_GENERAL	Urban	F	1111101000111101	0000000000000000	-	-	-	-	-	-	-	-	-	-	Terminate	
Unknown	89.98513	11/01/0116 07:16.54	00005399	-0.000	Inter749t11-0	0.550	LT1	2	0.000	11.111	1.2	0.000	0.388	D	F	477.5	359.094	0.209	-0.000	1500.612	1474.459	0.028	L	-0.000	0.000	-	-	-	-	-	-	-	PAVEMENT_GENERAL	Urban	F	1011101000111101	0000000000000000	-	-	-	-	-	-	-	-	-	-	Terminate	
Unknown	90.98515	11/01/0116 07:16.55	00005459	0.000	Inter749t11-0	0.550	LT1	2	0.000	11.111	1.3	0.000	0.388	D	F	477.5	359.094	0.209	0.000	1500.612	1474.459	0.028	L	0.000	0.000	-	-	-	-	-	-	-	PAVEMENT_GENERAL	Urban	F	1011101000111101	0000000000000000	-	-	-	-	-	-	-	-	-	-	Terminate	
Unknown	91.98518	11/01/0116 07:16.56	00005519	0.000	Inter749t11-0	0.550	LT1	2	0.000	11.111	1.4	0.000	0.376	D	F	477.5	359.094	0.209	0.000	1500.612	1474.459	0.028	L	-0.000	0.000	-	-	-	-	-	-	-	PAVEMENT_GENERAL	Urban	F	1011101000111101	0000000000000000	-	-	-	-	-	-	-	-	-	-	Terminate	
Unknown	92.98519	11/01/0116 07:16.57	00005579	0.000	Inter749t11-0	0.550	LT1	2	0.000	11.111	1.5	0.000	0.364	D	F	477.5	359.094	0.209	0.000	1500.612	1474.459	0.028	L	-0.000	-0.000	-	-	-	-	-	-	-	PAVEMENT_GENERAL	Urban	F	1011101000111101	0000000000000000	-	-	-	-	-	-	-	-	-	-	Terminate	
Unknown	93.98521	11/01/0116 07:16.58	00005639	0.000	Inter749t11-0	0.550	LT1	2	0.000	11.111	1.6	0.000	0.337	D	F	477.5	359.094	0.209	0.000	1500.612	1474.459	0.028	L	-0.000	-0.000	-	-	-	-	-	-	-	PAVEMENT_GENERAL	Urban	F	1011101000111101	0000000000000000	-	-	-	-	-	-	-	-	-	-	Terminate	
Unknown	94.98523	11/01/0116 07:16.59	00005699	0.000	Inter749t11-0	0.550	LT1	2	0.000	11.111	1.6	0.000	0.331	D	F	477.5	359.094	0.209	0.000	1500.612	1474.459	0.028	L	-0.000	0.000	-	-	-	Ambient290	-	40.490	-	PAVEMENT_GENERAL	Urban	F	1011101000111101	0000000000000000	-	-	-	-	-	-	-	-	-	-	Terminate	
Unknown	95.98525	11/01/0116 07:17.00	00005759	0.000	Inter749t11-0	0.550	LT1	2	0.000	11.111	1.8	0.000	0.376	D	F	477.5	359.094	0.209	-0.000	1500.612	1474.459	0.028	L	-0.000	-0.000	-	-	-	Ambient290	-	50.685	-	PAVEMENT_GENERAL	Urban	F	1011101000111101	0000000000000000	-	-	-	-	-	-	-	-	-	-	Terminate	
Unknown	96.98528	11/01/0116 07:17.01	00005819	0.000	Inter749t11-0	0.550	LT1	2	0.000	11.111	2.1	0.000	0.436	D	F	477.5	359.094	0.209	0.000	1500.612	1474.459	0.028	L	-0.000	-0.000	-	-	-	Ambient290	-	60.880	-	PAVEMENT_GENERAL	Urban	F	1011101000111101	0000000000000000	-	-	-	-	-	-	-	-	-	-	Terminate	
Unknown	97.98529	11/01/0116 07:17.02	00005879	0.000	Inter749t11-0	0.550	LT1	2	0.000	11.111	3.0	0.000	0.427	D	F	477.5	359.094	0.209	-0.000	1500.612	1474.459	0.028	L	0.000	-0.000	-	-	-	Ambient290	-	71.076	-	PAVEMENT_GENERAL	Urban	F	1011101000111101	0000000000000000	-	-	-	-	-	-	-	-	-	-	Terminate	
Unknown	98.98531	11/01/0116 07:17.03	00005939	0.000	Inter749t11-0	0.550	LT1	2	0.000	11.111	3.7	0.000	0.316	D	F	477.5	359.094	0.209	-0.000	1500.612	1474.459	0.028	L	0.000	-0.000	-	-	-	Ambient290	-	81.271	-	PAVEMENT_GENERAL	Urban	F	1011101000111101	0000000000000000	-	-	-	-	-	-	-	-	-	-	Terminate	
Unknown	99.98534	11/01/0116 07:17.04	00005999	0.000	Inter749t11-0	0.550	LT1	2	0.000	11.111	3.2	0.000	0.188	D	F	477.5	359.094	0.209	0.000	1500.612	1474.459	0.028	L	0.000	-0.000	-	-	-	Ambient290	-	91.466	-	PAVEMENT_GENERAL	Urban	F	1011101000111101	0000000000000000	-	-	-	-	-	-	-	-	-	-	Terminate	
Unknown	100.98535	11/01/0116 07:17.05	00006059	0.000	Inter749t11-0	0.550	LT1	2	0.000	11.111	3.7	0.000	0.272	D	F	477.5	359.094	0.209	0.000	1500.612	1474.459	0.028	L	-0.000	-0.000	-	-	-	Ambient290	-	101.662	-	PAVEMENT_GENERAL	Urban	F	1011101000111101	0000000000000000	-	-	-	-	-	-	-	-	-	-	Terminate	
Unknown	101.98537	11/01/0116 07:17.06	00006119	0.000	Inter749t11-0	0.550	LT1	2	0.000	11.111	3.7	0.000	0.191	D	F	477.5	359.094	0.209	-0.000	1500.612	1474.459	0.028	L	-0.000	-0.000	-	-	-	Ambient290	-	111.857	-	PAVEMENT_GENERAL	Urban	F	1011101000111101	0000000000000000	-	-	-	-	-	-	-	-	-	-	Terminate	
Unknown	102.98539	11/01/0116 07:17.07	00006179	0.000	Inter749t11-0	0.550	LT1	2	0.000	11.111	3.8	0.000	0.182	D	F	477.5	359.094	0.209	0.000	1500.612	1474.459	0.028	L	0.000	0.000	-	-	-	Ambient290	-	122.049	-	PAVEMENT_GENERAL	Urban	F	1011101000111101	0000000000000000	-	-	-	-	-	-	-	-	-	-	Terminate	
Unknown	103.98541	11/01/0116 07:17.08	00006239	0.000	Inter749t11-0	0.550	LT1	2	0.000	11.111	3.0	0.000	0.000	D	F	477.5	359.094	0.209	-0.000	1500.612	1474.459	0.028	L	0.000	0.000	-	-	-	-	-	-	-	PAVEMENT_GENERAL	Urban	F	1011101000111101	0000000000000000	-	-	-	-	-	-	-	-	-	-	Terminate	
Unknown	104.98544	11/01/0116 07:17.09	00006299	0.009	Inter749t11-0	0.550	LT1	2	0.000	11.111	3.2	0.000	0.000	D	F	477.5	359.095	0.202	0.000	1500.612	1474.462	0.026	L	0.000	0.009	-	-	-	-	-	-	-	PAVEMENT_GENERAL	Urban	F	1011101000111101	0000000000000000	-	-	-	-	-	-	-	-	-	-	Terminate	
Unknown	105.98545	11/01/0116 07:17.10	00006359	0.301	Inter749t11-0	0.549	LT1	2	0.000	11.111	3.2	0.081	0.000	D	F	1083.2	359.099	0.246	0.000	1500.611	1474.507	0.021	L	0.003	1.733	-	-	-	-	-	-	-	PAVEMENT_GENERAL	Urban	F	1011101000111101	0000000000000000	-	-	-	-	-	-	-	-	-	-	Terminate	
Unknown	106.98547	11/01/0116 07:17.11	00006419	2.220	Inter749t11-0	0.533	LT1	2	0.000	11.111	3.2	0.093	0.000	D	F	1259.4	359.185	0.229	-0.001	1500.595	1475.761	0.017	L	0.009	2.091	-	-	-	-	-	-	-	PAVEMENT_GENERAL	Urban	F	1011101000111101	0000000000000000	-	-	-	-	-	-	-	-	-	-	Terminate	
Unknown	107.98550	11/01/0116 07:17.12	00006479	3.241	Inter749t11-0	0.501	LT1	2	0.000	11.111	3.1	0.000	0.000	D	F	639.4	359.381	0.184	-0.002	1500.563	1478.714	0.025	L	0.011	-0.365	-	-	-	-	-	-	-	PAVEMENT_GENERAL	Urban	F	1011101000111101	0000000000000000	-	-	-	-	-	-	-	-	-	-	Terminate	
Unknown	108.98551	11/01/0116 07:17.13	00006539	2.824	-	-	INT	0	-	-	1.2	0.002	0.000	D	F	477.5	359.553	0.200	0.000	1500.540	1481.745	0.028	L	-0.004	-0.390	-	-	-	-	-	-	-	PAVEMENT_GENERAL	Urban	F	1011101000111101	0000000000000000	-	-	-	-	-	-	-	-	-	-	Terminate	
Unknown	109.98553	11/01/0116 07:17.14	00006599	2.968	Inter749t65-0	0.663	1	1	349.977	11.111	-26.8	0.079	0.000	D	F	1207.3	359.053	0.206	0.025	1500.499	1484.491	0.023	L	-0.162	1.058	-	-	-	-	-	-	-	PAVEMENT_GENERAL	Urban	F	1011101000111101	0000000000000000	-	-	-	-	-	-	-	-	-	-	Terminate	
Unknown	110.98555	11/01/0116 07:17.15	00006659	4.602	Inter749t65-0	1.204	1	1	340.810	11.111	-145.2	0.160	0.000	D	F	1692.6	353.164	0.214	0.192	1500.149	1488.180	0.017	L	-1.371	1.820	-	-	-	-	-	-	-	PAVEMENT_GENERAL	Urban	F	1011101000111101	0000000000000000	-	-	-	-	-	-	-	-	-	-	Terminate	
Unknown	111.98557	11/01/0116 07:17.16	00006719	6.499	Inter749t65-0	1.501	1	1	329.402	11.111	-230.5	0.192	0.000	D	F	1934.1	332.590	0.210	0.458	1498.147	1493.365	0.020	L	-3.375	1.593	-	-	-	-	-	-	-	PAVEMENT_GENERAL	Urban	F	1011101000111101	0000000000000000	-	-	-	-	-	-	-	-	-	-	Terminate	
Unknown	112.98560	11/01/0116 07:17.17	00006779	7.857	Inter749t65-0	0.285	1	1	314.592	11.111	-143.4	0.180	0.000	D	F	1715.5	304.805	0.182	0.360	1492.918	1498.300	0.022	L	-2.861	0.992	-	-	-	-	-	-	-	PAVEMENT_GENERAL	Urban	F	1011101000111101	0000000000000000	-	-	-	-	-	-	-	-	-	-	Terminate	
Unknown	113.98561	11/01/0116 07:17.18	00006839	8.970	Inter749t65-0	-1.351	1	1	287.637	11.111	-96.0	0.220	0.000	D	F	1866.3	286.181	0.198	0.313	1485.182	1501.543	0.022	L	-2.411	1.109	-	-	-	-	-	-	-	PAVEMENT_GENERAL	Urban	F	1011101000111101	0000000000000000	-	-	-	-	-	-	-	-	-	-	Terminate	
Unknown	114.98563	11/01/0116 07:17.19	00006899	10.196	Inter749t3-3	-0.624	1	2	270.000	11.111	-22.4	0.222	0.000	D	F	1972.2	274.284	0.204	0.093	1475.699	1502.907	0.021	L	-0.790	1.140	-	-	-	-	-	-	-	PAVEMENT_GENERAL	Urban	F	1011101000111101	0000000000000000	-	-	-	-	-	-	-	-	-	-	Terminate	
Unknown	115.98566	11/01/0116 07:17.20	00006959	11.203	Inter749t19-0	-0.170	1	1	270.068	11.111	-5.7	0.201	0.000	D	F	2017.4	271.258	0.205	0.024	1464.987	1503.363	0.022	-	-0.263	0.862	-	-	-	-	-	-	-	PAVEMENT_GENERAL	Urban	F	1011101000011101	0000000000000000	-	-	-	-	-	-	-	-	-	-	Terminate	
Unknown	116.98567	11/01/0116 07:17.21	00007019	11.985	Inter749t19-0	-0.009	1	1	270.105	11.111	4.8	0.175	0.000	D	F	1802.3	270.865	0.202	-0.021	1453.374	1503.536	0.023	-	0.157	0.650	-	-	-	-	-	-	-	PAVEMENT_GENERAL	Urban	F	1011101000011101	0000000000000000	-	-	-	-	-	-	-	-	-	-	Terminate	
Unknown	117.98569	11/01/0116 07:17.22	00007079	12.522	Inter749t19-0	0.221	1	1	270.084	11.111	-7.0	0.169	0.000	D	F	1700.7	271.205	0.202	0.033	1441.113	1503.789	0.024	-	-0.205	0.495	-	-	-	-	-	-	-	PAVEMENT_GENERAL	Urban	F	1011101000011101	0000000000000000	-	-	-	-	-	-	-	-	-	-	Terminate	
Unknown	118.98571	11/01/0116 07:17.23	00007139	12.967	Inter749t19-0	0.328	1	1	270.061	11.111	-2.0	0.164	0.000	D	F	1705.1	270.122	0.201	0.016	1428.365	1503.916	0.024	-	-0.117	0.427	-	-	-	-	-	-	-	PAVEMENT_GENERAL	Urban	F	1011101000011101	0000000000000000	-	-	-	-	-	-	-	-	-	-	Terminate	
Unknown	119.98573	11/01/0116 07:17.24	00007199	13.365	Inter749t1-2	0.340	1	2	270.000	11.111	-3.8	0.160	0.000	D	F	1713.2	270.071	0.200	0.020	1415.194	1503.940	0.025	-	-0.123	0.376	-	-	-	-	-	-	-	PAVEMENT_GENERAL	Urban	F	1011101000011101	0000000000000000	-	-	-	-	-	-	-	-	-	-	Terminate	
Unknown	120.98576	11/01/0116 07:17.25	00007259	13.727	Inter749t1-2	0.277	1	2	270.000	11.111	-0.5	0.159	0.000	D	F	1726.2	269.466	0.200	0.004	1401.645	1503.877	0.025	-	-0.053	0.346	-	-	-	-	-	-	-	PAVEMENT_GENERAL	Urban	F	1011101000011101	0000000000000000	-	-	-	-	-	-	-	-	-	-	Terminate	
Unknown	121.98577	11/01/0116 07:17.26	00007319	14.055	Inter747t1-2	0.136	1	2	270.000	11.111	1.4	0.162	0.000	D	F	1747.2	269.479	0.199	-0.007	1387.752	1503.743	0.025	-	0.053	0.324	-	-	-	-	-	-	-	PAVEMENT_GENERAL	Urban	F	1011101000011101	0000000000000000	-	-	-	-	-	-	-	-	-	-	Terminate	
Unknown	122.98579	11/01/0116 07:17.27	00007379	14.379	Inter747t1-2	0.063	1	2	270.000	11.111	1.2	0.162	0.000	D	F	1763.1	269.960	0.199	-0.010	1373.534	1503.670	0.025	-	0.087	0.315	-	-	-	-	-	-	-	PAVEMENT_GENERAL	Urban	F	1011101000011101	0000000000000000	-	-	-	-	-	-	-	-	-	-	Terminate	
Unknown	123.98581	11/01/0116 07:17.28	00007439	14.693	Inter747t1-2	0.062	1	2	270.000	11.111	0.3	0.166	0.000	D	F	1787.1	270.030	0.198	-0.001	1358.998	1503.669	0.025	-	0.016	0.321	-	-	-	-	-	-	-	PAVEMENT_GENERAL	Urban	F	1011101000011101	0000000000000000	-	-	-	-	-	-	-	-	-	-	Terminate	
Unknown	124.98583	11/01/0116 07:17.29	00007499	15.039	Inter747t1-2	0.082	1	2	270.000	11.111	-0.5	0.173	0.000	D	F	1821.1	270.094	0.198	0.002	1344.133	1503.688	0.025	-	-0.017	0.348	-	-	-	-	-	-	-	PAVEMENT_GENERAL	Urban	F	1011101000011101	0000000000000000	-	-	-	-	-	-	-	-	-	-	Terminate	
Unknown	125.98586	11/01/0116 07:17.30	00007559	15.369	Inter747t1-2	0.092	1	2	270.000	11.111	-0.3	0.173	0.000	D	F	1834.0	269.991	0.198	0.003	1328.927	1503.699	0.025	-	-0.017	0.331	-	-	-	-	-	-	-	PAVEMENT_GENERAL	Urban	F	1011101000011101	0000000000000000	-	-	-	-	-	-	-	-	-	-	Terminate	
Unknown	126.98587	11/01/0116 07:17.31	00007619	15.675	Inter747t1-2	0.082	1	2	270.000	11.111	-0.1	0.173	0.000	D	F	1850.5	269.934	0.197	0.001	1313.404	1503.689	0.025	-	-0.010	0.301	-	-	-	-	-	-	-	PAVEMENT_GENERAL	Urban	F	1011101000011101	0000000000000000	-	-	-	-	-	-	-	-	-	-	Terminate	
Unknown	127.98589	11/01/0116 07:17.32	00007679	16.026	Inter747t1-2	0.053	1	2	270.000	11.111	-0.5	0.198	0.000	D	F	1929.8	269.827	0.197	0.004	1297.563	1503.659	0.025	-	-0.034	0.405	-	-	-	-	-	-	-	PAVEMENT_GENERAL	Urban	F	1011101000011101	0000000000000000	-	-	-	-	-	-	-	-	-	-	Terminate	
Unknown	128.98592	11/01/0116 07:17.33	00007739	16.472	Inter747t1-2	0.020	1	2	270.000	11.111	1.0	0.203	0.000	D	F	1970.3	269.993	0.197	-0.006	1281.311	1503.627	0.025	-	0.053	0.426	-	-	-	-	-	-	-	PAVEMENT_GENERAL	Urban	F	1011101000011101	0000000000000000	-	-	-	-	-	-	-	-	-	-	Terminate	
Unknown	129.98593	11/01/0116 07:17.34	00007799	16.853	Inter747t1-2	0.043	1	2	270.000	11.111	1.3	0.194	0.000	D	F	1966.3	270.210	0.196	-0.010	1264.642	1503.650	0.025	-	0.076	0.361	-	-	-	-	-	-	-	PAVEMENT_GENERAL	Urban	F	1011101000011101	0000000000000000	-	-	-	-	-	-	-	-	-	-	Terminate	
Unknown	130.98595	11/01/0116 07:17.35	00007859	17.193	Inter747t1-2	0.133	1	2	270.000	11.111	0.9	0.190	0.000	D	F	1992.3	270.417	0.195	-0.009	1247.617	1503.739	0.025	-	0.064	0.329	-	-	-	-	-	-	-	PAVEMENT_GENERAL	Urban	F	1011101000011101	0000000000000000	-	-	-	-	-	-	-	-	-	-	Terminate	
Unknown	131.98598	11/01/0116 07:17.36	00007919	17.502	Inter747t1-2	0.265	1	2	270.000	11.111	-0.6	0.190	0.000	D	F	2007.8	270.420	0.194	0.005	1230.267	1503.871	0.025	-	-0.030	0.300	-	-	-	-	-	-	-	PAVEMENT_GENERAL	Urban	F	1011101000011101	0000000000000000	-	-	-	-	-	-	-	-	-	-	Terminate	
Unknown	132.98599	11/01/0116 07:17.37	00007979	17.562	Inter747t1-2	0.377	1	2	270.000	11.111	-1.3	0.000	0.000	D	F	1437.5	270.247	0.175	0.012	1212.657	1503.984	0.028	-	-0.090	-0.525	-	-	-	-	-	-	-	PAVEMENT_GENERAL	Urban	F	1011101000011101	0000000000000000	-	-	-	-	-	-	-	-	-	-	Terminate	
Unknown	133.98601	11/01/0116 07:17.38	00008039	17.084	Inter748t1-2	0.424	1	2	270.000	11.111	-1.7	0.090	0.000	D	F	1427.2	270.079	0.192	0.011	1195.360	1504.031	0.028	-	-0.061	-0.200	-	-	-	-	-	-	-	PAVEMENT_GENERAL	Urban	F	1011101000011101	0000000000000000	-	-	-	-	-	-	-	-	-	-	Terminate	
Unknown	134.98604	11/01/0116 07:17.39	00008099	16.999	Inter748t1-2	0.366	1	2	270.000	11.111	-2.5	0.122	0.000	D	F	1528.2	269.387	0.192	0.024	1178.332	1503.972	0.027	-	-0.197	-0.034	-	-	-	-	-	-	-	PAVEMENT_GENERAL	Urban	F	1011101000011101	0000000000000000	-	-	-	-	-	-	-	-	-	-	Terminate	
Unknown	135.98605	11/01/0116 07:17.40	00008159	16.969	Inter748t1-2	0.130	1	2	270.000	11.111	-0.0	0.120	0.000	D	F	1528.5	269.010	0.192	0.005	1161.349	1503.737	0.027	-	-0.049	-0.034	-	-	-	-	-	-	-	PAVEMENT_GENERAL	Urban	F	1011101000011101	0000000000000000	-	-	-	-	-	-	-	-	-	-	Terminate	
Unknown	136.98607	11/01/0116 07:17.41	00008219	16.933	Inter748t1-2	-0.139	1	2	270.000	11.111	2.2	0.118	0.000	D	F	1527.0	269.237	0.192	-0.014	1144.401	1503.468	0.027	-	0.111	-0.027	-	-	-	-	-	-	-	PAVEMENT_GENERAL	Urban	F	1011101000011101	0000000000000000	-	-	-	-	-	-	-	-	-	-	Terminate	
Unknown	137.98610	11/01/0116 07:17.42	00008279	16.905	Inter748t1-2	-0.289	1	2	270.000	11.111	3.1	0.120	0.000	D	F	1531.3	269.854	0.192	-0.025	1127.483	1503.317	0.027	-	0.195	-0.025	-	-	-	-	-	-	-	PAVEMENT_GENERAL	Urban	F	1011101000011101	0000000000000000	-	-	-	-	-	-	-	-	-	-	Terminate	
Unknown	138.98611	11/01/0116 07:17.43	00008339	16.878	Inter748t1-2	-0.263	1	2	270.000	11.111	0.7	0.116	0.000	D	F	1524.3	270.328	0.192	-0.008	1110.590	1503.344	0.027	-	0.074	-0.028	-	-	-	-	-	-	-	PAVEMENT_GENERAL	Urban	F	1011101000011101	0000000000000000	-	-	-	-	-	-	-	-	-	-	Terminate	
Unknown	139.98613	11/01/0116 07:17.44	00008399	16.848	Inter748t1-2	-0.149	1	2	270.000	11.111	0.5	0.116	0.000	D	F	1520.8	270.459	0.192	-0.003	1093.727	1503.458	0.027	-	0.033	-0.032	-	-	-	-	-	-	-	PAVEMENT_GENERAL	Urban	F	1011101000011101	0000000000000000	-	-	-	-	-	-	-	-	-	-	Terminate	
Unknown	140.98616	11/01/0116 07:17.45	00008459	16.844	Inter748t1-2	-0.002	1	2	270.000	11.111	-0.0	0.127	0.000	D	F	1546.9	270.546	0.192	-0.001	1076.886	1503.605	0.026	-	0.011	0.014	-	-	-	-	-	-	-	PAVEMENT_GENERAL	Urban	F	1011101000011101	0000000000000000	-	-	-	-	-	-	-	-	-	-	Terminate	
Unknown	141.98618	11/01/0116 07:17.46	00008519	16.881	Inter748t1-2	0.146	1	2	270.000	11.111	-0.9	0.143	0.000	D	F	1582.1	270.428	0.192	0.006	1060.031	1503.753	0.026	-	-0.049	0.059	-	-	-	-	-	-	-	PAVEMENT_GENERAL	Urban	F	1011101000011101	0000000000000000	-	-	-	-	-	-	-	-	-	-	Terminate	
Unknown	142.98619	11/01/0116 07:17.47	00008579	16.965	Inter748t1-2	0.248	1	2	270.000	11.111	-0.6	0.152	0.000	D	F	1610.7	270.249	0.193	0.006	1043.111	1503.855	0.026	-	-0.040	0.096	-	-	-	-	-	-	-	PAVEMENT_GENERAL	Urban	F	1011101000011101	0000000000000000	-	-	-	-	-	-	-	-	-	-	Terminate	
Unknown	143.98621	11/01/0116 07:17.48	00008639	17.101	Inter748t1-2	0.315	1	2	270.000	11.111	0.9	0.168	0.000	D	F	1652.3	270.260	0.193	-0.008	1026.085	1503.922	0.026	-	0.048	0.160	-	-	-	-	-	-	-	PAVEMENT_GENERAL	Urban	F	1011101000011101	0000000000000000	-	-	-	-	-	-	-	-	-	-	Terminate	
Unknown	144.98624	11/01/0116 07:17.49	00008699	17.262	Inter748t1-2	0.394	1	2	270.000	11.111	-0.3	0.168	0.000	D	F	1667.6	270.208	0.193	0.003	1008.904	1504.001	0.026	-	-0.029	0.163	-	-	-	-	-	-	-	PAVEMENT_GENERAL	Urban	F	1011101000011101	0000000000000000	-	-	-	-	-	-	-	-	-	-	Terminate	
Unknown	145.98625	11/01/0116 07:17.50	00008759	17.430	Inter752t1-2	-0.237	1	2	269.953	24.444	-0.6	0.176	0.000	D	F	1681.8	270.140	0.470	-0.163	991.560	1504.058	0.070	-	-0.051	0.261	-	-	-	-	-	-	-	FREEWAY_SMOOTH	Urban	F	1011101000011101	0000000000000000	-	-	-	-	-	-	-	-	-	-	Terminate	
Unknown	146.98627	11/01/0116 07:17.51	00008819	17.623	Inter752t1-2	-0.200	1	2	269.481	24.444	-10.5	0.159	0.000	D	F	1652.8	269.343	0.298	-0.529	974.034	1504.024	0.066	-	-0.570	0.186	-	-	-	-	-	-	-	FREEWAY_SMOOTH	Urban	F	1011101000011101	0000000000000000	-	-	-	-	-	-	-	-	-	-	Terminate	
Unknown	147.98630	11/01/0116 07:17.52	00008879	17.775	Inter752t1-2	-0.489	1	2	268.439	24.444	-5.4	0.159	0.000	D	F	1657.0	266.542	0.254	-0.973	956.345	1503.419	0.093	-	-0.663	0.136	-	-	-	-	-	-	-	FREEWAY_SMOOTH	Urban	F	1011101000011101	0000000000000000	-	-	-	-	-	-	-	-	-	-	Terminate	
Unknown	148.98631	11/01/0116 07:17.53	00008939	17.914	Inter752t1-2	-0.989	1	2	266.816	24.444	-3.0	0.159	0.000	D	F	1659.2	265.588	0.245	-1.459	938.543	1502.181	0.109	-	-0.292	0.147	-	-	-	-	-	-	-	FREEWAY_SMOOTH	Urban	F	1011101000011101	0000000000000000	-	-	-	-	-	-	-	-	-	-	Terminate	
Unknown	149.98633	11/01/0116 07:17.54	00008999	18.052	Inter752t1-2	-1.250	1	2	264.601	24.444	-7.2	0.153	0.000	D	F	1660.1	263.946	0.244	-1.856	920.630	1500.570	0.126	-	-0.657	0.132	-	-	-	-	-	-	-	FREEWAY_SMOOTH	Urban	F	1011101000011101	0000000000000000	-	-	-	-	-	-	-	-	-	-	Terminate	
Unknown	150.98636	11/01/0116 07:17.55	00009059	18.175	Inter752t1-2	-1.348	1	2	261.795	24.444	-5.4	0.162	0.000	D	F	1672.9	261.755	0.260	-2.311	902.658	1498.318	0.145	-	-0.649	0.127	-	-	-	-	-	-	-	FREEWAY_SMOOTH	Urban	F	1011101000011101	0000000000000000	-	-	-	-	-	-	-	-	-	-	Terminate	
Unknown	151.98637	11/01/0116 07:17.56	00009119	18.303	Inter752t1-2	-1.109	1	2	258.377	24.444	-11.7	0.157	0.000	D	F	1671.5	259.756	0.339	-2.723	884.653	1495.398	0.180	-	-0.885	0.126	-	-	-	-	-	-	-	FREEWAY_SMOOTH	Urban	F	1011101000011101	0000000000000000	-	-	-	-	-	-	-	-	-	-	Terminate	
Unknown	152.98639	11/01/0116 07:17.57	00009179	18.412	Inter752t1-2	-0.596	1	2	254.364	24.444	-16.1	0.160	0.000	D	F	1677.7	255.613	0.351	-3.106	866.704	1491.549	0.234	-	-1.513	0.104	-	-	-	-	-	-	-	FREEWAY_SMOOTH	Urban	F	1011101000011101	0000000000000000	-	-	-	-	-	-	-	-	-	-	Terminate	
Unknown	153.98642	11/01/0116 07:17.58	00009239	18.495	Inter752t1-2	-0.141	1	2	249.820	24.444	-13.9	0.157	0.000	D	F	1681.1	250.986	0.274	-3.333	849.017	1486.272	0.277	-	-1.401	0.061	-	-	-	-	-	-	-	FREEWAY_SMOOTH	Urban	F	1011101000011101	0000000000000000	-	-	-	-	-	-	-	-	-	-	Terminate	
Unknown	154.98643	11/01/0116 07:17.59	00009299	18.544	Inter752t1-2	0.410	1	2	245.190	24.444	-14.3	0.160	0.000	D	F	1690.6	247.206	0.317	-3.356	831.721	1479.656	0.310	-	-1.195	0.048	-	-	-	-	-	-	-	FREEWAY_SMOOTH	Urban	F	1011101000011101	0000000000000000	-	-	-	-	-	-	-	-	-	-	Terminate	
Unknown	155.98645	11/01/0116 07:18.00	00009359	18.595	Inter752t1-2	0.963	1	2	240.584	24.444	-31.0	0.162	0.000	D	F	1684.6	240.494	0.178	-3.158	814.971	1471.646	0.344	-	-2.678	0.046	-	-	-	-	-	-	-	FREEWAY_SMOOTH	Urban	F	1011101000011101	0000000000000000	-	-	-	-	-	-	-	-	-	-	Terminate	
Unknown	156.98647	11/01/0116 07:18.01	00009419	18.585	Inter752t1-2	0.576	1	2	235.941	24.444	-14.0	0.101	0.000	D	F	1523.6	233.262	0.018	-3.286	799.395	1461.500	0.321	-	-1.734	-0.123	-	-	-	-	-	-	-	FREEWAY_SMOOTH	Urban	F	1011101000011101	0000000000000000	-	-	-	-	-	-	-	-	-	-	Terminate	
Unknown	157.98650	11/01/0116 07:18.02	00009479	18.245	Inter752t1-2	0.046	1	2	231.337	24.444	-1.4	0.000	0.000	D	F	1244.1	230.942	0.159	-3.456	784.881	1450.099	0.291	-	-0.429	-0.576	-	-	-	-	-	-	-	FREEWAY_SMOOTH	Urban	F	1011101000011101	0000000000000000	-	-	-	-	-	-	-	-	-	-	Terminate	
Unknown	158.98651	11/01/0116 07:18.03	00009539	17.805	Inter752t1-2	0.357	1	2	226.849	24.444	-18.5	0.078	0.000	D	F	1441.1	228.512	0.295	-3.324	771.114	1438.520	0.308	-	-1.377	-0.239	-	-	-	-	-	-	-	FREEWAY_SMOOTH	Urban	F	1011101000011101	0000000000000000	-	-	-	-	-	-	-	-	-	-	Terminate	
Unknown	159.98653	11/01/0116 07:18.04	00009599	17.592	Inter752t1-2	0.720	1	2	222.435	24.444	-26.2	0.097	0.000	D	F	1470.7	222.312	0.175	-3.225	758.461	1426.159	0.330	-	-2.144	-0.189	-	-	-	-	-	-	-	FREEWAY_SMOOTH	Urban	F	1011101000011101	0000000000000000	-	-	-	-	-	-	-	-	-	-	Terminate	
Unknown	160.98656	11/01/0116 07:18.05	00009659	17.451	Inter752t1-2	0.365	1	2	218.078	24.444	-14.1	0.118	0.000	D	F	1527.8	215.609	0.041	-3.309	747.458	1412.547	0.308	-	-1.551	-0.046	-	-	-	-	-	-	-	FREEWAY_SMOOTH	Urban	F	1011101000011101	0000000000000000	-	-	-	-	-	-	-	-	-	-	Terminate	
Unknown	161.98657	11/01/0116 07:18.06	00009719	17.489	Inter752t1-2	-0.187	1	2	213.701	24.444	-10.3	0.160	0.000	D	F	1654.6	212.534	0.123	-3.394	737.714	1398.067	0.274	-	-0.886	0.101	-	-	-	-	-	-	-	FREEWAY_SMOOTH	Urban	F	1011101000011101	0000000000000000	-	-	-	-	-	-	-	-	-	-	Terminate	
Unknown	162.98659	11/01/0116 07:18.07	00009779	17.608	Inter752t1-2	-0.348	1	2	209.324	24.444	-15.1	0.153	0.000	D	F	1619.6	209.136	0.185	-3.352	728.715	1382.998	0.265	-	-1.202	0.094	-	-	-	-	-	-	-	FREEWAY_SMOOTH	Urban	F	1011101000011101	0000000000000000	-	-	-	-	-	-	-	-	-	-	Terminate	
Unknown	163.98662	11/01/0116 07:18.08	00009839	17.699	Inter752t1-2	-0.380	1	2	204.896	24.444	-18.5	0.157	0.000	D	F	1659.3	204.353	0.158	-3.303	720.740	1367.254	0.263	-	-1.584	0.120	-	-	-	-	-	-	-	FREEWAY_SMOOTH	Urban	F	1011101000011101	0000000000000000	-	-	-	-	-	-	-	-	-	-	Terminate	
Unknown	164.98663	11/01/0116 07:18.09	00009899	17.815	Inter752t1-2	-0.527	1	2	200.447	24.444	-13.7	0.166	0.000	D	F	1676.4	199.945	0.169	-3.351	714.071	1350.800	0.254	-	-1.215	0.121	-	-	-	-	-	-	-	FREEWAY_SMOOTH	Urban	F	1011101000011101	0000000000000000	-	-	-	-	-	-	-	-	-	-	Terminate	
Unknown	165.98665	11/01/0116 07:18.10	00009959	17.883	Inter752t1-2	-0.550	1	2	196.024	24.444	-13.5	0.162	0.000	D	F	1652.4	196.124	0.107	-3.160	708.551	1333.818	0.242	-	-1.163	0.006	-	-	-	-	-	-	-	FREEWAY_SMOOTH	Urban	F	1011101000011101	0000000000000000	-	-	-	-	-	-	-	-	-	-	Terminate	
Unknown	166.98668	11/01/0116 07:18.11	00010019	17.944	Inter752t1-2	-0.434	1	2	192.042	24.444	-16.6	0.176	0.000	D	F	1701.2	192.232	0.104	-2.701	704.145	1316.460	0.219	-	-1.320	0.081	-	-	-	-	-	-	-	FREEWAY_SMOOTH	Urban	F	1011101000011101	0000000000000000	-	-	-	-	-	-	-	-	-	-	Terminate	
Unknown	167.98669	11/01/0116 07:18.12	00010079	18.067	Inter752t1-2	-0.465	1	2	188.611	24.444	-16.6	0.189	0.000	D	F	1742.2	187.703	0.060	-2.244	700.996	1298.741	0.187	-	-1.399	0.165	-	-	-	-	-	-	-	FREEWAY_SMOOTH	Urban	F	1011101000011101	0000000000000000	-	-	-	-	-	-	-	-	-	-	Terminate	
Unknown	168.98671	11/01/0116 07:18.13	00010139	18.241	Inter752t1-2	-0.832	1	2	185.726	24.444	-2.2	0.196	0.000	D	F	1777.5	184.360	0.060	-1.911	699.138	1280.687	0.145	-	-0.536	0.207	-	-	-	-	-	-	-	FREEWAY_SMOOTH	Urban	F	1011101000011101	0000000000000000	-	-	-	-	-	-	-	-	-	-	Terminate	
Unknown	169.98674	11/01/0116 07:18.14	00010199	18.534	Inter752t1-2	-0.943	1	2	183.391	24.444	-2.1	0.252	0.000	D	F	1866.0	184.067	0.128	-1.496	697.825	1262.356	0.114	-	-0.160	0.326	-	-	-	-	-	-	-	FREEWAY_SMOOTH	Urban	F	1011101000011101	0000000000000000	-	-	-	-	-	-	-	-	-	-	Terminate	
Unknown	170.98676	11/01/0116 07:18.15	00010259	18.880	Inter752t1-2	-0.587	1	2	181.644	24.444	-9.7	0.298	0.000	D	F	1937.3	182.774	0.124	-0.971	696.680	1243.686	0.094	-	-0.641	0.360	-	-	-	-	-	-	-	FREEWAY_SMOOTH	Urban	F	1011101000011101	0000000000000000	-	-	-	-	-	-	-	-	-	-	Terminate	
Unknown	171.98677	11/01/0116 07:18.16	00010319	19.344	Inter752t1-2	-0.342	1	2	180.500	24.444	-6.8	0.280	0.000	D	F	2239.4	180.536	0.096	-0.499	696.106	1224.592	0.065	-	-0.611	0.500	-	-	-	-	-	-	-	FREEWAY_SMOOTH	Urban	F	1011101000011101	0000000000000000	-	-	-	-	-	-	-	-	-	-	Terminate	
Unknown	172.98679	11/01/0116 07:18.17	00010379	19.824	Inter752t1-2	-0.352	1	2	180.014	24.444	-1.3	0.282	0.000	D	F	2289.9	179.954	0.100	-0.083	696.052	1205.007	0.032	-	-0.045	0.465	-	-	-	-	-	-	-	FREEWAY_SMOOTH	Urban	F	1011101000011101	0000000000000000	-	-	-	-	-	-	-	-	-	-	Terminate	
Unknown	173.98682	11/01/0116 07:18.18	00010439	20.307	Inter754t3-2	0.283	1	2	180.000	11.111	0.7	0.273	0.000	D	F	2315.5	179.701	0.192	-0.001	696.110	1184.941	0.025	-	-0.009	0.465	-	-	-	Ambient386	11.549	234.531	24.437	PAVEMENT_GENERAL	Urban	F	1011101000011101	0000000000000000	-	-	-	-	-	-	-	-	-	-	Terminate	
Unknown	174.98683	11/01/0116 07:18.19	00010499	20.256	Inter754t3-2	0.210	1	2	180.000	11.111	-0.6	0.000	0.000	D	F	1445.5	179.921	0.178	-0.005	696.184	1164.533	0.029	-	0.037	-0.599	-	-	-	Ambient386	11.100	224.831	23.552	PAVEMENT_GENERAL	Urban	F	1011101000011101	0000000000000000	-	-	-	-	-	-	-	-	-	-	Terminate	
Unknown	175.98685	11/01/0116 07:18.20	00010559	19.754	Inter754t3-2	0.142	1	2	180.000	11.111	-2.4	0.076	0.000	D	F	1520.2	179.536	0.186	0.026	696.251	1144.552	0.029	-	-0.197	-0.327	-	-	-	Ambient409	2.047	40.438	4.907	PAVEMENT_GENERAL	Urban	F	1011101000011101	0000000000000000	-	-	-	-	-	-	-	-	-	-	Terminate	
Unknown	176.98688	11/01/0116 07:18.21	00010619	19.576	Inter754t3-2	-0.055	1	2	180.000	11.111	0.1	0.122	0.000	D	F	1623.8	179.383	0.188	-0.001	696.449	1124.902	0.027	-	0.015	-0.100	-	-	-	Ambient409	1.650	32.304	4.006	PAVEMENT_GENERAL	Urban	F	1011101000011101	0000000000000000	-	-	-	-	-	-	-	-	-	-	Terminate	
Unknown	177.98689	11/01/0116 07:18.22	00010679	19.570	Inter754t3-2	-0.262	1	2	180.000	11.111	0.8	0.196	0.000	D	F	1797.6	179.431	0.191	-0.006	696.655	1105.352	0.026	-	0.040	0.132	-	-	-	Ambient409	1.240	24.269	3.012	PAVEMENT_GENERAL	Urban	F	1011101000011101	0000000000000000	-	-	-	-	-	-	-	-	-	-	Terminate	
Unknown	178.98691	11/01/0116 07:18.23	00010739	19.754	Inter754t9-0	-0.428	1	1	179.991	11.111	1.4	0.203	0.000	D	F	1829.5	179.656	0.190	-0.012	696.822	1085.694	0.026	-	0.096	0.214	-	-	-	Ambient409	0.816	16.124	1.957	PAVEMENT_GENERAL	Urban	F	1011101000011101	0000000000000000	-	-	-	-	-	-	-	-	-	-	Terminate	
Unknown	179.98694	11/01/0116 07:18.24	00010799	19.967	Inter754t9-0	-0.506	1	1	179.989	11.111	1.5	0.196	0.000	D	F	1840.3	179.934	0.189	-0.014	696.904	1065.832	0.026	-	0.105	0.194	-	-	-	Ambient409	0.268	5.353	0.633	PAVEMENT_GENERAL	Urban	F	1011101000011101	0000000000000000	-	-	-	-	-	-	-	-	-	-	Terminate	
Unknown	180.98695	11/01/0116 07:18.25	00010859	20.127	Inter754t9-0	-0.492	1	1	179.993	11.111	-0.6	0.198	0.000	D	F	1831.8	180.107	0.189	0.002	696.893	1045.780	0.026	-	-0.006	0.142	Ambient409	14.8	8.480	Ambient409	-0.041	-0.823	-0.096	PAVEMENT_GENERAL	Urban	F	1011101000011101	0000000000000000	-	-	-	-	-	-	-	-	-	-	Terminate	
Unknown	181.98697	11/01/0116 07:18.26	00010919	20.259	Inter754t9-0	-0.474	1	1	179.996	11.111	-0.5	0.182	0.000	D	F	1794.6	179.962	0.188	0.006	696.878	1025.581	0.026	-	-0.043	0.097	-	-	-	Ambient386	7.938	160.823	16.841	PAVEMENT_GENERAL	Urban	F	1011101000011101	0000000000000000	-	-	-	-	-	-	-	-	-	-	Terminate	
Unknown	182.98700	11/01/0116 07:18.27	00010979	20.353	Inter754t1-1	-0.506	1	1	180.000	11.111	-0.4	0.185	0.000	D	F	1807.5	179.823	0.188	0.005	696.910	1005.275	0.026	-	-0.040	0.093	-	-	-	Ambient386	7.431	151.237	15.683	PAVEMENT_GENERAL	Urban	F	1011101000011101	0000000000000000	-	-	-	-	-	-	-	-	-	-	Terminate	
Unknown	183.98701	11/01/0116 07:18.28	00011039	20.474	Inter686t1-0	-0.584	1	1	180.000	11.111	0.3	0.192	0.000	D	F	1819.0	179.779	0.187	0.001	696.980	984.863	0.026	-	-0.002	0.119	-	-	-	Ambient386	6.913	141.534	14.495	PAVEMENT_GENERAL	Urban	F	1011101000011101	0000000000000000	-	-	-	-	-	-	-	-	-	-	Terminate	
Unknown	184.98703	11/01/0116 07:18.29	00011099	20.552	Inter686t1-0	-0.647	1	1	180.000	11.111	-0.1	0.180	0.000	D	F	1790.6	179.859	0.187	-0.000	697.043	964.346	0.026	-	0.003	0.064	-	-	-	Ambient386	6.409	131.724	13.383	PAVEMENT_GENERAL	Urban	F	1011101000011101	0000000000000000	-	-	-	-	-	-	-	-	-	-	Terminate	
Unknown	185.98706	11/01/0116 07:18.30	00011159	20.575	Inter686t1-0	-0.699	1	1	180.000	11.111	0.6	0.157	0.000	D	F	1738.9	179.873	0.187	-0.005	697.095	943.773	0.027	-	0.029	0.003	-	-	-	Ambient386	5.923	121.859	12.352	PAVEMENT_GENERAL	Urban	F	1111101000011101	0000000000000000	-	-	-	-	-	-	-	-	-	-	Terminate	
Unknown	186.98708	11/01/0116 07:18.31	00011219	20.591	Inter686t1-0	-0.726	1	1	180.000	11.111	0.7	0.175	0.000	D	F	1788.1	179.994	0.186	-0.006	697.122	923.194	0.027	-	0.046	0.027	-	-	-	Ambient386	5.439	111.988	11.333	PAVEMENT_GENERAL	Urban	F	1011101000011101	0000000000000000	-	-	-	-	-	-	-	-	-	-	Terminate	
Unknown	187.98709	11/01/0116 07:18.32	00011279	20.632	Inter686t1-0	-0.733	1	1	180.000	11.111	-2.7	0.099	0.000	D	F	1654.0	179.793	0.184	0.025	697.129	902.580	0.027	-	-0.186	-0.052	-	-	-	Ambient386	4.948	102.082	10.288	PAVEMENT_GENERAL	Urban	F	1011101000011101	0000000000000000	-	-	-	-	-	-	-	-	-	-	Terminate	
Unknown	188.98711	11/01/0116 07:18.33	00011339	20.067	Inter686t1-0	-0.863	1	1	180.000	11.111	0.8	0.000	0.000	D	F	1368.2	179.488	0.181	-0.001	697.260	882.212	0.030	-	-0.004	-0.606	-	-	-	Ambient386	4.606	92.422	9.877	PAVEMENT_GENERAL	Urban	F	1011101000011101	0000000000000000	-	-	-	-	-	-	-	-	-	-	Terminate	
Unknown	189.98714	11/01/0116 07:18.34	00011399	19.474	Inter686t1-0	-0.974	1	1	180.000	11.111	1.1	0.011	0.000	D	F	1328.3	180.023	0.182	-0.020	697.370	862.445	0.029	-	0.173	-0.567	-	-	-	Ambient386	4.281	83.363	9.511	PAVEMENT_GENERAL	Urban	F	1011101000011101	0000000000000000	-	-	-	-	-	-	-	-	-	-	Terminate	
Unknown	190.98715	11/01/0116 07:18.35	00011459	18.950	Inter686t1-0	-0.929	1	1	180.000	11.111	0.7	0.021	0.000	D	F	1296.9	180.301	0.184	-0.009	697.325	843.236	0.029	-	0.073	-0.510	-	-	-	Ambient386	3.950	74.862	9.084	PAVEMENT_GENERAL	Urban	F	1011101000011101	0000000000000000	-	-	-	-	-	-	-	-	-	-	Terminate	
Unknown	191.98717	11/01/0116 07:18.36	00011519	18.510	Inter686t1-0	-0.812	1	1	180.000	11.111	0.2	0.049	0.000	D	F	1374.6	180.433	0.187	-0.003	697.208	824.517	0.028	-	0.027	-0.369	-	-	-	Ambient386	3.612	66.851	8.570	PAVEMENT_GENERAL	Urban	F	1011101000011101	0000000000000000	-	-	-	-	-	-	-	-	-	-	Terminate	
Unknown	192.98720	11/01/0116 07:18.37	00011579	18.233	Inter686t1-0	-0.670	1	1	180.000	11.111	-0.7	0.078	0.000	D	F	1442.3	180.457	0.187	0.003	697.066	806.154	0.028	-	-0.017	-0.234	-	-	-	Ambient386	3.247	59.197	7.868	PAVEMENT_GENERAL	Urban	F	1011101000011101	0000000000000000	-	-	-	-	-	-	-	-	-	-	Terminate	
Unknown	193.98721	11/01/0116 07:18.38	00011639	18.031	Inter682t1-1	-0.536	1	1	180.000	11.111	-1.1	0.090	0.000	D	F	1466.8	180.304	0.189	0.009	696.940	788.027	0.028	-	-0.064	-0.174	-	-	-	Ambient386	2.872	51.777	7.072	PAVEMENT_GENERAL	Urban	F	1011101000011101	0000000000000000	-	-	-	-	-	-	-	-	-	-	Terminate	
Unknown	194.98723	11/01/0116 07:18.39	00011699	17.862	Inter682t1-1	-0.476	1	1	180.000	11.111	-1.1	0.097	0.000	D	F	1483.5	180.046	0.189	0.010	696.880	770.083	0.027	-	-0.073	-0.152	-	-	-	Ambient386	2.494	44.542	6.228	PAVEMENT_GENERAL	Urban	F	1011101000011101	0000000000000000	-	-	-	-	-	-	-	-	-	-	Terminate	
Unknown	195.98726	11/01/0116 07:18.40	00011759	17.692	Inter682t1-1	-0.483	1	1	180.000	11.111	-0.3	0.000	0.000	D	F	1181.9	179.902	0.188	0.004	696.887	752.299	0.028	-	-0.027	-0.275	-	-	-	Ambient386	2.118	37.465	5.366	PAVEMENT_GENERAL	Urban	F	1011101000011101	0000000000000000	-	-	-	-	-	-	-	-	-	-	Terminate	
Unknown	196.98727	11/01/0116 07:18.41	00011819	17.071	Inter682t1-1	-0.539	1	1	180.000	11.111	-0.2	0.000	0.143	D	F	1143.7	179.685	0.170	0.004	696.943	734.890	0.029	-	-0.037	-1.590	-	-	-	Ambient386	1.802	30.764	4.836	PAVEMENT_GENERAL	Urban	F	1011101000011101	0000000000000000	-	-	-	-	-	-	-	-	-	-	Terminate	
Unknown	197.98729	11/01/0116 07:18.42	00011879	13.499	Inter682t1-1	-0.617	1	1	180.000	11.111	2.7	0.000	0.319	D	F	882.4	179.808	0.113	-0.014	697.021	719.498	0.037	-	0.094	-4.341	-	-	-	Ambient386	1.932	26.080	9.351	PAVEMENT_GENERAL	Urban	F	1011101000011101	0000000000000000	-	-	-	-	-	-	-	-	-	-	Terminate	
Unknown	198.98732	11/01/0116 07:18.43	00011939	9.244	Inter682t1-1	-0.601	1	1	180.000	11.111	1.9	0.000	0.310	D	F	865.5	180.380	0.137	-0.006	697.005	708.142	0.038	-	0.072	-4.202	-	-	-	Ambient386	2.751	25.433	-	PAVEMENT_GENERAL	Urban	F	1011101000011101	0000000000000000	-	-	-	-	-	-	-	-	-	-	Terminate	
Unknown	199.98734	11/01/0116 07:18.44	00011999	5.055	Inter682t1-1	-0.535	1	1	180.000	11.111	2.2	0.000	0.313	D	F	477.5	180.640	0.139	-0.002	696.939	700.992	0.038	-	0.021	-4.204	-	-	-	Ambient386	5.735	28.991	-	PAVEMENT_GENERAL	Urban	F	1011101000011101	0000000000000000	-	-	-	-	-	-	-	-	-	-	Terminate	
Unknown	200.98735	11/01/0116 07:18.45	00012059	3.868	Inter682t1-1	-0.482	1	1	180.000	11.111	-0.4	0.076	0.000	D	F	1087.9	180.735	0.215	0.003	696.885	696.858	0.028	-	-0.008	0.204	-	-	-	Ambient386	9.195	35.565	-	PAVEMENT_GENERAL	Urban	F	1011101000011101	0000000000000000	-	-	-	-	-	-	-	-	-	-	Terminate	
Unknown	201.98737	11/01/0116 07:18.46	00012119	4.874	Inter682t1-1	-0.432	1	1	180.000	11.111	-1.7	0.164	0.000	D	F	1487.8	180.614	0.219	0.003	696.836	692.539	0.021	-	-0.013	1.319	-	-	-	Ambient386	8.607	41.953	-	PAVEMENT_GENERAL	Urban	F	1011101000011101	0000000000000000	-	-	-	-	-	-	-	-	-	-	Terminate	
Unknown	202.98740	11/01/0116 07:18.47	00012179	6.544	Inter682t1-1	-0.380	1	1	180.000	11.111	1.2	0.252	0.000	D	F	1769.4	180.536	0.220	-0.007	696.784	686.884	0.017	-	0.025	1.874	-	-	-	Ambient386	7.183	47.007	-	PAVEMENT_GENERAL	Urban	F	1011101000011101	0000000000000000	-	-	-	-	-	-	-	-	-	-	Terminate	
Unknown	203.98741	11/01/0116 07:18.48	00012239	8.265	Inter682t1-1	-0.310	1	1	180.000	11.111	-0.5	0.242	0.000	D	F	1857.4	180.527	0.216	0.002	696.714	679.453	0.019	-	-0.011	1.561	-	-	-	Ambient386	6.084	50.283	-	PAVEMENT_GENERAL	Urban	F	1011101000011101	0000000000000000	-	-	-	-	-	-	-	-	-	-	Terminate	
Unknown	204.98743	11/01/0116 07:18.49	00012299	9.688	Inter682t1-1	-0.238	1	1	180.000	11.111	-2.1	0.242	0.000	D	F	1958.0	180.378	0.213	0.007	696.642	670.457	0.020	-	-0.054	1.310	-	-	-	Ambient386	5.367	51.996	-	PAVEMENT_GENERAL	Urban	F	1011101000011101	0000000000000000	-	-	-	-	-	-	-	-	-	-	Terminate	
Unknown	205.98746	11/01/0116 07:18.50	00012359	10.918	Inter682t1-1	-0.222	1	1	180.000	11.111	-4.6	0.240	0.000	D	F	2050.8	179.773	0.210	0.020	696.626	660.140	0.021	-	-0.153	1.134	-	-	-	Ambient386	4.798	52.386	251.434	PAVEMENT_GENERAL	Urban	F	1011101000011101	0000000000000000	-	-	-	-	-	-	-	-	-	-	Terminate	
Unknown	206.98747	11/01/0116 07:18.51	00012419	11.989	Inter682t1-1	-0.352	1	1	180.000	11.111	-2.8	0.228	0.000	D	F	2150.1	179.031	0.207	0.014	696.756	648.674	0.022	-	-0.114	0.983	-	-	-	Ambient386	4.307	51.629	40.366	PAVEMENT_GENERAL	Urban	F	1011101000011101	0000000000000000	-	-	-	-	-	-	-	-	-	-	Terminate	
Unknown	207.98749	11/01/0116 07:18.52	00012479	12.956	Inter682t1-1	-0.576	1	1	180.000	11.111	2.8	0.228	0.000	D	F	2256.3	179.102	0.206	-0.014	696.980	636.199	0.022	-	0.111	0.915	-	-	-	Ambient386	3.848	49.861	22.192	PAVEMENT_GENERAL	Urban	F	1011101000011101	0000000000000000	-	-	-	-	-	-	-	-	-	-	Terminate	
