"Name"	"Project"	"Time"	ZoneName	Time	SystemTime	Frame	Velocity	LaneName	LanePos	LaneIndex	LaneCount	LaneHeading	SpeedLimit	Steer	Accel	Brake	Gear	Horn	SubjectEngineRPM	SubjectHeading	SubjectPitch	SubjectRoll	SubjectX	SubjectY	SubjectZ	Signal	LatAccel	LongAccel	Collision	CollisionAngle	CollisionVelocity	VehAhead	HeadwayTime	HeadwayDist	TTC	TerrainType	CultureType	Slip	DigitalInputs	DigitalInputs2	ActiveTrigger	EntityName	DistToEntity	TimeToEntity	EntityVelocity	EntityAccel	EntityHeading	EntityX	EntityY	EntityZ	GrabData	
"Student17Mode1"	"Seema_Shokoufeh_Track2"	"Dec 01, 2016 10:55:23 AM"	Unknown	0.98335	11/01/0116 10:55.27	00000059	0.002	Inter625t13-0	-0.088	1	2	0.000	11.111	3.4	0.000	0.000	D	F	0.0	0.001	0.153	-0.001	1503.500	523.206	0.019	-	-0.000	0.000	-	-	-	-	-	-	-	PAVEMENT_GENERAL	Urban	F	1011101000011101	0000000000000000	-	-	-	-	-	-	-	-	-	-	Terminate	
"Student17Mode1"	"Seema_Shokoufeh_Track2"	"Dec 01, 2016 10:55:23 AM"	Unknown	1.98337	11/01/0116 10:55.28	00000119	0.000	Inter625t13-0	-0.088	1	2	0.000	11.111	2.3	0.000	0.000	D	F	0.0	0.001	0.197	-0.000	1503.500	523.208	0.026	-	0.000	-0.001	-	-	-	-	-	-	-	PAVEMENT_GENERAL	Urban	F	1111101000011101	0000000000000000	-	-	-	-	-	-	-	-	-	-	Terminate	
"Student17Mode1"	"Seema_Shokoufeh_Track2"	"Dec 01, 2016 10:55:23 AM"	Unknown	2.98339	11/01/0116 10:55.29	00000179	-0.000	Inter625t13-0	-0.088	1	2	0.000	11.111	2.1	0.099	0.000	D	F	0.0	0.001	0.207	-0.000	1503.500	523.208	0.028	-	0.000	-0.000	-	-	-	-	-	-	-	PAVEMENT_GENERAL	Urban	F	1011101000011101	0000000000000000	-	-	-	-	-	-	-	-	-	-	Terminate	
"Student17Mode1"	"Seema_Shokoufeh_Track2"	"Dec 01, 2016 10:55:23 AM"	Unknown	3.98341	11/01/0116 10:55.30	00000239	-0.000	Inter625t13-0	-0.088	1	2	0.000	11.111	1.2	0.213	0.000	D	F	0.0	0.001	0.210	-0.000	1503.500	523.208	0.028	-	0.000	-0.000	-	-	-	-	-	-	-	PAVEMENT_GENERAL	Urban	F	1011101000011101	0000000000000000	-	-	-	-	-	-	-	-	-	-	Terminate	
"Student17Mode1"	"Seema_Shokoufeh_Track2"	"Dec 01, 2016 10:55:23 AM"	Unknown	4.98343	11/01/0116 10:55.31	00000299	-0.000	Inter625t13-0	-0.088	1	2	0.000	11.111	1.5	0.000	0.000	D	F	0.0	0.001	0.210	-0.000	1503.500	523.208	0.028	-	0.000	0.000	-	-	-	-	-	-	-	PAVEMENT_GENERAL	Urban	F	1011101000011101	0000000000000000	-	-	-	-	-	-	-	-	-	-	Terminate	
"Student17Mode1"	"Seema_Shokoufeh_Track2"	"Dec 01, 2016 10:55:23 AM"	Unknown	5.98345	11/01/0116 10:55.32	00000359	-0.000	Inter625t13-0	-0.088	1	2	0.000	11.111	1.0	0.000	0.024	D	F	0.0	0.001	0.209	-0.000	1503.500	523.208	0.028	-	-0.000	0.000	-	-	-	-	-	-	-	PAVEMENT_GENERAL	Urban	F	1011101000011101	0000000000000000	-	-	-	-	-	-	-	-	-	-	Terminate	
"Student17Mode1"	"Seema_Shokoufeh_Track2"	"Dec 01, 2016 10:55:23 AM"	Unknown	6.98347	11/01/0116 10:55.33	00000419	-0.000	Inter625t13-0	-0.088	1	2	0.000	11.111	0.9	0.000	0.063	D	F	0.0	0.001	0.209	-0.000	1503.500	523.208	0.028	-	0.000	0.000	-	-	-	-	-	-	-	PAVEMENT_GENERAL	Urban	F	1011101000011101	0000000000000000	-	-	-	-	-	-	-	-	-	-	Terminate	
"Student17Mode1"	"Seema_Shokoufeh_Track2"	"Dec 01, 2016 10:55:23 AM"	Unknown	7.98349	11/01/0116 10:55.34	00000479	-0.000	Inter625t13-0	-0.088	1	2	0.000	11.111	0.9	0.000	0.063	D	F	0.0	0.001	0.209	-0.000	1503.500	523.208	0.028	-	0.000	0.000	-	-	-	-	-	-	-	PAVEMENT_GENERAL	Urban	F	1011101000011101	0000000000000000	-	-	-	-	-	-	-	-	-	-	Terminate	
"Student17Mode1"	"Seema_Shokoufeh_Track2"	"Dec 01, 2016 10:55:23 AM"	Unknown	8.98351	11/01/0116 10:55.35	00000539	-0.000	Inter625t13-0	-0.088	1	2	0.000	11.111	0.8	0.000	0.063	D	F	0.0	0.001	0.209	-0.000	1503.500	523.208	0.028	-	-0.000	0.000	-	-	-	-	-	-	-	PAVEMENT_GENERAL	Urban	F	1111101000011101	0000000000000000	-	-	-	-	-	-	-	-	-	-	Terminate	
"Student17Mode1"	"Seema_Shokoufeh_Track2"	"Dec 01, 2016 10:55:23 AM"	Unknown	9.98353	11/01/0116 10:55.36	00000599	-0.000	Inter625t13-0	-0.088	1	2	0.000	11.111	0.9	0.000	0.075	D	F	183.3	0.001	0.209	-0.000	1503.500	523.208	0.028	-	-0.000	0.000	-	-	-	-	-	-	-	PAVEMENT_GENERAL	Urban	F	1011101000011111	0000000000000000	-	-	-	-	-	-	-	-	-	-	Terminate	
"Student17Mode1"	"Seema_Shokoufeh_Track2"	"Dec 01, 2016 10:55:23 AM"	Unknown	10.98355	11/01/0116 10:55.37	00000659	0.000	Inter625t13-0	-0.088	1	2	0.000	11.111	1.5	0.000	0.006	D	F	477.5	0.001	0.209	-0.000	1503.500	523.208	0.028	-	0.000	0.000	-	-	-	-	-	-	-	PAVEMENT_GENERAL	Urban	F	1011101000011101	0000000000000000	-	-	-	-	-	-	-	-	-	-	Terminate	
"Student17Mode1"	"Seema_Shokoufeh_Track2"	"Dec 01, 2016 10:55:23 AM"	Unknown	11.98357	11/01/0116 10:55.38	00000719	0.009	Inter625t13-0	-0.088	1	2	0.000	11.111	3.3	0.000	0.000	D	F	477.5	0.001	0.203	-0.000	1503.500	523.210	0.026	-	0.000	0.010	-	-	-	-	-	-	-	PAVEMENT_GENERAL	Urban	F	1111101000011101	0000000000000000	-	-	-	-	-	-	-	-	-	-	Terminate	
"Student17Mode1"	"Seema_Shokoufeh_Track2"	"Dec 01, 2016 10:55:23 AM"	Unknown	12.98359	11/01/0116 10:55.39	00000779	1.202	Inter625t13-0	-0.087	1	2	0.000	11.111	4.2	0.132	0.000	D	F	1312.9	0.032	0.252	-0.002	1503.501	523.493	0.015	-	0.008	3.062	-	-	-	-	-	-	-	PAVEMENT_GENERAL	Urban	F	1011101000011101	0000000000000000	-	-	-	-	-	-	-	-	-	-	Terminate	
"Student17Mode1"	"Seema_Shokoufeh_Track2"	"Dec 01, 2016 10:55:23 AM"	Unknown	13.98361	11/01/0116 10:55.40	00000839	4.392	Inter625t13-0	-0.078	1	2	0.000	11.111	1.0	0.245	0.000	D	F	1849.9	0.168	0.226	-0.002	1503.510	526.256	0.011	-	0.007	3.154	-	-	-	-	-	-	-	PAVEMENT_GENERAL	Urban	F	1011101000011101	0000000000000000	-	-	-	-	-	-	-	-	-	-	Terminate	
"Student17Mode1"	"Seema_Shokoufeh_Track2"	"Dec 01, 2016 10:55:23 AM"	Unknown	14.98363	11/01/0116 10:55.41	00000899	7.092	Inter625t13-0	-0.056	1	2	0.000	11.111	1.3	0.296	0.000	D	F	2333.9	0.247	0.225	-0.003	1503.532	532.048	0.015	-	0.023	2.496	-	-	-	-	-	-	-	PAVEMENT_GENERAL	Urban	F	1011101000011101	0000000000000000	-	-	-	-	-	-	-	-	-	-	Terminate	
"Student17Mode1"	"Seema_Shokoufeh_Track2"	"Dec 01, 2016 10:55:23 AM"	Unknown	15.98365	11/01/0116 10:55.42	00000959	9.577	Inter625t49-0	-0.011	1	1	0.006	11.111	-1.3	0.316	0.000	D	F	2296.1	0.297	0.208	0.006	1503.578	540.390	0.014	-	-0.034	2.121	-	-	-	-	-	-	-	PAVEMENT_GENERAL	Urban	F	1011101000011101	0000000000000000	-	-	-	-	-	-	-	-	-	-	Terminate	
"Student17Mode1"	"Seema_Shokoufeh_Track2"	"Dec 01, 2016 10:55:23 AM"	Unknown	16.98367	11/01/0116 10:55.43	00001019	11.240	Inter625t49-0	0.027	1	1	0.008	11.111	0.2	0.353	0.000	D	F	2201.1	0.189	0.214	-0.000	1503.616	550.826	0.019	-	0.005	1.551	-	-	-	-	-	-	-	PAVEMENT_GENERAL	Urban	F	1011101000011101	0000000000000000	-	-	-	-	-	-	-	-	-	-	Terminate	
"Student17Mode1"	"Seema_Shokoufeh_Track2"	"Dec 01, 2016 10:55:23 AM"	Unknown	17.98369	11/01/0116 10:55.44	00001079	12.695	Inter625t49-0	0.070	1	1	0.005	11.111	-0.6	0.347	0.000	D	F	2330.1	0.250	0.211	0.001	1503.662	562.806	0.020	-	-0.007	1.389	-	-	-	-	-	-	-	PAVEMENT_GENERAL	Urban	F	1011101000011101	0000000000000000	-	-	-	-	-	-	-	-	-	-	Terminate	
"Student17Mode1"	"Seema_Shokoufeh_Track2"	"Dec 01, 2016 10:55:23 AM"	Unknown	18.98371	11/01/0116 10:55.45	00001139	14.079	Inter625t49-0	0.108	1	1	0.005	11.111	0.5	0.383	0.000	D	F	2511.7	0.101	0.210	-0.000	1503.701	576.194	0.020	-	0.003	1.383	-	-	-	-	-	-	-	PAVEMENT_GENERAL	Urban	F	1011101000011101	0000000000000000	-	-	-	-	-	-	-	-	-	-	Terminate	
"Student17Mode1"	"Seema_Shokoufeh_Track2"	"Dec 01, 2016 10:55:23 AM"	Unknown	19.98373	11/01/0116 10:55.46	00001199	15.438	Inter625t15-0	0.143	1	2	0.000	11.111	-0.2	0.379	0.000	D	F	2684.5	0.165	0.207	-0.000	1503.736	590.956	0.020	-	0.001	1.339	-	-	-	-	-	-	-	PAVEMENT_GENERAL	Urban	F	1011101000011101	0000000000000000	-	-	-	-	-	-	-	-	-	-	Terminate	
"Student17Mode1"	"Seema_Shokoufeh_Track2"	"Dec 01, 2016 10:55:23 AM"	Unknown	20.98375	11/01/0116 10:55.47	00001259	16.761	Inter614t1-0	0.174	1	2	0.000	11.111	-0.8	0.377	0.000	D	F	2878.5	0.022	0.205	0.005	1503.767	607.058	0.021	-	-0.049	1.300	-	-	-	-	-	-	-	PAVEMENT_GENERAL	Urban	F	1011101000011101	0000000000000000	-	-	-	-	-	-	-	-	-	-	Terminate	
"Student17Mode1"	"Seema_Shokoufeh_Track2"	"Dec 01, 2016 10:55:23 AM"	Unknown	21.98377	11/01/0116 10:55.48	00001319	18.035	Inter614t1-0	0.158	1	2	0.000	11.111	-0.4	0.351	0.000	D	F	3053.6	359.856	0.203	0.004	1503.751	624.464	0.021	-	-0.036	1.234	-	-	-	-	-	-	-	PAVEMENT_GENERAL	Urban	F	1011101000011101	0000000000000000	-	-	-	-	-	-	-	-	-	-	Terminate	
"Student17Mode1"	"Seema_Shokoufeh_Track2"	"Dec 01, 2016 10:55:23 AM"	Unknown	22.98379	11/01/0116 10:55.49	00001379	18.862	Inter614t1-0	0.093	1	2	0.000	11.111	-0.4	0.231	0.000	D	F	2216.6	359.712	0.188	0.004	1503.687	642.998	0.024	-	-0.038	0.427	-	-	-	-	-	-	-	PAVEMENT_GENERAL	Urban	F	1011101000011101	0000000000000000	-	-	-	-	-	-	-	-	-	-	Terminate	
"Student17Mode1"	"Seema_Shokoufeh_Track2"	"Dec 01, 2016 10:55:23 AM"	Unknown	23.98381	11/01/0116 10:55.50	00001439	19.310	Inter614t1-0	-0.007	1	2	0.000	11.111	-0.0	0.238	0.000	D	F	2210.0	359.687	0.193	0.000	1503.586	662.086	0.025	-	-0.002	0.426	-	-	-	-	-	-	-	PAVEMENT_GENERAL	Urban	F	1011101000011101	0000000000000000	-	-	-	-	-	-	-	-	-	-	Terminate	
"Student17Mode1"	"Seema_Shokoufeh_Track2"	"Dec 01, 2016 10:55:23 AM"	Unknown	24.98383	11/01/0116 10:55.51	00001499	19.724	Inter614t1-0	-0.109	1	2	0.000	11.111	0.6	0.226	0.000	D	F	2228.1	359.754	0.192	-0.006	1503.484	681.605	0.025	-	0.046	0.394	-	-	-	12	7.986	157.515	85.455	PAVEMENT_GENERAL	Urban	F	1011101000011101	0000000000000000	-	-	-	-	-	-	-	-	-	-	Terminate	
"Student17Mode1"	"Seema_Shokoufeh_Track2"	"Dec 01, 2016 10:55:23 AM"	Unknown	25.98385	11/01/0116 10:55.52	00001559	19.992	Inter614t1-0	-0.183	1	2	0.000	11.111	0.4	0.210	0.000	D	F	2220.3	359.837	0.191	-0.004	1503.410	701.453	0.025	-	0.029	0.302	-	-	-	12	7.820	156.332	879.223	PAVEMENT_GENERAL	Urban	F	1011101000011101	0000000000000000	-	-	-	-	-	-	-	-	-	-	Terminate	
"Student17Mode1"	"Seema_Shokoufeh_Track2"	"Dec 01, 2016 10:55:23 AM"	Unknown	26.98387	11/01/0116 10:55.53	00001619	20.287	Inter614t1-0	-0.233	1	2	0.000	11.111	0.3	0.208	0.000	D	F	2245.5	359.894	0.190	-0.003	1503.360	721.594	0.025	-	0.020	0.284	-	-	-	12	7.726	156.732	-	PAVEMENT_GENERAL	Urban	F	1011101000011101	0000000000000000	-	-	-	-	-	-	-	-	-	-	Terminate	
"Student17Mode1"	"Seema_Shokoufeh_Track2"	"Dec 01, 2016 10:55:23 AM"	Unknown	27.98389	11/01/0116 10:55.54	00001679	20.583	Inter614t1-0	-0.266	1	2	0.000	11.111	0.1	0.215	0.000	D	F	2278.9	359.918	0.190	-0.001	1503.327	742.027	0.025	-	0.005	0.308	-	-	-	12	7.664	157.757	-	PAVEMENT_GENERAL	Urban	F	1011101000011101	0000000000000000	-	-	-	-	-	-	-	-	-	-	Terminate	
"Student17Mode1"	"Seema_Shokoufeh_Track2"	"Dec 01, 2016 10:55:23 AM"	Unknown	28.98391	11/01/0116 10:55.55	00001739	20.913	Inter614t1-0	-0.290	1	2	0.000	11.111	0.3	0.222	0.000	D	F	2314.6	0.000	0.189	-0.002	1503.303	762.772	0.025	-	0.015	0.331	-	-	-	12	7.602	158.989	-	PAVEMENT_GENERAL	Urban	F	1011101000011101	0000000000000000	-	-	-	-	-	-	-	-	-	-	Terminate	
"Student17Mode1"	"Seema_Shokoufeh_Track2"	"Dec 01, 2016 10:55:23 AM"	Unknown	29.98393	11/01/0116 10:55.56	00001799	21.182	Inter614t1-0	-0.296	1	2	0.000	11.111	-0.0	0.213	0.000	D	F	2334.0	0.018	0.189	-0.002	1503.297	783.825	0.026	-	0.010	0.282	-	-	-	12	7.567	160.274	-	PAVEMENT_GENERAL	Urban	F	1011101000011101	0000000000000000	-	-	-	-	-	-	-	-	-	-	Terminate	
"Student17Mode1"	"Seema_Shokoufeh_Track2"	"Dec 01, 2016 10:55:23 AM"	Unknown	30.98395	11/01/0116 10:55.57	00001859	21.464	Inter612t1-0	-0.294	1	2	0.000	11.111	-0.2	0.199	0.000	D	F	2336.6	0.000	0.187	0.002	1503.300	805.150	0.025	-	-0.018	0.244	-	-	-	12	7.515	161.303	-	PAVEMENT_GENERAL	Urban	F	1011101000011101	0000000000000000	-	-	-	-	-	-	-	-	-	-	Terminate	
"Student17Mode1"	"Seema_Shokoufeh_Track2"	"Dec 01, 2016 10:55:23 AM"	Unknown	31.98397	11/01/0116 10:55.58	00001919	21.661	Inter612t1-0	-0.302	1	2	0.000	11.111	0.3	0.199	0.000	D	F	2356.8	0.000	0.186	-0.002	1503.291	826.704	0.026	-	0.014	0.198	-	-	-	12	7.484	162.102	-	PAVEMENT_GENERAL	Urban	F	1111101000011101	0000000000000000	-	-	-	-	-	-	-	-	-	-	Terminate	
"Student17Mode1"	"Seema_Shokoufeh_Track2"	"Dec 01, 2016 10:55:23 AM"	Unknown	32.98399	11/01/0116 10:55.59	00001979	21.881	Inter612t1-0	-0.301	1	2	0.000	11.111	-0.1	0.210	0.000	D	F	2389.9	0.020	0.186	0.000	1503.292	848.470	0.026	-	0.001	0.234	-	-	-	12	7.435	162.690	-	PAVEMENT_GENERAL	Urban	F	1011101000011101	0000000000000000	-	-	-	-	-	-	-	-	-	-	Terminate	
"Student17Mode1"	"Seema_Shokoufeh_Track2"	"Dec 01, 2016 10:55:23 AM"	Unknown	33.98401	11/01/0116 10:56.00	00002039	22.043	Inter612t1-0	-0.296	1	2	0.000	11.111	0.0	0.159	0.000	D	F	1899.3	0.006	0.180	0.000	1503.297	870.457	0.027	-	-0.001	-0.028	-	-	-	12	7.397	163.056	-	PAVEMENT_GENERAL	Urban	F	1011101000011101	0000000000000000	-	-	-	-	-	-	-	-	-	-	Terminate	
"Student17Mode1"	"Seema_Shokoufeh_Track2"	"Dec 01, 2016 10:55:23 AM"	Unknown	34.98403	11/01/0116 10:56.01	00002099	22.025	Inter612t1-0	-0.293	1	2	0.000	11.111	-0.0	0.183	0.000	D	F	1856.5	0.015	0.184	-0.000	1503.300	892.482	0.027	-	0.002	0.029	-	-	-	12	7.418	163.385	-	PAVEMENT_GENERAL	Urban	F	1011101000011101	0000000000000000	-	-	-	-	-	-	-	-	-	-	Terminate	
"Student17Mode1"	"Seema_Shokoufeh_Track2"	"Dec 01, 2016 10:55:23 AM"	Unknown	35.98405	11/01/0116 10:56.02	00002159	22.026	Inter612t1-0	-0.290	1	2	0.000	11.111	0.0	0.166	0.000	D	F	1810.1	0.000	0.183	0.000	1503.303	914.515	0.027	-	-0.002	-0.036	-	-	-	12	7.432	163.705	-	PAVEMENT_GENERAL	Urban	F	1011101000011101	0000000000000000	-	-	-	-	-	-	-	-	-	-	Terminate	
"Student17Mode1"	"Seema_Shokoufeh_Track2"	"Dec 01, 2016 10:55:23 AM"	Unknown	36.98407	11/01/0116 10:56.03	00002219	22.014	Inter612t1-0	-0.291	1	2	0.000	11.111	0.1	0.176	0.000	D	F	1834.8	0.000	0.184	-0.000	1503.302	936.532	0.027	-	0.004	0.002	-	-	-	12	7.452	164.042	-	PAVEMENT_GENERAL	Urban	F	1111101000011101	0000000000000000	-	-	-	-	-	-	-	-	-	-	Terminate	
"Student17Mode1"	"Seema_Shokoufeh_Track2"	"Dec 01, 2016 10:55:23 AM"	Unknown	37.98409	11/01/0116 10:56.04	00002279	22.026	Inter612t1-0	-0.289	1	2	0.000	11.111	0.1	0.180	0.000	D	F	1847.7	0.017	0.184	-0.001	1503.304	958.549	0.027	-	0.007	0.025	-	-	-	12	7.463	164.378	-	PAVEMENT_GENERAL	Urban	F	1011101000011101	0000000000000000	-	-	-	-	-	-	-	-	-	-	Terminate	
"Student17Mode1"	"Seema_Shokoufeh_Track2"	"Dec 01, 2016 10:55:23 AM"	Unknown	38.98411	11/01/0116 10:56.05	00002339	22.049	Inter612t1-0	-0.280	1	2	0.000	11.111	0.0	0.182	0.000	D	F	1849.5	0.032	0.184	-0.000	1503.313	980.587	0.027	-	0.004	0.021	-	-	-	12	7.469	164.694	-	PAVEMENT_GENERAL	Urban	F	1111101000011101	0000000000000000	-	-	-	-	-	-	-	-	-	-	Terminate	
"Student17Mode1"	"Seema_Shokoufeh_Track2"	"Dec 01, 2016 10:55:23 AM"	Unknown	39.98413	11/01/0116 10:56.06	00002399	22.067	Inter613t1-0	-0.268	1	2	0.000	11.111	0.0	0.183	0.000	D	F	1850.3	0.029	0.184	-0.000	1503.325	1002.645	0.027	-	-0.001	0.021	-	-	-	12	7.477	164.989	-	PAVEMENT_GENERAL	Urban	F	1011101000011101	0000000000000000	-	-	-	-	-	-	-	-	-	-	Terminate	
"Student17Mode1"	"Seema_Shokoufeh_Track2"	"Dec 01, 2016 10:55:23 AM"	Unknown	40.98415	11/01/0116 10:56.07	00002459	22.089	Inter613t1-0	-0.256	1	2	0.000	11.111	0.0	0.178	0.000	D	F	1852.1	0.033	0.184	-0.000	1503.338	1024.723	0.027	-	0.001	0.020	-	-	-	12	7.482	165.265	-	PAVEMENT_GENERAL	Urban	F	1011101000011101	0000000000000000	-	-	-	-	-	-	-	-	-	-	Terminate	
"Student17Mode1"	"Seema_Shokoufeh_Track2"	"Dec 01, 2016 10:55:23 AM"	Unknown	41.98417	11/01/0116 10:56.08	00002519	22.108	Inter613t1-0	-0.243	1	2	0.000	11.111	0.1	0.180	0.000	D	F	1847.6	0.027	0.184	-0.000	1503.350	1046.822	0.027	-	0.001	0.015	-	-	-	12	7.487	165.519	-	PAVEMENT_GENERAL	Urban	F	1011101000011101	0000000000000000	-	-	-	-	-	-	-	-	-	-	Terminate	
"Student17Mode1"	"Seema_Shokoufeh_Track2"	"Dec 01, 2016 10:55:23 AM"	Unknown	42.98419	11/01/0116 10:56.09	00002579	22.120	Inter613t1-0	-0.229	1	2	0.000	11.111	0.1	0.182	0.000	D	F	1848.9	0.051	0.184	-0.001	1503.364	1068.936	0.027	-	0.009	0.014	-	-	-	12	7.494	165.759	-	PAVEMENT_GENERAL	Urban	F	1011101000011101	0000000000000000	-	-	-	-	-	-	-	-	-	-	Terminate	
"Student17Mode1"	"Seema_Shokoufeh_Track2"	"Dec 01, 2016 10:55:23 AM"	Unknown	43.98421	11/01/0116 10:56.10	00002639	22.133	Inter613t1-0	-0.208	1	2	0.000	11.111	0.1	0.182	0.000	D	F	1849.2	0.057	0.184	-0.000	1503.385	1091.062	0.027	-	-0.000	0.013	-	-	-	12	7.499	165.986	-	PAVEMENT_GENERAL	Urban	F	1011101000011101	0000000000000000	-	-	-	-	-	-	-	-	-	-	Terminate	
"Student17Mode1"	"Seema_Shokoufeh_Track2"	"Dec 01, 2016 10:55:23 AM"	Unknown	44.98423	11/01/0116 10:56.11	00002699	22.139	Inter613t1-0	-0.185	1	2	0.000	11.111	-0.1	0.175	0.000	D	F	1835.8	0.057	0.183	0.001	1503.409	1113.200	0.027	-	-0.005	-0.007	-	-	-	12	7.507	166.202	-	PAVEMENT_GENERAL	Urban	F	1011101000011101	0000000000000000	-	-	-	-	-	-	-	-	-	-	Terminate	
"Student17Mode1"	"Seema_Shokoufeh_Track2"	"Dec 01, 2016 10:55:23 AM"	Unknown	45.98425	11/01/0116 10:56.12	00002759	22.120	Inter613t1-0	-0.174	1	2	0.000	11.111	-0.1	0.175	0.000	D	F	1831.3	0.000	0.184	0.002	1503.420	1135.330	0.027	-	-0.019	-0.016	-	-	-	12	7.524	166.425	-	PAVEMENT_GENERAL	Urban	F	1011101000011101	0000000000000000	-	-	-	-	-	-	-	-	-	-	Terminate	
"Student17Mode1"	"Seema_Shokoufeh_Track2"	"Dec 01, 2016 10:55:23 AM"	Unknown	46.98427	11/01/0116 10:56.13	00002819	22.134	Inter613t1-0	-0.173	1	2	0.000	11.111	0.5	0.189	0.000	D	F	1877.0	0.056	0.184	-0.006	1503.420	1157.451	0.027	-	0.046	0.056	-	-	-	12	7.530	166.658	-	PAVEMENT_GENERAL	Urban	F	1011101000011101	0000000000000000	-	-	-	-	-	-	-	-	-	-	Terminate	
"Student17Mode1"	"Seema_Shokoufeh_Track2"	"Dec 01, 2016 10:55:23 AM"	Unknown	47.98429	11/01/0116 10:56.14	00002879	22.193	Inter613t1-0	-0.140	1	2	0.000	11.111	0.1	0.190	0.000	D	F	1883.2	0.123	0.184	-0.001	1503.454	1179.614	0.027	-	0.011	0.060	-	-	-	12	7.518	166.849	-	PAVEMENT_GENERAL	Urban	F	1011101000011101	0000000000000000	-	-	-	-	-	-	-	-	-	-	Terminate	
"Student17Mode1"	"Seema_Shokoufeh_Track2"	"Dec 01, 2016 10:55:23 AM"	Unknown	48.98431	11/01/0116 10:56.15	00002939	22.253	Inter746t1-0	-0.095	1	2	0.000	11.111	-0.2	0.194	0.000	D	F	1887.8	0.093	0.184	0.002	1503.498	1201.836	0.027	-	-0.017	0.062	-	-	-	12	7.504	166.979	-	PAVEMENT_GENERAL	Urban	F	1011101000011101	0000000000000000	-	-	-	-	-	-	-	-	-	-	Terminate	
"Student17Mode1"	"Seema_Shokoufeh_Track2"	"Dec 01, 2016 10:55:23 AM"	Unknown	49.98433	11/01/0116 10:56.16	00002999	22.322	Inter746t1-0	-0.067	1	2	0.000	11.111	-0.4	0.198	0.000	D	F	1901.1	0.027	0.184	0.004	1503.526	1224.123	0.026	-	-0.033	0.076	-	-	-	12	7.484	167.047	-	PAVEMENT_GENERAL	Urban	F	1111101000011101	0000000000000000	-	-	-	-	-	-	-	-	-	-	Terminate	
"Student17Mode1"	"Seema_Shokoufeh_Track2"	"Dec 01, 2016 10:55:23 AM"	Unknown	50.98435	11/01/0116 10:56.17	00003059	22.442	Inter746t1-0	-0.064	1	2	0.000	11.111	-0.1	0.219	0.000	D	F	1960.0	0.000	0.184	0.000	1503.529	1246.495	0.026	-	-0.005	0.163	-	-	-	12	7.398	166.024	56.145	PAVEMENT_GENERAL	Urban	F	1011101000011101	0000000000000000	-	-	-	-	-	-	-	-	-	-	Terminate	
"Student17Mode1"	"Seema_Shokoufeh_Track2"	"Dec 01, 2016 10:55:23 AM"	Unknown	51.98437	11/01/0116 10:56.18	00003119	22.615	Inter746t1-0	-0.071	1	2	0.000	11.111	-0.1	0.228	0.000	D	F	1975.2	0.000	0.184	0.002	1503.522	1269.023	0.026	-	-0.011	0.172	-	-	-	12	7.120	161.014	22.583	PAVEMENT_GENERAL	Urban	F	1011101000011101	0000000000000000	-	-	-	-	-	-	-	-	-	-	Terminate	
"Student17Mode1"	"Seema_Shokoufeh_Track2"	"Dec 01, 2016 10:55:23 AM"	Unknown	52.98439	11/01/0116 10:56.19	00003179	22.781	Inter746t1-0	-0.085	1	2	0.000	11.111	-0.0	0.226	0.000	D	F	1979.1	0.000	0.184	-0.001	1503.508	1291.722	0.026	-	0.004	0.163	-	-	-	12	6.667	151.880	14.134	PAVEMENT_GENERAL	Urban	F	1011101000011101	0000000000000000	-	-	-	-	-	-	-	-	-	-	Terminate	
"Student17Mode1"	"Seema_Shokoufeh_Track2"	"Dec 01, 2016 10:55:23 AM"	Unknown	53.98441	11/01/0116 10:56.20	00003239	22.942	Inter746t1-0	-0.100	1	2	0.000	11.111	-0.3	0.220	0.000	D	F	1978.4	359.942	0.183	0.003	1503.493	1314.584	0.026	-	-0.020	0.154	-	-	-	12	6.127	140.572	11.915	PAVEMENT_GENERAL	Urban	F	1011101000011101	0000000000000000	-	-	-	-	-	-	-	-	-	-	Terminate	
"Student17Mode1"	"Seema_Shokoufeh_Track2"	"Dec 01, 2016 10:55:23 AM"	Unknown	54.98443	11/01/0116 10:56.21	00003299	22.730	Inter746t1-0	-0.133	1	2	0.000	11.111	-0.6	0.000	0.000	D	F	1549.5	359.849	0.175	0.008	1503.460	1337.510	0.030	-	-0.056	-0.647	-	-	-	-	-	-	-	PAVEMENT_GENERAL	Urban	F	1011101000011101	0000000000000000	-	-	-	-	-	-	-	-	-	-	Terminate	
"Student17Mode1"	"Seema_Shokoufeh_Track2"	"Dec 01, 2016 10:55:23 AM"	Unknown	55.98445	11/01/0116 10:56.22	00003359	22.086	Inter746t1-0	-0.240	1	2	0.000	11.111	-2.3	0.000	0.021	D	F	1505.2	359.434	0.177	0.030	1503.353	1359.917	0.030	-	-0.225	-0.641	-	-	-	-	-	-	-	PAVEMENT_GENERAL	Urban	F	1011101000011101	0000000000000000	-	-	-	-	-	-	-	-	-	-	Terminate	
"Student17Mode1"	"Seema_Shokoufeh_Track2"	"Dec 01, 2016 10:55:23 AM"	Unknown	56.98447	11/01/0116 10:56.23	00003419	20.390	Inter746t1-0	-0.552	1	2	0.000	11.111	-5.2	0.000	0.090	D	F	1374.0	358.531	0.160	0.056	1503.041	1381.210	0.032	-	-0.415	-1.751	-	-	-	-	-	-	-	PAVEMENT_GENERAL	Urban	F	1011101000011101	0000000000000000	-	-	-	-	-	-	-	-	-	-	Terminate	
"Student17Mode1"	"Seema_Shokoufeh_Track2"	"Dec 01, 2016 10:55:23 AM"	Unknown	57.98449	11/01/0116 10:56.24	00003479	18.855	Inter749t9-0	-1.218	1	2	0.000	11.111	-5.1	0.000	0.078	D	F	1273.0	357.227	0.166	0.055	1502.375	1400.814	0.031	L	-0.427	-1.520	-	-	-	-	-	-	-	PAVEMENT_GENERAL	Urban	F	1011101000111101	0000000000000000	-	-	-	-	-	-	-	-	-	-	Terminate	
"Student17Mode1"	"Seema_Shokoufeh_Track2"	"Dec 01, 2016 10:55:23 AM"	Unknown	58.98451	11/01/0116 10:56.25	00003539	17.188	-	-	SH-	1	-	-	2.3	0.000	0.107	D	F	1154.8	356.594	0.164	-0.003	1501.401	1418.849	0.032	L	0.003	-1.870	-	-	-	-	-	-	-	PAVEMENT_GENERAL	Urban	F	1011101000111101	0000000000000000	-	-	-	-	-	-	-	-	-	-	Terminate	
"Student17Mode1"	"Seema_Shokoufeh_Track2"	"Dec 01, 2016 10:55:23 AM"	Unknown	59.98453	11/01/0116 10:56.26	00003599	15.164	-	-	SH	1	-	-	5.8	0.000	0.161	D	F	1012.4	357.500	0.149	-0.043	1500.530	1435.053	0.033	L	0.327	-2.448	-	-	-	-	-	-	-	PAVEMENT_GENERAL	Urban	F	1011101000111101	0000000000000000	-	-	-	-	-	-	-	-	-	-	Terminate	
"Student17Mode1"	"Seema_Shokoufeh_Track2"	"Dec 01, 2016 10:55:23 AM"	Unknown	60.98455	11/01/0116 10:56.27	00003659	12.106	Inter749t31-0	-1.082	1	1	356.627	11.111	6.2	0.000	0.212	D	F	1076.9	359.012	0.141	-0.042	1500.079	1448.744	0.035	L	0.326	-3.266	-	-	-	-	-	-	-	PAVEMENT_GENERAL	Urban	F	1011101000111101	0000000000000000	-	-	-	-	-	-	-	-	-	-	Terminate	
"Student17Mode1"	"Seema_Shokoufeh_Track2"	"Dec 01, 2016 10:55:23 AM"	Unknown	61.98457	11/01/0116 10:56.28	00003719	9.215	Inter749t31-0	-0.540	1	1	356.903	11.111	0.8	0.000	0.110	D	F	891.3	359.636	0.178	-0.004	1499.966	1459.315	0.032	L	0.030	-1.987	-	-	-	-	-	-	-	PAVEMENT_GENERAL	Urban	F	1011101000111101	0000000000000000	-	-	-	-	-	-	-	-	-	-	Terminate	
"Student17Mode1"	"Seema_Shokoufeh_Track2"	"Dec 01, 2016 10:55:23 AM"	Unknown	62.98459	11/01/0116 10:56.29	00003779	8.483	Inter749t11-0	-0.146	LT1	2	0.000	11.111	-0.2	0.000	0.000	D	F	833.7	359.681	0.195	0.000	1499.916	1468.081	0.028	L	-0.005	-0.480	-	-	-	-	-	-	-	PAVEMENT_GENERAL	Urban	F	1011101000111101	0000000000000000	-	-	-	-	-	-	-	-	-	-	Terminate	
"Student17Mode1"	"Seema_Shokoufeh_Track2"	"Dec 01, 2016 10:55:23 AM"	Unknown	63.98461	11/01/0116 10:56.30	00003839	7.995	Inter749t11-0	-0.197	LT1	2	0.000	11.111	-0.4	0.000	0.021	D	F	783.4	359.613	0.193	0.001	1499.865	1476.325	0.029	L	-0.008	-0.660	-	-	-	-	-	-	-	PAVEMENT_GENERAL	Urban	F	1011101000111101	0000000000000000	-	-	-	-	-	-	-	-	-	-	Terminate	
"Student17Mode1"	"Seema_Shokoufeh_Track2"	"Dec 01, 2016 10:55:23 AM"	Unknown	64.98463	11/01/0116 10:56.31	00003899	6.887	Inter749t65-0	-0.104	1	1	351.265	11.111	-0.2	0.000	0.167	D	F	661.7	359.528	0.150	0.001	1499.805	1483.944	0.031	L	-0.004	-2.349	-	-	-	-	-	-	-	PAVEMENT_GENERAL	Urban	F	1011101000111101	0000000000000000	-	-	-	-	-	-	-	-	-	-	Terminate	
"Student17Mode1"	"Seema_Shokoufeh_Track2"	"Dec 01, 2016 10:55:23 AM"	Unknown	65.98465	11/01/0116 10:56.32	00003959	3.485	Inter749t65-0	1.199	1	1	338.243	11.111	-0.4	0.000	0.290	D	F	477.5	359.496	0.141	0.000	1499.759	1489.265	0.036	L	-0.001	-3.889	-	-	-	-	-	-	-	PAVEMENT_GENERAL	Urban	F	1011101000111101	0000000000000000	-	-	-	-	-	-	-	-	-	-	Terminate	
"Student17Mode1"	"Seema_Shokoufeh_Track2"	"Dec 01, 2016 10:55:23 AM"	Unknown	66.98467	11/01/0116 10:56.33	00004019	0.172	-Inter749t73-0	0.331	-1	1	217.535	11.111	-3.4	0.000	0.260	D	F	477.5	359.447	0.222	-0.000	1499.743	1490.920	0.035	L	0.001	-1.571	-	-	-	Ambient250	167.206	28.719	-	PAVEMENT_GENERAL	Urban	F	1011101000111101	0000000000000000	-	-	-	-	-	-	-	-	-	-	Terminate	
"Student17Mode1"	"Seema_Shokoufeh_Track2"	"Dec 01, 2016 10:55:23 AM"	Unknown	67.98470	11/01/0116 10:56.34	00004079	-0.001	-Inter749t73-0	0.340	-1	1	217.571	11.111	-6.5	0.000	0.215	D	F	477.5	359.446	0.230	0.000	1499.743	1490.936	0.030	L	0.000	0.001	-	-	-	Ambient250	-	40.766	-	PAVEMENT_GENERAL	Urban	F	1011101000111101	0000000000000000	-	-	-	-	-	-	-	-	-	-	Terminate	
"Student17Mode1"	"Seema_Shokoufeh_Track2"	"Dec 01, 2016 10:55:23 AM"	Unknown	68.98471	11/01/0116 10:56.35	00004139	-0.000	-Inter749t73-0	0.340	-1	1	217.570	11.111	-13.3	0.000	0.000	D	F	477.5	359.446	0.215	0.000	1499.743	1490.936	0.029	L	-0.000	0.001	-	-	-	Ambient250	-	52.799	-	PAVEMENT_GENERAL	Urban	F	1011101000111101	0000000000000000	-	-	-	-	-	-	-	-	-	-	Terminate	
"Student17Mode1"	"Seema_Shokoufeh_Track2"	"Dec 01, 2016 10:55:23 AM"	Unknown	69.98473	11/01/0116 10:56.36	00004199	0.011	-Inter749t73-0	0.343	-1	1	217.580	11.111	-67.8	0.056	0.000	D	F	619.2	359.438	0.201	-0.001	1499.743	1490.940	0.025	L	-0.002	0.007	-	-	-	Ambient250	5712.749	64.836	-	PAVEMENT_GENERAL	Urban	F	1011101000111101	0000000000000000	-	-	-	-	-	-	-	-	-	-	Terminate	
"Student17Mode1"	"Seema_Shokoufeh_Track2"	"Dec 01, 2016 10:55:23 AM"	Unknown	70.98476	11/01/0116 10:56.37	00004259	2.171	-Inter749t61-0	1.107	-1	1	89.733	11.111	-146.1	0.164	0.000	D	F	1454.0	357.347	0.230	0.080	1499.664	1491.708	0.012	L	-0.606	3.210	-	-	-	-	-	-	-	PAVEMENT_GENERAL	Urban	F	1011101000111101	0000000000000000	-	-	-	-	-	-	-	-	-	-	Terminate	
"Student17Mode1"	"Seema_Shokoufeh_Track2"	"Dec 01, 2016 10:55:23 AM"	Unknown	71.98477	11/01/0116 10:56.38	00004319	5.035	-Inter749t59-0	1.172	-1	1	89.733	11.111	-218.2	0.210	0.000	D	F	1887.3	342.516	0.209	0.276	1498.681	1495.238	0.014	L	-2.084	2.271	-	-	-	-	-	-	-	PAVEMENT_GENERAL	Urban	F	1011101000111101	0000000000000000	-	-	-	-	-	-	-	-	-	-	Terminate	
"Student17Mode1"	"Seema_Shokoufeh_Track2"	"Dec 01, 2016 10:55:23 AM"	Unknown	72.98479	11/01/0116 10:56.39	00004379	7.111	-Inter749t83-0	1.419	-1	1	179.883	11.111	-219.6	0.226	0.000	D	F	2248.8	314.644	0.204	0.473	1495.006	1500.088	0.020	L	-3.612	1.702	-	-	-	Ambient266	4.213	29.959	-	PAVEMENT_GENERAL	Urban	F	1011101000111101	0000000000000000	-	-	-	-	-	-	-	-	-	-	Terminate	
"Student17Mode1"	"Seema_Shokoufeh_Track2"	"Dec 01, 2016 10:55:23 AM"	Unknown	73.98481	11/01/0116 10:56.40	00004439	8.650	Inter749t65-0	1.422	1	1	294.580	11.111	-177.0	0.219	0.000	D	F	1876.1	283.871	0.185	0.537	1487.866	1503.420	0.024	L	-4.191	1.115	-	-	-	-	-	-	-	PAVEMENT_GENERAL	Urban	F	1011101000111101	0000000000000000	-	-	-	-	-	-	-	-	-	-	Terminate	
"Student17Mode1"	"Seema_Shokoufeh_Track2"	"Dec 01, 2016 10:55:23 AM"	Unknown	74.98483	11/01/0116 10:56.41	00004499	9.967	Inter749t3-3	0.079	1	2	270.000	11.111	-1.8	0.257	0.000	D	F	1996.9	266.535	0.206	-0.003	1478.587	1503.609	0.020	-	-0.244	1.306	-	-	-	-	-	-	-	PAVEMENT_GENERAL	Urban	F	1011101000011101	0000000000000000	-	-	-	-	-	-	-	-	-	-	Terminate	
"Student17Mode1"	"Seema_Shokoufeh_Track2"	"Dec 01, 2016 10:55:23 AM"	Unknown	75.98486	11/01/0116 10:56.42	00004559	11.251	Inter749t3-3	-0.316	1	2	270.000	11.111	15.0	0.268	0.000	D	F	2116.2	269.482	0.211	-0.067	1467.982	1503.215	0.020	-	0.568	1.272	-	-	-	-	-	-	-	PAVEMENT_GENERAL	Urban	F	1011101000011101	0000000000000000	-	-	-	-	-	-	-	-	-	-	Terminate	
"Student17Mode1"	"Seema_Shokoufeh_Track2"	"Dec 01, 2016 10:55:23 AM"	Unknown	76.98487	11/01/0116 10:56.43	00004619	12.411	Inter749t19-0	-0.188	1	1	270.096	11.111	-1.0	0.303	0.000	D	F	2265.0	271.315	0.206	-0.004	1456.166	1503.355	0.020	-	0.040	1.242	-	-	-	-	-	-	-	PAVEMENT_GENERAL	Urban	F	1011101000011101	0000000000000000	-	-	-	-	-	-	-	-	-	-	Terminate	
"Student17Mode1"	"Seema_Shokoufeh_Track2"	"Dec 01, 2016 10:55:23 AM"	Unknown	77.98489	11/01/0116 10:56.44	00004679	13.673	Inter749t19-0	0.059	1	1	270.090	11.111	0.1	0.319	0.000	D	F	2436.9	271.058	0.210	-0.005	1443.125	1503.622	0.021	-	-0.007	1.275	-	-	-	-	-	-	-	PAVEMENT_GENERAL	Urban	F	1011101000011101	0000000000000000	-	-	-	-	-	-	-	-	-	-	Terminate	
"Student17Mode1"	"Seema_Shokoufeh_Track2"	"Dec 01, 2016 10:55:23 AM"	Unknown	78.98492	11/01/0116 10:56.45	00004739	14.974	Inter749t19-0	0.253	1	1	270.061	11.111	-2.2	0.330	0.000	D	F	2606.6	270.549	0.207	0.017	1428.803	1503.840	0.020	-	-0.145	1.284	-	-	-	-	-	-	-	PAVEMENT_GENERAL	Urban	F	1011101000011101	0000000000000000	-	-	-	-	-	-	-	-	-	-	Terminate	
"Student17Mode1"	"Seema_Shokoufeh_Track2"	"Dec 01, 2016 10:55:23 AM"	Unknown	79.98493	11/01/0116 10:56.46	00004799	16.265	Inter749t1-2	0.330	1	2	270.000	11.111	-4.8	0.342	0.000	D	F	2801.0	269.889	0.206	0.037	1413.182	1503.930	0.021	-	-0.284	1.282	-	-	-	-	-	-	-	PAVEMENT_GENERAL	Urban	F	1011101000011101	0000000000000000	-	-	-	-	-	-	-	-	-	-	Terminate	
"Student17Mode1"	"Seema_Shokoufeh_Track2"	"Dec 01, 2016 10:55:23 AM"	Unknown	80.98495	11/01/0116 10:56.47	00004859	17.520	Inter747t1-2	0.207	1	2	270.000	11.111	0.5	0.337	0.000	D	F	2978.2	269.431	0.203	0.001	1396.285	1503.813	0.021	-	-0.010	1.225	-	-	-	-	-	-	-	PAVEMENT_GENERAL	Urban	F	1011101000011101	0000000000000000	-	-	-	-	-	-	-	-	-	-	Terminate	
"Student17Mode1"	"Seema_Shokoufeh_Track2"	"Dec 01, 2016 10:55:23 AM"	Unknown	81.98497	11/01/0116 10:56.48	00004919	18.717	Inter747t1-2	0.058	1	2	270.000	11.111	1.1	0.335	0.000	D	F	3143.1	269.680	0.201	-0.010	1378.163	1503.665	0.021	-	0.083	1.172	-	-	-	-	-	-	-	PAVEMENT_GENERAL	Urban	F	1011101000011101	0000000000000000	-	-	-	-	-	-	-	-	-	-	Terminate	
"Student17Mode1"	"Seema_Shokoufeh_Track2"	"Dec 01, 2016 10:55:23 AM"	Unknown	82.98499	11/01/0116 10:56.49	00004979	19.346	Inter747t1-2	-0.024	1	2	270.000	11.111	0.6	0.000	0.000	D	F	1570.1	269.855	0.168	-0.007	1358.957	1503.583	0.028	-	0.052	-0.548	-	-	-	-	-	-	-	PAVEMENT_GENERAL	Urban	F	1011101000011101	0000000000000000	-	-	-	-	-	-	-	-	-	-	Terminate	
"Student17Mode1"	"Seema_Shokoufeh_Track2"	"Dec 01, 2016 10:55:23 AM"	Unknown	83.98502	11/01/0116 10:56.50	00005039	19.036	Inter747t1-2	-0.050	1	2	270.000	11.111	0.4	0.143	0.000	D	F	1644.3	270.001	0.189	-0.004	1339.820	1503.556	0.027	-	0.034	-0.037	-	-	-	-	-	-	-	PAVEMENT_GENERAL	Urban	F	1011101000011101	0000000000000000	-	-	-	-	-	-	-	-	-	-	Terminate	
"Student17Mode1"	"Seema_Shokoufeh_Track2"	"Dec 01, 2016 10:55:23 AM"	Unknown	84.98503	11/01/0116 10:56.51	00005099	19.136	Inter747t1-2	-0.046	1	2	270.000	11.111	0.1	0.190	0.000	D	F	1774.6	270.028	0.190	-0.001	1320.746	1503.561	0.026	-	0.005	0.152	-	-	-	-	-	-	-	PAVEMENT_GENERAL	Urban	F	1011101000011101	0000000000000000	-	-	-	-	-	-	-	-	-	-	Terminate	
"Student17Mode1"	"Seema_Shokoufeh_Track2"	"Dec 01, 2016 10:55:23 AM"	Unknown	85.98505	11/01/0116 10:56.52	00005159	19.335	Inter747t1-2	-0.039	1	2	270.000	11.111	-0.2	0.196	0.000	D	F	1807.1	269.992	0.190	0.003	1301.513	1503.568	0.026	-	-0.020	0.195	-	-	-	-	-	-	-	PAVEMENT_GENERAL	Urban	F	1011101000011101	0000000000000000	-	-	-	-	-	-	-	-	-	-	Terminate	
"Student17Mode1"	"Seema_Shokoufeh_Track2"	"Dec 01, 2016 10:55:23 AM"	Unknown	86.98507	11/01/0116 10:56.53	00005219	19.538	Inter747t1-2	-0.044	1	2	270.000	11.111	-0.9	0.208	0.000	D	F	1843.5	269.977	0.192	0.006	1282.080	1503.563	0.026	-	-0.031	0.253	-	-	-	-	-	-	-	PAVEMENT_GENERAL	Urban	F	1011101000011101	0000000000000000	-	-	-	-	-	-	-	-	-	-	Terminate	
"Student17Mode1"	"Seema_Shokoufeh_Track2"	"Dec 01, 2016 10:55:23 AM"	Unknown	87.98509	11/01/0116 10:56.54	00005279	19.703	Inter747t1-2	-0.068	1	2	270.000	11.111	0.0	0.189	0.000	D	F	1793.5	269.891	0.190	0.000	1262.448	1503.538	0.026	-	-0.006	0.133	-	-	-	-	-	-	-	PAVEMENT_GENERAL	Urban	F	1011101000011101	0000000000000000	-	-	-	-	-	-	-	-	-	-	Terminate	
"Student17Mode1"	"Seema_Shokoufeh_Track2"	"Dec 01, 2016 10:55:23 AM"	Unknown	88.98512	11/01/0116 10:56.55	00005339	19.846	Inter747t1-2	-0.105	1	2	270.000	11.111	-0.1	0.190	0.000	D	F	1808.0	269.893	0.189	0.000	1242.674	1503.502	0.026	-	-0.002	0.145	-	-	-	-	-	-	-	PAVEMENT_GENERAL	Urban	F	1011101000011101	0000000000000000	-	-	-	-	-	-	-	-	-	-	Terminate	
"Student17Mode1"	"Seema_Shokoufeh_Track2"	"Dec 01, 2016 10:55:23 AM"	Unknown	89.98513	11/01/0116 10:56.56	00005399	19.996	Inter747t1-2	-0.144	1	2	270.000	11.111	0.1	0.194	0.000	D	F	1813.8	269.890	0.189	-0.001	1222.753	1503.463	0.026	-	0.004	0.148	-	-	-	-	-	-	-	PAVEMENT_GENERAL	Urban	F	1011101000011101	0000000000000000	-	-	-	-	-	-	-	-	-	-	Terminate	
"Student17Mode1"	"Seema_Shokoufeh_Track2"	"Dec 01, 2016 10:55:23 AM"	Unknown	90.98515	11/01/0116 10:56.57	00005459	20.149	Inter747t1-2	-0.179	1	2	270.000	11.111	0.2	0.198	0.000	D	F	1829.5	269.915	0.189	-0.001	1202.682	1503.428	0.026	-	0.010	0.160	-	-	-	-	-	-	-	PAVEMENT_GENERAL	Urban	F	1011101000011101	0000000000000000	-	-	-	-	-	-	-	-	-	-	Terminate	
"Student17Mode1"	"Seema_Shokoufeh_Track2"	"Dec 01, 2016 10:55:23 AM"	Unknown	91.98518	11/01/0116 10:56.58	00005519	20.295	Inter748t1-2	-0.203	1	2	270.000	11.111	0.3	0.192	0.000	D	F	1820.4	269.962	0.188	-0.003	1182.457	1503.404	0.026	-	0.021	0.132	-	-	-	-	-	-	-	PAVEMENT_GENERAL	Urban	F	1011101000011101	0000000000000000	-	-	-	-	-	-	-	-	-	-	Terminate	
"Student17Mode1"	"Seema_Shokoufeh_Track2"	"Dec 01, 2016 10:55:23 AM"	Unknown	92.98519	11/01/0116 10:56.59	00005579	20.449	Inter748t1-2	-0.205	1	2	270.000	11.111	0.1	0.198	0.000	D	F	1844.0	270.043	0.188	-0.002	1162.089	1503.402	0.026	-	0.018	0.165	-	-	-	-	-	-	-	PAVEMENT_GENERAL	Urban	F	1011101000011101	0000000000000000	-	-	-	-	-	-	-	-	-	-	Terminate	
"Student17Mode1"	"Seema_Shokoufeh_Track2"	"Dec 01, 2016 10:55:23 AM"	Unknown	93.98521	11/01/0116 10:57.00	00005639	20.589	Inter748t1-2	-0.190	1	2	270.000	11.111	0.4	0.194	0.000	D	F	1835.0	270.069	0.187	-0.004	1141.568	1503.417	0.026	-	0.026	0.127	-	-	-	-	-	-	-	PAVEMENT_GENERAL	Urban	F	1111101000011101	0000000000000000	-	-	-	-	-	-	-	-	-	-	Terminate	
"Student17Mode1"	"Seema_Shokoufeh_Track2"	"Dec 01, 2016 10:55:23 AM"	Unknown	94.98523	11/01/0116 10:57.01	00005699	20.724	Inter748t1-2	-0.156	1	2	270.000	11.111	-0.0	0.192	0.000	D	F	1838.9	270.132	0.188	-0.003	1120.912	1503.451	0.026	-	0.014	0.142	-	-	-	-	-	-	-	PAVEMENT_GENERAL	Urban	F	1011101000011101	0000000000000000	-	-	-	-	-	-	-	-	-	-	Terminate	
"Student17Mode1"	"Seema_Shokoufeh_Track2"	"Dec 01, 2016 10:55:23 AM"	Unknown	95.98525	11/01/0116 10:57.02	00005759	20.864	Inter748t1-2	-0.102	1	2	270.000	11.111	0.0	0.201	0.000	D	F	1864.5	270.187	0.187	-0.002	1100.120	1503.505	0.026	-	0.015	0.152	-	-	-	-	-	-	-	PAVEMENT_GENERAL	Urban	F	1011101000011101	0000000000000000	-	-	-	-	-	-	-	-	-	-	Terminate	
"Student17Mode1"	"Seema_Shokoufeh_Track2"	"Dec 01, 2016 10:55:23 AM"	Unknown	96.98528	11/01/0116 10:57.03	00005819	21.052	Inter748t1-2	-0.038	1	2	270.000	11.111	-0.1	0.215	0.000	D	F	1911.4	270.160	0.189	0.001	1079.167	1503.569	0.026	-	-0.010	0.215	-	-	-	-	-	-	-	PAVEMENT_GENERAL	Urban	F	1011101000011101	0000000000000000	-	-	-	-	-	-	-	-	-	-	Terminate	
"Student17Mode1"	"Seema_Shokoufeh_Track2"	"Dec 01, 2016 10:55:23 AM"	Unknown	97.98529	11/01/0116 10:57.04	00005879	21.222	Inter748t1-2	0.018	1	2	270.000	11.111	-0.1	0.210	0.000	D	F	1891.3	270.134	0.187	0.001	1058.026	1503.625	0.026	-	-0.007	0.165	-	-	-	-	-	-	-	PAVEMENT_GENERAL	Urban	F	1011101000011101	0000000000000000	-	-	-	-	-	-	-	-	-	-	Terminate	
"Student17Mode1"	"Seema_Shokoufeh_Track2"	"Dec 01, 2016 10:55:23 AM"	Unknown	98.98531	11/01/0116 10:57.05	00005939	21.419	Inter748t1-2	0.065	1	2	270.000	11.111	-0.0	0.228	0.000	D	F	1940.5	270.105	0.187	0.001	1036.712	1503.671	0.026	-	-0.010	0.226	-	-	-	-	-	-	-	PAVEMENT_GENERAL	Urban	F	1011101000011101	0000000000000000	-	-	-	-	-	-	-	-	-	-	Terminate	
"Student17Mode1"	"Seema_Shokoufeh_Track2"	"Dec 01, 2016 10:55:23 AM"	Unknown	99.98534	11/01/0116 10:57.06	00005999	21.652	Inter748t1-2	0.104	1	2	270.000	11.111	-0.3	0.238	0.000	D	F	1956.8	270.089	0.187	0.002	1015.177	1503.711	0.026	-	-0.015	0.233	-	-	-	-	-	-	-	PAVEMENT_GENERAL	Urban	F	1011101000011101	0000000000000000	-	-	-	-	-	-	-	-	-	-	Terminate	
"Student17Mode1"	"Seema_Shokoufeh_Track2"	"Dec 01, 2016 10:55:23 AM"	Unknown	100.98535	11/01/0116 10:57.07	00006059	21.877	Inter752t1-2	-0.566	1	2	269.962	24.444	-1.5	0.240	0.000	D	F	1964.2	269.947	0.692	-0.119	993.405	1503.730	0.056	-	-0.112	0.222	-	-	-	-	-	-	-	FREEWAY_SMOOTH	Urban	F	1011101000011101	0000000000000000	-	-	-	-	-	-	-	-	-	-	Terminate	
"Student17Mode1"	"Seema_Shokoufeh_Track2"	"Dec 01, 2016 10:55:23 AM"	Unknown	101.98537	11/01/0116 10:57.08	00006119	22.122	Inter752t1-2	-0.598	1	2	269.365	24.444	-5.1	0.243	0.000	D	F	1975.8	269.062	0.276	-0.611	971.410	1503.598	0.066	-	-0.474	0.266	-	-	-	-	-	-	-	FREEWAY_SMOOTH	Urban	F	1111101000011101	0000000000000000	-	-	-	-	-	-	-	-	-	-	Terminate	
"Student17Mode1"	"Seema_Shokoufeh_Track2"	"Dec 01, 2016 10:55:23 AM"	Unknown	102.98539	11/01/0116 10:57.09	00006179	22.395	Inter752t1-2	-0.666	1	2	267.852	24.444	-8.2	0.247	0.000	D	F	1987.1	267.579	0.268	-1.133	949.159	1503.005	0.100	-	-0.713	0.262	-	-	-	-	-	-	-	FREEWAY_SMOOTH	Urban	F	1011101000011101	0000000000000000	-	-	-	-	-	-	-	-	-	-	Terminate	
"Student17Mode1"	"Seema_Shokoufeh_Track2"	"Dec 01, 2016 10:55:23 AM"	Unknown	103.98541	11/01/0116 10:57.10	00006239	22.649	Inter752t1-2	-0.731	1	2	265.419	24.444	-13.1	0.247	0.000	D	F	1993.2	264.714	0.253	-1.614	926.679	1501.627	0.133	-	-1.349	0.254	-	-	-	-	-	-	-	FREEWAY_SMOOTH	Urban	F	1011101000011101	0000000000000000	-	-	-	-	-	-	-	-	-	-	Terminate	
"Student17Mode1"	"Seema_Shokoufeh_Track2"	"Dec 01, 2016 10:55:23 AM"	Unknown	104.98544	11/01/0116 10:57.11	00006299	22.892	Inter752t1-2	-0.912	1	2	262.044	24.444	-13.4	0.243	0.000	D	F	1997.3	261.245	0.234	-2.168	904.065	1498.961	0.160	-	-1.438	0.239	-	-	-	-	-	-	-	FREEWAY_SMOOTH	Urban	F	1011101000011101	0000000000000000	-	-	-	-	-	-	-	-	-	-	Terminate	
"Student17Mode1"	"Seema_Shokoufeh_Track2"	"Dec 01, 2016 10:55:23 AM"	Unknown	105.98545	11/01/0116 10:57.12	00006359	23.080	Inter752t1-2	-1.006	1	2	257.707	24.444	-15.1	0.196	0.000	D	F	1917.4	257.298	0.242	-2.704	881.445	1494.817	0.189	-	-1.698	0.093	-	-	-	-	-	-	-	FREEWAY_SMOOTH	Urban	F	1011101000011101	0000000000000000	-	-	-	-	-	-	-	-	-	-	Terminate	
"Student17Mode1"	"Seema_Shokoufeh_Track2"	"Dec 01, 2016 10:55:23 AM"	Unknown	106.98547	11/01/0116 10:57.13	00006419	23.073	Inter752t1-2	-0.927	1	2	252.421	24.444	-19.0	0.182	0.000	D	F	1885.0	251.978	0.237	-3.192	859.128	1488.927	0.227	-	-2.329	0.022	-	-	-	-	-	-	-	FREEWAY_SMOOTH	Urban	F	1011101000011101	0000000000000000	-	-	-	-	-	-	-	-	-	-	Terminate	
"Student17Mode1"	"Seema_Shokoufeh_Track2"	"Dec 01, 2016 10:55:23 AM"	Unknown	107.98550	11/01/0116 10:57.14	00006479	23.051	Inter752t1-2	-0.826	1	2	246.634	24.444	-19.3	0.199	0.000	D	F	1930.4	246.326	0.160	-3.214	837.515	1480.907	0.236	-	-2.266	0.055	-	-	-	-	-	-	-	FREEWAY_SMOOTH	Urban	F	1011101000011101	0000000000000000	-	-	-	-	-	-	-	-	-	-	Terminate	
"Student17Mode1"	"Seema_Shokoufeh_Track2"	"Dec 01, 2016 10:55:23 AM"	Unknown	108.98551	11/01/0116 10:57.15	00006539	23.090	Inter752t1-2	-0.669	1	2	240.856	24.444	-19.2	0.208	0.000	D	F	1947.4	240.751	0.175	-3.223	816.786	1470.797	0.246	-	-2.223	0.082	-	-	-	-	-	-	-	FREEWAY_SMOOTH	Urban	F	1011101000011101	0000000000000000	-	-	-	-	-	-	-	-	-	-	Terminate	
"Student17Mode1"	"Seema_Shokoufeh_Track2"	"Dec 01, 2016 10:55:23 AM"	Unknown	109.98553	11/01/0116 10:57.16	00006599	23.118	Inter752t1-2	-0.449	1	2	235.072	24.444	-19.9	0.201	0.000	D	F	1931.5	234.950	0.172	-3.204	797.118	1458.681	0.259	-	-2.348	0.045	-	-	-	-	-	-	-	FREEWAY_SMOOTH	Urban	F	1011101000011101	0000000000000000	-	-	-	-	-	-	-	-	-	-	Terminate	
"Student17Mode1"	"Seema_Shokoufeh_Track2"	"Dec 01, 2016 10:55:23 AM"	Unknown	110.98555	11/01/0116 10:57.17	00006659	23.153	Inter752t1-2	-0.221	1	2	229.291	24.444	-18.6	0.203	0.000	D	F	1943.8	229.314	0.182	-3.219	778.745	1444.632	0.272	-	-2.224	0.063	-	-	-	-	-	-	-	FREEWAY_SMOOTH	Urban	F	1011101000011101	0000000000000000	-	-	-	-	-	-	-	-	-	-	Terminate	
"Student17Mode1"	"Seema_Shokoufeh_Track2"	"Dec 01, 2016 10:55:23 AM"	Unknown	111.98557	11/01/0116 10:57.18	00006719	23.171	Inter752t1-2	0.057	1	2	223.528	24.444	-20.5	0.199	0.000	D	F	1928.5	223.403	0.173	-3.193	761.827	1428.818	0.290	-	-2.443	0.039	-	-	-	-	-	-	-	FREEWAY_SMOOTH	Urban	F	1011101000011101	0000000000000000	-	-	-	-	-	-	-	-	-	-	Terminate	
"Student17Mode1"	"Seema_Shokoufeh_Track2"	"Dec 01, 2016 10:55:23 AM"	Unknown	112.98560	11/01/0116 10:57.19	00006779	23.174	Inter752t1-2	0.228	1	2	217.704	24.444	-24.4	0.196	0.000	D	F	1928.2	217.088	0.140	-3.154	746.667	1411.302	0.300	-	-2.695	0.040	-	-	-	-	-	-	-	FREEWAY_SMOOTH	Urban	F	1011101000011101	0000000000000000	-	-	-	-	-	-	-	-	-	-	Terminate	
"Student17Mode1"	"Seema_Shokoufeh_Track2"	"Dec 01, 2016 10:55:23 AM"	Unknown	113.98561	11/01/0116 10:57.20	00006839	22.691	Inter752t1-2	0.013	1	2	212.027	24.444	-23.6	0.102	0.000	D	F	1718.5	209.704	0.030	-3.127	733.786	1392.319	0.289	-	-2.923	-0.317	-	-	-	-	-	-	-	FREEWAY_SMOOTH	Urban	F	1011101000011101	0000000000000000	-	-	-	-	-	-	-	-	-	-	Terminate	
"Student17Mode1"	"Seema_Shokoufeh_Track2"	"Dec 01, 2016 10:55:23 AM"	Unknown	114.98563	11/01/0116 10:57.21	00006899	22.441	Inter752t1-2	-0.776	1	2	206.329	24.444	-19.4	0.122	0.000	D	F	1741.0	203.241	-0.011	-3.196	723.548	1372.228	0.241	-	-2.378	-0.183	-	-	-	-	-	-	-	FREEWAY_SMOOTH	Urban	F	1011101000011101	0000000000000000	-	-	-	-	-	-	-	-	-	-	Terminate	
"Student17Mode1"	"Seema_Shokoufeh_Track2"	"Dec 01, 2016 10:55:23 AM"	Unknown	115.98566	11/01/0116 10:57.22	00006959	22.296	Inter752t1-2	-1.695	1	2	200.700	24.444	-13.4	0.171	0.000	D	F	1827.7	198.278	0.034	-3.280	715.531	1351.371	0.184	-	-1.705	-0.018	-	-	-	-	-	-	-	FREEWAY_SMOOTH	Urban	F	1011101000011101	0000000000000000	-	-	-	-	-	-	-	-	-	-	Terminate	
"Student17Mode1"	"Seema_Shokoufeh_Track2"	"Dec 01, 2016 10:55:23 AM"	Unknown	116.98567	11/01/0116 10:57.23	00007019	22.305	-	-	CL	0	-	-	-11.0	0.215	0.000	D	F	1946.7	194.762	0.112	-3.067	709.147	1330.011	0.148	-	-1.250	0.072	-	-	-	-	-	-	-	FREEWAY_SMOOTH	Urban	F	1011101000011101	0000000000000000	-	-	-	-	-	-	-	-	-	-	Terminate	
"Student17Mode1"	"Seema_Shokoufeh_Track2"	"Dec 01, 2016 10:55:23 AM"	Unknown	117.98569	11/01/0116 10:57.24	00007079	22.434	-	-	CL	0	-	-	-14.0	0.224	0.000	D	F	1967.0	191.581	0.178	-2.502	703.989	1308.247	0.140	-	-1.324	0.119	-	-	-	-	-	-	-	FREEWAY_SMOOTH	Urban	F	1011101000011101	0000000000000000	-	-	-	-	-	-	-	-	-	-	Terminate	
"Student17Mode1"	"Seema_Shokoufeh_Track2"	"Dec 01, 2016 10:55:23 AM"	Unknown	118.98571	11/01/0116 10:57.25	00007139	22.552	Inter752t1-2	-1.258	1	2	186.535	24.444	-14.4	0.233	0.000	D	F	1978.8	187.544	0.146	-1.916	700.138	1286.091	0.139	-	-1.543	0.134	-	-	-	-	-	-	-	FREEWAY_SMOOTH	Urban	F	1011101000011101	0000000000000000	-	-	-	-	-	-	-	-	-	-	Terminate	
"Student17Mode1"	"Seema_Shokoufeh_Track2"	"Dec 01, 2016 10:55:23 AM"	Unknown	119.98573	11/01/0116 10:57.26	00007199	22.660	Inter752t1-2	-0.845	1	2	183.536	24.444	-13.1	0.240	0.000	D	F	1989.7	183.605	0.096	-1.363	697.801	1263.611	0.121	-	-1.475	0.138	-	-	-	-	-	-	-	FREEWAY_SMOOTH	Urban	F	1011101000011101	0000000000000000	-	-	-	-	-	-	-	-	-	-	Terminate	
"Student17Mode1"	"Seema_Shokoufeh_Track2"	"Dec 01, 2016 10:55:23 AM"	Unknown	120.98576	11/01/0116 10:57.27	00007259	22.783	Inter752t1-2	-0.831	1	2	181.433	24.444	-4.2	0.228	0.000	D	F	1980.8	180.978	0.087	-0.911	696.851	1240.910	0.087	-	-0.630	0.118	-	-	-	-	-	-	-	FREEWAY_SMOOTH	Urban	F	1011101000011101	0000000000000000	-	-	-	-	-	-	-	-	-	-	Terminate	
"Student17Mode1"	"Seema_Shokoufeh_Track2"	"Dec 01, 2016 10:55:23 AM"	Unknown	121.98577	11/01/0116 10:57.28	00007319	22.898	Inter752t1-2	-0.821	1	2	180.261	24.444	-0.5	0.233	0.000	D	F	1990.1	180.533	0.101	-0.406	696.545	1218.072	0.053	-	-0.116	0.123	-	-	-	-	-	-	-	FREEWAY_SMOOTH	Urban	F	1011101000011101	0000000000000000	-	-	-	-	-	-	-	-	-	-	Terminate	
"Student17Mode1"	"Seema_Shokoufeh_Track2"	"Dec 01, 2016 10:55:23 AM"	Unknown	122.98579	11/01/0116 10:57.29	00007379	23.031	Inter754t3-2	0.015	1	2	180.000	11.111	-4.9	0.238	0.000	D	F	1996.8	180.124	0.208	0.038	696.378	1195.110	0.025	-	-0.310	0.170	-	-	-	Ambient329	-0.128	-2.948	-0.239	PAVEMENT_GENERAL	Urban	F	1011101000011101	0000000000000000	-	-	-	-	-	-	-	-	-	-	Terminate	
"Student17Mode1"	"Seema_Shokoufeh_Track2"	"Dec 01, 2016 10:55:23 AM"	Unknown	123.98581	11/01/0116 10:57.30	00007439	23.038	Inter754t3-2	-0.024	1	2	180.000	11.111	0.3	0.000	0.000	D	F	1565.0	179.725	0.152	-0.000	696.417	1172.014	0.028	-	-0.021	-0.673	-	-	-	Ambient329	7.148	164.664	13.356	PAVEMENT_GENERAL	Urban	F	1011101000011101	0000000000000000	-	-	-	-	-	-	-	-	-	-	Terminate	
"Student17Mode1"	"Seema_Shokoufeh_Track2"	"Dec 01, 2016 10:55:23 AM"	Unknown	124.98583	11/01/0116 10:57.31	00007499	22.390	Inter754t3-2	-0.175	1	2	180.000	11.111	-2.5	0.000	0.000	D	F	1526.6	179.263	0.176	0.039	696.568	1149.301	0.030	-	-0.277	-0.643	-	-	-	Ambient329	6.818	152.659	13.069	PAVEMENT_GENERAL	Urban	F	1111101000011101	0000000000000000	-	-	-	-	-	-	-	-	-	-	Terminate	
"Student17Mode1"	"Seema_Shokoufeh_Track2"	"Dec 01, 2016 10:55:23 AM"	Unknown	125.98586	11/01/0116 10:57.32	00007559	22.220	Inter754t3-2	-0.559	1	2	180.000	11.111	-1.1	0.224	0.000	D	F	1960.9	178.827	0.189	0.005	696.953	1127.075	0.026	-	-0.027	0.190	-	-	-	Ambient329	6.352	141.141	12.261	PAVEMENT_GENERAL	Urban	F	1011101000011101	0000000000000000	-	-	-	-	-	-	-	-	-	-	Terminate	
"Student17Mode1"	"Seema_Shokoufeh_Track2"	"Dec 01, 2016 10:55:23 AM"	Unknown	126.98587	11/01/0116 10:57.33	00007619	22.517	Inter754t3-2	-1.056	1	2	180.000	11.111	-0.7	0.340	0.000	D	F	2083.5	178.546	0.188	0.013	697.450	1104.728	0.025	-	-0.091	0.375	-	-	-	Ambient350	0.320	7.200	0.657	PAVEMENT_GENERAL	Urban	F	1011101000011101	0000000000000000	-	-	-	-	-	-	-	-	-	-	Terminate	
"Student17Mode1"	"Seema_Shokoufeh_Track2"	"Dec 01, 2016 10:55:23 AM"	Unknown	127.98589	11/01/0116 10:57.34	00007679	22.889	Inter754t9-0	-1.575	1	1	179.990	11.111	4.6	0.344	0.000	D	F	2098.1	179.128	0.185	-0.048	697.970	1082.030	0.025	-	0.363	0.366	-	-	-	Ambient350	-0.172	-3.934	-0.347	PAVEMENT_GENERAL	Urban	F	1011101000011101	0000000000000000	-	-	-	-	-	-	-	-	-	-	Terminate	
"Student17Mode1"	"Seema_Shokoufeh_Track2"	"Dec 01, 2016 10:55:23 AM"	Unknown	128.98592	11/01/0116 10:57.35	00007739	23.237	Inter754t9-0	-1.763	1	1	179.990	11.111	5.9	0.310	0.000	D	F	2080.3	180.283	0.183	-0.066	698.162	1058.964	0.025	-	0.506	0.302	-	-	-	Ambient329	4.525	105.154	8.393	PAVEMENT_GENERAL	Urban	F	1011101000011101	0000000000000000	-	-	-	-	-	-	-	-	-	-	Terminate	
"Student17Mode1"	"Seema_Shokoufeh_Track2"	"Dec 01, 2016 10:55:23 AM"	Unknown	129.98593	11/01/0116 10:57.36	00007799	23.453	Inter754t9-0	-1.478	1	1	179.996	11.111	0.5	0.208	0.000	D	F	1957.8	181.284	0.179	-0.022	697.881	1035.601	0.026	-	0.213	0.073	-	-	-	Ambient329	3.843	90.139	7.073	PAVEMENT_GENERAL	Urban	F	1111101000011101	0000000000000000	-	-	-	-	-	-	-	-	-	-	Terminate	
"Student17Mode1"	"Seema_Shokoufeh_Track2"	"Dec 01, 2016 10:55:23 AM"	Unknown	130.98595	11/01/0116 10:57.37	00007859	23.525	Inter754t1-1	-0.998	1	1	180.000	11.111	-3.2	0.187	0.000	D	F	1915.0	180.870	0.180	0.036	697.402	1012.112	0.027	-	-0.272	0.007	-	-	-	Ambient329	3.389	79.718	6.220	PAVEMENT_GENERAL	Urban	F	1011101000011101	0000000000000000	-	-	-	-	-	-	-	-	-	-	Terminate	
"Student17Mode1"	"Seema_Shokoufeh_Track2"	"Dec 01, 2016 10:55:23 AM"	Unknown	131.98598	11/01/0116 10:57.38	00007919	23.086	Inter686t1-0	-0.758	1	1	180.000	11.111	-2.6	0.000	0.000	D	F	1574.0	180.072	0.173	0.047	697.154	988.740	0.030	-	-0.350	-0.655	-	-	-	Ambient329	2.905	67.054	5.417	PAVEMENT_GENERAL	Urban	F	1011101000011101	0000000000000000	-	-	-	-	-	-	-	-	-	-	Terminate	
"Student17Mode1"	"Seema_Shokoufeh_Track2"	"Dec 01, 2016 10:55:23 AM"	Unknown	132.98599	11/01/0116 10:57.39	00007979	22.436	Inter686t1-0	-0.816	1	1	180.000	11.111	-0.3	0.000	0.000	D	F	1529.8	179.549	0.176	0.016	697.212	965.980	0.030	-	-0.113	-0.644	-	-	-	Ambient329	2.451	55.002	4.690	PAVEMENT_GENERAL	Urban	F	1011101000011101	0000000000000000	-	-	-	-	-	-	-	-	-	-	Terminate	
"Student17Mode1"	"Seema_Shokoufeh_Track2"	"Dec 01, 2016 10:55:23 AM"	Unknown	133.98601	11/01/0116 10:57.40	00008039	21.798	Inter686t1-0	-0.939	1	1	180.000	11.111	2.4	0.000	0.000	D	F	1486.2	180.019	0.177	-0.034	697.335	943.864	0.030	-	0.263	-0.633	-	-	-	Ambient329	2.000	43.594	3.931	PAVEMENT_GENERAL	Urban	F	1011101000011101	0000000000000000	-	-	-	-	-	-	-	-	-	-	Terminate	
"Student17Mode1"	"Seema_Shokoufeh_Track2"	"Dec 01, 2016 10:55:23 AM"	Unknown	134.98604	11/01/0116 10:57.41	00008099	19.891	Inter686t1-0	-0.867	1	1	180.000	11.111	0.4	0.000	0.188	D	F	1320.2	180.438	0.135	-0.009	697.263	922.725	0.035	-	0.088	-3.069	-	-	-	Ambient329	1.667	33.163	3.612	PAVEMENT_GENERAL	Urban	F	1011101000011101	0000000000000000	-	-	-	-	-	-	-	-	-	-	Terminate	
"Student17Mode1"	"Seema_Shokoufeh_Track2"	"Dec 01, 2016 10:55:23 AM"	Unknown	135.98605	11/01/0116 10:57.42	00008159	16.766	Inter686t1-0	-0.728	1	1	180.000	11.111	-0.6	0.000	0.182	D	F	1114.6	180.417	0.149	0.003	697.124	904.403	0.035	-	-0.037	-2.917	-	-	-	Ambient329	1.524	25.549	4.218	PAVEMENT_GENERAL	Urban	F	1011101000011101	0000000000000000	-	-	-	-	-	-	-	-	-	-	Terminate	
"Student17Mode1"	"Seema_Shokoufeh_Track2"	"Dec 01, 2016 10:55:23 AM"	Unknown	136.98607	11/01/0116 10:57.43	00008219	14.731	Inter686t1-0	-0.631	1	1	180.000	11.111	-0.8	0.000	0.107	D	F	990.0	180.251	0.165	0.006	697.027	888.705	0.032	-	-0.048	-1.849	-	-	-	Ambient329	1.396	20.559	5.111	PAVEMENT_GENERAL	Urban	F	1011101000011101	0000000000000000	-	-	-	-	-	-	-	-	-	-	Terminate	
"Student17Mode1"	"Seema_Shokoufeh_Track2"	"Dec 01, 2016 10:55:23 AM"	Unknown	137.98610	11/01/0116 10:57.44	00008279	13.257	Inter686t1-0	-0.590	1	1	180.000	11.111	-0.8	0.000	0.063	D	F	896.8	180.056	0.180	0.006	696.986	874.768	0.031	-	-0.046	-1.270	-	-	-	Ambient329	1.307	17.330	6.802	PAVEMENT_GENERAL	Urban	F	1011101000011101	0000000000000000	-	-	-	-	-	-	-	-	-	-	Terminate	
"Student17Mode1"	"Seema_Shokoufeh_Track2"	"Dec 01, 2016 10:55:23 AM"	Unknown	138.98611	11/01/0116 10:57.45	00008339	12.537	Inter686t1-0	-0.587	1	1	180.000	11.111	-0.3	0.000	0.000	D	F	1211.1	179.970	0.192	0.002	696.984	861.921	0.029	-	-0.015	-0.540	-	-	-	Ambient329	1.212	15.191	8.307	PAVEMENT_GENERAL	Urban	F	1011101000011101	0000000000000000	-	-	-	-	-	-	-	-	-	-	Terminate	
"Student17Mode1"	"Seema_Shokoufeh_Track2"	"Dec 01, 2016 10:55:23 AM"	Unknown	139.98613	11/01/0116 10:57.46	00008399	11.991	Inter686t1-0	-0.600	1	1	180.000	11.111	-0.2	0.000	0.000	D	F	1177.5	179.910	0.195	0.001	696.997	849.654	0.029	-	-0.010	-0.527	-	-	-	Ambient329	1.137	13.632	10.633	PAVEMENT_GENERAL	Urban	F	1011101000011101	0000000000000000	-	-	-	-	-	-	-	-	-	-	Terminate	
"Student17Mode1"	"Seema_Shokoufeh_Track2"	"Dec 01, 2016 10:55:23 AM"	Unknown	140.98616	11/01/0116 10:57.47	00008459	11.467	Inter686t1-0	-0.621	1	1	180.000	11.111	-0.1	0.000	0.000	D	F	1126.6	179.885	0.194	0.001	697.017	837.926	0.029	-	-0.007	-0.520	-	-	-	Ambient329	1.100	12.612	16.636	PAVEMENT_GENERAL	Urban	F	1011101000011101	0000000000000000	-	-	-	-	-	-	-	-	-	-	Terminate	
"Student17Mode1"	"Seema_Shokoufeh_Track2"	"Dec 01, 2016 10:55:23 AM"	Unknown	141.98618	11/01/0116 10:57.48	00008519	10.950	Inter686t1-0	-0.645	1	1	180.000	11.111	-0.2	0.000	0.000	D	F	1075.9	179.866	0.194	0.001	697.042	826.718	0.029	-	-0.006	-0.513	-	-	-	Ambient329	1.106	12.112	50.121	PAVEMENT_GENERAL	Urban	F	1011101000011101	0000000000000000	-	-	-	-	-	-	-	-	-	-	Terminate	
"Student17Mode1"	"Seema_Shokoufeh_Track2"	"Dec 01, 2016 10:55:23 AM"	Unknown	142.98619	11/01/0116 10:57.49	00008579	10.441	Inter686t1-0	-0.674	1	1	180.000	11.111	-0.0	0.000	0.000	D	F	1025.9	179.823	0.195	0.001	697.070	816.022	0.029	-	-0.004	-0.506	-	-	-	Ambient329	1.161	12.125	-	PAVEMENT_GENERAL	Urban	F	1011101000011101	0000000000000000	-	-	-	-	-	-	-	-	-	-	Terminate	
"Student17Mode1"	"Seema_Shokoufeh_Track2"	"Dec 01, 2016 10:55:23 AM"	Unknown	143.98621	11/01/0116 10:57.50	00008639	9.939	Inter686t1-0	-0.701	1	1	180.000	11.111	0.3	0.000	0.000	D	F	976.7	179.866	0.195	-0.001	697.097	805.833	0.029	-	0.008	-0.499	-	-	-	Ambient329	1.272	12.643	-	PAVEMENT_GENERAL	Urban	F	1011101000011101	0000000000000000	-	-	-	-	-	-	-	-	-	-	Terminate	
"Student17Mode1"	"Seema_Shokoufeh_Track2"	"Dec 01, 2016 10:55:23 AM"	Unknown	144.98624	11/01/0116 10:57.51	00008699	9.479	Inter682t1-1	-0.709	1	1	180.000	11.111	0.8	0.049	0.000	D	F	1152.7	179.949	0.203	-0.003	697.113	796.139	0.028	-	0.022	-0.168	-	-	-	Ambient329	1.441	13.657	-	PAVEMENT_GENERAL	Urban	F	1011101000011101	0000000000000000	-	-	-	-	-	-	-	-	-	-	Terminate	
"Student17Mode1"	"Seema_Shokoufeh_Track2"	"Dec 01, 2016 10:55:23 AM"	Unknown	145.98625	11/01/0116 10:57.52	00008759	9.374	Inter682t1-1	-0.710	1	1	180.000	11.111	-0.2	0.060	0.000	D	F	1191.2	180.015	0.200	0.001	697.113	786.720	0.027	-	-0.004	-0.057	-	-	-	Ambient329	1.594	14.946	-	PAVEMENT_GENERAL	Urban	F	1011101000011101	0000000000000000	-	-	-	-	-	-	-	-	-	-	Terminate	
"Student17Mode1"	"Seema_Shokoufeh_Track2"	"Dec 01, 2016 10:55:23 AM"	Unknown	146.98627	11/01/0116 10:57.53	00008819	9.338	Inter682t1-1	-0.706	1	1	180.000	11.111	0.1	0.060	0.000	D	F	1198.8	180.035	0.200	-0.000	697.110	777.367	0.026	-	0.003	-0.030	-	-	-	Ambient329	1.746	16.301	-	PAVEMENT_GENERAL	Urban	F	1011101000011101	0000000000000000	-	-	-	-	-	-	-	-	-	-	Terminate	
"Student17Mode1"	"Seema_Shokoufeh_Track2"	"Dec 01, 2016 10:55:23 AM"	Unknown	147.98630	11/01/0116 10:57.54	00008879	9.400	Inter682t1-1	-0.700	1	1	180.000	11.111	-0.8	0.076	0.000	D	F	1282.0	180.041	0.201	0.001	697.103	768.011	0.026	-	-0.015	0.094	-	-	-	Ambient329	1.878	17.653	-	PAVEMENT_GENERAL	Urban	F	1011101000011101	0000000000000000	-	-	-	-	-	-	-	-	-	-	Terminate	
"Student17Mode1"	"Seema_Shokoufeh_Track2"	"Dec 01, 2016 10:55:23 AM"	Unknown	148.98631	11/01/0116 10:57.55	00008939	9.568	Inter682t1-1	-0.707	1	1	180.000	11.111	0.6	0.102	0.000	D	F	1399.0	179.930	0.204	-0.003	697.111	758.541	0.025	-	0.014	0.279	-	-	-	Ambient329	1.974	18.891	-	PAVEMENT_GENERAL	Urban	F	1011101000011101	0000000000000000	-	-	-	-	-	-	-	-	-	-	Terminate	
"Student17Mode1"	"Seema_Shokoufeh_Track2"	"Dec 01, 2016 10:55:23 AM"	Unknown	149.98633	11/01/0116 10:57.56	00008999	9.836	Inter682t1-1	-0.707	1	1	180.000	11.111	0.1	0.109	0.000	D	F	1419.4	180.041	0.203	-0.001	697.111	748.838	0.025	-	0.005	0.280	-	-	-	Ambient329	2.023	19.896	-	PAVEMENT_GENERAL	Urban	F	1011101000011101	0000000000000000	-	-	-	-	-	-	-	-	-	-	Terminate	
"Student17Mode1"	"Seema_Shokoufeh_Track2"	"Dec 01, 2016 10:55:23 AM"	Unknown	150.98636	11/01/0116 10:57.57	00009059	10.114	Inter682t1-1	-0.698	1	1	180.000	11.111	-1.1	0.081	0.000	D	F	1341.4	180.053	0.199	0.004	697.102	738.851	0.025	-	-0.026	0.149	-	-	-	Ambient329	2.038	20.617	-	PAVEMENT_GENERAL	Urban	F	1011101000011101	0000000000000000	-	-	-	-	-	-	-	-	-	-	Terminate	
"Student17Mode1"	"Seema_Shokoufeh_Track2"	"Dec 01, 2016 10:55:23 AM"	Unknown	151.98637	11/01/0116 10:57.58	00009119	9.840	Inter682t1-1	-0.703	1	1	180.000	11.111	0.6	0.012	0.000	D	F	979.1	179.946	0.195	-0.002	697.107	728.824	0.028	-	0.013	-0.426	-	-	-	Ambient329	2.164	21.299	-	PAVEMENT_GENERAL	Urban	F	1111101000011101	0000000000000000	-	-	-	-	-	-	-	-	-	-	Terminate	
"Student17Mode1"	"Seema_Shokoufeh_Track2"	"Dec 01, 2016 10:55:23 AM"	Unknown	152.98639	11/01/0116 10:57.59	00009179	9.528	Inter682t1-1	-0.707	1	1	180.000	11.111	-1.0	0.037	0.000	D	F	1098.7	179.961	0.195	0.004	697.111	719.175	0.027	-	-0.026	-0.170	-	-	-	Ambient329	2.346	22.357	-	PAVEMENT_GENERAL	Urban	F	1011101000011101	0000000000000000	-	-	-	-	-	-	-	-	-	-	Terminate	
"Student17Mode1"	"Seema_Shokoufeh_Track2"	"Dec 01, 2016 10:55:23 AM"	Unknown	153.98642	11/01/0116 10:58.00	00009239	9.227	Inter682t1-1	-0.733	1	1	180.000	11.111	1.0	0.021	0.000	D	F	992.8	179.767	0.198	-0.004	697.137	709.784	0.028	-	0.019	-0.323	-	-	-	Ambient329	2.566	23.675	-	PAVEMENT_GENERAL	Urban	F	1011101000011101	0000000000000000	-	-	-	-	-	-	-	-	-	-	Terminate	
"Student17Mode1"	"Seema_Shokoufeh_Track2"	"Dec 01, 2016 10:55:23 AM"	Unknown	154.98643	11/01/0116 10:58.01	00009299	8.980	Inter682t1-1	-0.753	1	1	180.000	11.111	-0.8	0.046	0.000	D	F	1094.9	179.917	0.200	0.002	697.157	700.693	0.027	-	-0.017	-0.175	-	-	-	Ambient329	2.816	25.291	-	PAVEMENT_GENERAL	Urban	F	1011101000011101	0000000000000000	-	-	-	-	-	-	-	-	-	-	Terminate	
"Student17Mode1"	"Seema_Shokoufeh_Track2"	"Dec 01, 2016 10:55:23 AM"	Unknown	155.98645	11/01/0116 10:58.02	00009359	8.915	Inter682t1-1	-0.774	1	1	180.000	11.111	0.7	0.063	0.000	D	F	1191.1	179.887	0.198	0.000	697.177	691.766	0.026	-	0.015	0.007	-	-	-	Ambient329	3.037	27.073	-	PAVEMENT_GENERAL	Urban	F	1011101000011101	0000000000000000	-	-	-	-	-	-	-	-	-	-	Terminate	
"Student17Mode1"	"Seema_Shokoufeh_Track2"	"Dec 01, 2016 10:55:23 AM"	Unknown	156.98647	11/01/0116 10:58.03	00009419	8.919	Inter682t1-1	-0.783	1	1	180.000	11.111	0.5	0.058	0.000	D	F	1184.3	179.973	0.201	-0.001	697.187	682.847	0.026	-	0.011	-0.011	-	-	-	Ambient329	3.236	28.862	-	PAVEMENT_GENERAL	Urban	F	1011101000011101	0000000000000000	-	-	-	-	-	-	-	-	-	-	Terminate	
"Student17Mode1"	"Seema_Shokoufeh_Track2"	"Dec 01, 2016 10:55:23 AM"	Unknown	157.98650	11/01/0116 10:58.04	00009479	8.898	Inter682t1-1	-0.781	1	1	180.000	11.111	1.4	0.083	0.000	D	F	1233.4	180.032	0.201	-0.002	697.185	673.938	0.026	-	0.029	0.000	-	-	-	Ambient329	3.446	30.660	-	PAVEMENT_GENERAL	Urban	F	1011101000011101	0000000000000000	-	-	-	-	-	-	-	-	-	-	Terminate	
"Student17Mode1"	"Seema_Shokoufeh_Track2"	"Dec 01, 2016 10:55:23 AM"	Unknown	158.98651	11/01/0116 10:58.05	00009539	9.087	Inter682t1-1	-0.750	1	1	180.000	11.111	1.8	0.097	0.000	D	F	1353.0	180.315	0.204	-0.006	697.154	664.958	0.025	-	0.045	0.274	-	-	-	Ambient329	3.564	32.388	-	PAVEMENT_GENERAL	Urban	F	1011101000011101	0000000000000000	-	-	-	-	-	-	-	-	-	-	Terminate	
"Student17Mode1"	"Seema_Shokoufeh_Track2"	"Dec 01, 2016 10:55:23 AM"	Unknown	159.98653	11/01/0116 10:58.06	00009599	9.315	Inter682t1-1	-0.692	1	1	180.000	11.111	-0.9	0.085	0.000	D	F	1314.6	180.314	0.202	0.003	697.096	655.748	0.025	-	-0.024	0.177	-	-	-	Ambient329	3.638	33.886	-	PAVEMENT_GENERAL	Urban	F	1011101000011101	0000000000000000	-	-	-	-	-	-	-	-	-	-	Terminate	
"Student17Mode1"	"Seema_Shokoufeh_Track2"	"Dec 01, 2016 10:55:23 AM"	Unknown	160.98656	11/01/0116 10:58.07	00009659	9.419	Inter682t1-1	-0.653	1	1	180.000	11.111	-1.1	0.076	0.000	D	F	1270.6	180.189	0.201	0.005	697.057	646.372	0.026	-	-0.028	0.076	-	-	-	Ambient329	3.739	35.218	-	PAVEMENT_GENERAL	Urban	F	1011101000011101	0000000000000000	-	-	-	-	-	-	-	-	-	-	Terminate	
"Student17Mode1"	"Seema_Shokoufeh_Track2"	"Dec 01, 2016 10:55:23 AM"	Unknown	161.98657	11/01/0116 10:58.08	00009719	9.555	Inter682t1-1	-0.637	1	1	180.000	11.111	-0.5	0.090	0.000	D	F	1345.8	180.048	0.202	0.001	697.041	636.905	0.025	-	-0.011	0.219	-	-	-	Ambient329	3.816	36.460	-	PAVEMENT_GENERAL	Urban	F	1011101000011101	0000000000000000	-	-	-	-	-	-	-	-	-	-	Terminate	
"Student17Mode1"	"Seema_Shokoufeh_Track2"	"Dec 01, 2016 10:55:23 AM"	Unknown	162.98659	11/01/0116 10:58.09	00009779	9.883	Inter682t1-1	-0.641	1	1	180.000	11.111	-1.4	0.139	0.000	D	F	1496.8	179.921	0.205	0.003	697.045	627.201	0.025	-	-0.036	0.424	-	-	-	Ambient329	3.748	37.043	35.580	PAVEMENT_GENERAL	Urban	F	1011101000011101	0000000000000000	-	-	-	-	-	-	-	-	-	-	Terminate	
"Student17Mode1"	"Seema_Shokoufeh_Track2"	"Dec 01, 2016 10:55:23 AM"	Unknown	163.98662	11/01/0116 10:58.10	00009839	10.335	Inter682t1-1	-0.713	1	1	180.000	11.111	-7.3	0.131	0.000	D	F	1499.5	179.166	0.203	0.029	697.117	617.084	0.024	-	-0.220	0.399	-	-	-	Ambient329	3.420	35.350	26.326	PAVEMENT_GENERAL	Urban	F	1011101000011101	0000000000000000	-	-	-	-	-	-	-	-	-	-	Terminate	
"Student17Mode1"	"Seema_Shokoufeh_Track2"	"Dec 01, 2016 10:55:23 AM"	Unknown	164.98663	11/01/0116 10:58.11	00009899	10.685	Inter682t1-1	-0.990	1	1	180.000	11.111	-6.2	0.127	0.000	D	F	1501.2	177.991	0.203	0.026	697.394	606.572	0.025	-	-0.201	0.346	-	-	-	Ambient329	3.210	34.303	41.088	PAVEMENT_GENERAL	Urban	F	1111101000011101	0000000000000000	-	-	-	-	-	-	-	-	-	-	Terminate	
"Student17Mode1"	"Seema_Shokoufeh_Track2"	"Dec 01, 2016 10:55:23 AM"	Unknown	165.98665	11/01/0116 10:58.12	00009959	11.047	Inter688t25-1	-1.482	1	1	180.000	11.111	-5.1	0.116	0.000	D	F	1493.8	177.015	0.201	0.026	697.879	595.712	0.025	L	-0.183	0.283	-	-	-	Ambient329	3.036	33.539	48.166	PAVEMENT_GENERAL	Urban	F	1011101000111101	0000000000000000	-	-	-	-	-	-	-	-	-	-	Terminate	
