ZoneName	Time	SystemTime	Frame	Velocity	LaneName	LanePos	LaneIndex	LaneCount	LaneHeading	SpeedLimit	Steer	Accel	Brake	Gear	Horn	SubjectEngineRPM	SubjectHeading	SubjectPitch	SubjectRoll	SubjectX	SubjectY	SubjectZ	Signal	LatAccel	LongAccel	Collision	CollisionAngle	CollisionVelocity	VehAhead	HeadwayTime	HeadwayDist	TTC	TerrainType	CultureType	Slip	DigitalInputs	DigitalInputs2	ActiveTrigger	EntityName	DistToEntity	TimeToEntity	EntityVelocity	EntityAccel	EntityHeading	EntityX	EntityY	EntityZ	GrabData	
Unknown	0.00000	10/21/0116 05:37.51	00000000	0.000	-	-	-	0	-	-	0.0	0.000	0.000	P	F	0.0	0.000	0.000	0.000	0.000	0.000	0.000	-	0.000	0.000	-	-	-	-	-	-	-	FREEWAY_SMOOTH	Urban	F	0000000000000000	0000000000000000	-	-	-	-	-	-	-	-	-	-	Terminate	
Unknown	0.01667	10/21/0116 05:37.51	00000001	0.008	Inter828t1-2	1.611	1	2	0.000	24.444	-0.3	0.000	0.000	D	F	0.0	0.000	0.002	-0.000	1905.911	404.964	0.000	-	-0.000	0.245	-	-	-	CAR1	-	13.011	-	FREEWAY_GENERAL	Urban	F	1011101000001001	0000000000000000	TriggerC1	-	-	-	-	-	-	-	-	-	Terminate	
Unknown	0.03333	10/21/0116 05:37.51	00000002	0.008	Inter828t1-2	1.611	1	2	0.000	24.444	-0.3	0.000	0.000	D	F	0.0	0.000	0.004	-0.000	1905.911	404.964	0.000	-	0.000	0.162	-	-	-	CAR1	-	13.012	-	FREEWAY_GENERAL	Urban	F	1011101000001001	0000000000000000	-	-	-	-	-	-	-	-	-	-	Terminate	
Unknown	0.05000	10/21/0116 05:37.51	00000003	0.008	Inter828t1-2	1.611	1	2	0.000	24.444	-0.3	0.000	0.000	D	F	0.0	0.000	0.007	-0.000	1905.911	404.964	0.000	-	-0.000	0.059	-	-	-	CAR1	-	13.014	-	FREEWAY_GENERAL	Urban	F	1011101000001001	0000000000000000	-	-	-	-	-	-	-	-	-	-	Terminate	
Unknown	0.06667	10/21/0116 05:37.51	00000004	0.008	Inter828t1-2	1.611	1	2	0.000	24.444	-0.3	0.000	0.000	D	F	0.0	0.000	0.009	-0.000	1905.911	404.965	0.001	-	-0.000	0.013	-	-	-	CAR1	-	13.017	-	FREEWAY_GENERAL	Urban	F	1111101000001001	0000000000000000	-	-	-	-	-	-	-	-	-	-	Terminate	
Unknown	0.08333	10/21/0116 05:37.51	00000005	0.008	Inter828t1-2	1.611	1	2	0.000	24.444	-0.3	0.000	0.000	D	F	0.0	0.000	0.011	-0.000	1905.911	404.965	0.001	-	-0.000	-0.006	-	-	-	CAR1	-	13.022	-	FREEWAY_GENERAL	Urban	F	1111101000001001	0000000000000000	-	-	-	-	-	-	-	-	-	-	Terminate	
Unknown	0.10000	10/21/0116 05:37.51	00000006	0.008	Inter828t1-2	1.611	1	2	0.000	24.444	-0.3	0.000	0.000	D	F	0.0	0.000	0.014	-0.000	1905.911	404.965	0.002	-	-0.000	-0.014	-	-	-	CAR1	-	13.028	-	FREEWAY_GENERAL	Urban	F	1011101000001001	0000000000000000	-	-	-	-	-	-	-	-	-	-	Terminate	
Unknown	0.11667	10/21/0116 05:37.51	00000007	0.007	Inter828t1-2	1.611	1	2	0.000	24.444	-0.3	0.000	0.000	D	F	0.0	0.000	0.017	-0.000	1905.911	404.965	0.002	-	-0.000	-0.020	-	-	-	CAR1	-	13.036	-	FREEWAY_GENERAL	Urban	F	1011101000001001	0000000000000000	-	-	-	-	-	-	-	-	-	-	Terminate	
Unknown	0.13334	10/21/0116 05:37.51	00000008	0.007	Inter828t1-2	1.611	1	2	0.000	24.444	-0.3	0.000	0.000	D	F	0.0	0.000	0.020	-0.000	1905.911	404.965	0.003	-	-0.000	-0.023	-	-	-	CAR1	-	13.046	-	FREEWAY_GENERAL	Urban	F	1011101000001001	0000000000000000	-	-	-	-	-	-	-	-	-	-	Terminate	
Unknown	0.15000	10/21/0116 05:37.51	00000009	0.006	Inter828t1-2	1.611	1	2	0.000	24.444	-0.3	0.000	0.000	D	F	0.0	0.000	0.025	-0.000	1905.911	404.965	0.003	-	-0.000	-0.025	-	-	-	CAR1	-	13.058	-	FREEWAY_GENERAL	Urban	F	1011101000001001	0000000000000000	-	-	-	-	-	-	-	-	-	-	Terminate	
Unknown	0.16667	10/21/0116 05:37.51	00000010	0.006	Inter828t1-2	1.611	1	2	0.000	24.444	-0.3	0.000	0.000	D	F	0.0	0.000	0.030	-0.000	1905.911	404.965	0.004	-	-0.000	-0.024	-	-	-	CAR1	-	13.071	-	FREEWAY_GENERAL	Urban	F	1011101000001001	0000000000000000	-	-	-	-	-	-	-	-	-	-	Terminate	
Unknown	0.18334	10/21/0116 05:37.51	00000011	0.006	Inter828t1-2	1.611	1	2	0.000	24.444	-0.3	0.000	0.000	D	F	0.0	0.000	0.035	-0.000	1905.911	404.966	0.004	-	-0.000	-0.021	-	-	-	CAR1	-	13.086	-	FREEWAY_GENERAL	Urban	F	1111101000001001	0000000000000000	-	-	-	-	-	-	-	-	-	-	Terminate	
Unknown	0.20000	10/21/0116 05:37.51	00000012	0.006	Inter828t1-2	1.611	1	2	0.000	24.444	-0.3	0.000	0.000	D	F	0.0	0.000	0.041	-0.000	1905.911	404.966	0.005	-	-0.000	-0.015	-	-	-	CAR1	-	13.102	-	FREEWAY_GENERAL	Urban	F	1011101000001001	0000000000000000	-	-	-	-	-	-	-	-	-	-	Terminate	
Unknown	0.21667	10/21/0116 05:37.51	00000013	0.006	Inter828t1-2	1.611	1	2	0.000	24.444	-0.3	0.000	0.000	D	F	0.0	0.000	0.047	-0.000	1905.911	404.966	0.005	-	0.000	-0.009	-	-	-	CAR1	-	13.121	-	FREEWAY_GENERAL	Urban	F	1011101000001001	0000000000000000	-	-	-	-	-	-	-	-	-	-	Terminate	
Unknown	0.23334	10/21/0116 05:37.51	00000014	0.006	Inter828t1-2	1.611	1	2	0.000	24.444	-0.3	0.000	0.000	D	F	0.0	0.000	0.053	-0.000	1905.911	404.966	0.006	-	0.000	-0.002	-	-	-	CAR1	-	13.140	-	FREEWAY_GENERAL	Urban	F	1011101000001001	0000000000000000	-	-	-	-	-	-	-	-	-	-	Terminate	
Unknown	0.25001	10/21/0116 05:37.51	00000015	0.006	Inter828t1-2	1.611	1	2	0.000	24.444	-0.3	0.000	0.000	D	F	0.0	0.000	0.058	-0.000	1905.911	404.966	0.006	-	0.000	0.005	-	-	-	CAR1	-	13.162	-	FREEWAY_GENERAL	Urban	F	1111101000001001	0000000000000000	-	-	-	-	-	-	-	-	-	-	Terminate	
Unknown	0.26667	10/21/0116 05:37.51	00000016	0.006	Inter828t1-2	1.611	1	2	0.000	24.444	-0.3	0.000	0.000	D	F	0.0	0.000	0.062	-0.000	1905.911	404.966	0.007	-	0.000	0.010	-	-	-	CAR1	-	13.185	-	FREEWAY_GENERAL	Urban	F	1111101000001001	0000000000000000	-	-	-	-	-	-	-	-	-	-	Terminate	
Unknown	0.28334	10/21/0116 05:37.51	00000017	0.006	Inter828t1-2	1.611	1	2	0.000	24.444	-0.3	0.000	0.000	D	F	0.0	0.000	0.065	-0.000	1905.911	404.966	0.007	-	0.000	0.014	-	-	-	CAR1	-	13.210	-	FREEWAY_GENERAL	Urban	F	1011101000001001	0000000000000000	-	-	-	-	-	-	-	-	-	-	Terminate	
Unknown	0.30001	10/21/0116 05:37.51	00000018	0.007	Inter828t1-2	1.611	1	2	0.000	24.444	-0.3	0.000	0.000	D	F	0.0	0.000	0.068	-0.000	1905.911	404.967	0.007	-	0.000	0.015	-	-	-	CAR1	-	13.237	-	FREEWAY_GENERAL	Urban	F	1111101000001001	0000000000000000	-	-	-	-	-	-	-	-	-	-	Terminate	
Unknown	0.31667	10/21/0116 05:37.51	00000019	0.007	Inter828t1-2	1.611	1	2	0.000	24.444	-0.3	0.000	0.000	D	F	0.0	0.000	0.070	-0.000	1905.911	404.967	0.007	-	0.000	0.013	-	-	-	CAR1	-	13.265	-	FREEWAY_GENERAL	Urban	F	1011101000001001	0000000000000000	-	-	-	-	-	-	-	-	-	-	Terminate	
Unknown	0.33334	10/21/0116 05:37.51	00000020	0.007	Inter828t1-2	1.611	1	2	0.000	24.444	-0.3	0.000	0.000	D	F	0.0	0.000	0.071	-0.000	1905.911	404.967	0.008	-	0.000	0.010	-	-	-	CAR1	-	13.295	-	FREEWAY_GENERAL	Urban	F	1011101000001001	0000000000000000	-	-	-	-	-	-	-	-	-	-	Terminate	
Unknown	0.35001	10/21/0116 05:37.51	00000021	0.007	Inter828t1-2	1.611	1	2	0.000	24.444	-0.3	0.000	0.000	D	F	0.0	0.000	0.071	-0.000	1905.911	404.967	0.008	-	0.000	0.004	-	-	-	CAR1	-	13.326	-	FREEWAY_GENERAL	Urban	F	1011101000001001	0000000000000000	-	-	-	-	-	-	-	-	-	-	Terminate	
Unknown	0.36667	10/21/0116 05:37.51	00000022	0.007	Inter828t1-2	1.611	1	2	0.000	24.444	-0.3	0.000	0.000	D	F	0.0	0.000	0.072	-0.000	1905.911	404.967	0.008	-	0.000	-0.003	-	-	-	CAR1	-	13.359	-	FREEWAY_GENERAL	Urban	F	1011101000001001	0000000000000000	-	-	-	-	-	-	-	-	-	-	Terminate	
Unknown	0.38334	10/21/0116 05:37.51	00000023	0.006	Inter828t1-2	1.611	1	2	0.000	24.444	-0.3	0.000	0.000	D	F	0.0	0.000	0.072	-0.000	1905.911	404.967	0.008	-	-0.000	-0.010	-	-	-	CAR1	-	13.394	-	FREEWAY_GENERAL	Urban	F	1011101000001001	0000000000000000	-	-	-	-	-	-	-	-	-	-	Terminate	
Unknown	0.40001	10/21/0116 05:37.51	00000024	0.006	Inter828t1-2	1.611	1	2	0.000	24.444	-0.3	0.000	0.000	D	F	0.0	0.000	0.072	-0.000	1905.911	404.967	0.009	-	-0.000	-0.017	-	-	-	CAR1	-	13.431	-	FREEWAY_GENERAL	Urban	F	1011101000001001	0000000000000000	-	-	-	-	-	-	-	-	-	-	Terminate	
Unknown	0.41668	10/21/0116 05:37.51	00000025	0.006	Inter828t1-2	1.611	1	2	0.000	24.444	-0.3	0.000	0.000	D	F	0.0	0.000	0.073	-0.000	1905.911	404.967	0.009	-	-0.000	-0.022	-	-	-	CAR1	-	13.469	-	FREEWAY_GENERAL	Urban	F	1011101000001001	0000000000000000	-	-	-	-	-	-	-	-	-	-	Terminate	
Unknown	0.43334	10/21/0116 05:37.51	00000026	0.005	Inter828t1-2	1.611	1	2	0.000	24.444	-0.3	0.000	0.000	D	F	0.0	0.000	0.074	-0.000	1905.911	404.967	0.009	-	-0.000	-0.026	-	-	-	CAR1	-	13.509	-	FREEWAY_GENERAL	Urban	F	1011101000001001	0000000000000000	-	-	-	-	-	-	-	-	-	-	Terminate	
Unknown	0.45001	10/21/0116 05:37.51	00000027	0.005	Inter828t1-2	1.611	1	2	0.000	24.444	-0.3	0.000	0.000	D	F	0.0	0.000	0.076	-0.000	1905.911	404.968	0.010	-	-0.000	-0.028	-	-	-	CAR1	-	13.550	-	FREEWAY_GENERAL	Urban	F	1011101000001001	0000000000000000	-	-	-	-	-	-	-	-	-	-	Terminate	
Unknown	0.46668	10/21/0116 05:37.51	00000028	0.004	Inter828t1-2	1.611	1	2	0.000	24.444	-0.3	0.000	0.000	D	F	0.0	0.000	0.079	-0.000	1905.911	404.968	0.010	-	-0.000	-0.028	-	-	-	CAR1	-	13.594	-	FREEWAY_GENERAL	Urban	F	1011101000001001	0000000000000000	-	-	-	-	-	-	-	-	-	-	Terminate	
Unknown	0.48334	10/21/0116 05:37.51	00000029	0.004	Inter828t1-2	1.611	1	2	0.000	24.444	-0.3	0.000	0.000	D	F	0.0	0.000	0.082	0.000	1905.911	404.968	0.010	-	-0.000	-0.026	-	-	-	CAR1	-	13.639	-	FREEWAY_GENERAL	Urban	F	1011101000001001	0000000000000000	-	-	-	-	-	-	-	-	-	-	Terminate	
Unknown	0.50001	10/21/0116 05:37.51	00000030	0.003	Inter828t1-2	1.611	1	2	0.000	24.444	-0.3	0.000	0.000	D	F	0.0	0.000	0.086	0.000	1905.911	404.968	0.011	-	-0.000	-0.022	-	-	-	CAR1	-	13.685	-	FREEWAY_GENERAL	Urban	F	1011101000001001	0000000000000000	-	-	-	-	-	-	-	-	-	-	Terminate	
Unknown	0.51668	10/21/0116 05:37.51	00000031	0.003	Inter828t1-2	1.611	1	2	0.000	24.444	-0.3	0.000	0.000	D	F	0.0	0.000	0.090	0.000	1905.911	404.968	0.011	-	-0.000	-0.017	-	-	-	CAR1	-	13.733	-	FREEWAY_GENERAL	Urban	F	1011101000001001	0000000000000000	-	-	-	-	-	-	-	-	-	-	Terminate	
Unknown	0.53334	10/21/0116 05:37.51	00000032	0.003	Inter828t1-2	1.611	1	2	0.000	24.444	-0.3	0.000	0.000	D	F	0.0	0.000	0.094	0.000	1905.911	404.968	0.011	-	0.000	-0.011	-	-	-	CAR1	-	13.783	-	FREEWAY_GENERAL	Urban	F	1111101000001001	0000000000000000	-	-	-	-	-	-	-	-	-	-	Terminate	
Unknown	0.55001	10/21/0116 05:37.51	00000033	0.003	Inter828t1-2	1.611	1	2	0.000	24.444	-0.3	0.000	0.000	D	F	0.0	0.000	0.098	0.000	1905.911	404.968	0.012	-	0.000	-0.006	-	-	-	CAR1	-	13.835	-	FREEWAY_GENERAL	Urban	F	1011101000001001	0000000000000000	-	-	-	-	-	-	-	-	-	-	Terminate	
Unknown	0.56668	10/21/0116 05:37.51	00000034	0.003	Inter828t1-2	1.611	1	2	0.000	24.444	-0.3	0.000	0.000	D	F	0.0	0.000	0.102	0.000	1905.911	404.968	0.012	-	0.000	-0.001	-	-	-	CAR1	-	13.888	-	FREEWAY_GENERAL	Urban	F	1011101000001001	0000000000000000	-	-	-	-	-	-	-	-	-	-	Terminate	
Unknown	0.58334	10/21/0116 05:37.51	00000035	0.003	Inter828t1-2	1.611	1	2	0.000	24.444	-0.3	0.000	0.000	D	F	0.0	0.000	0.106	0.000	1905.911	404.968	0.013	-	0.000	0.003	-	-	-	CAR1	-	13.943	-	FREEWAY_GENERAL	Urban	F	1011101000001001	0000000000000000	-	-	-	-	-	-	-	-	-	-	Terminate	
Unknown	0.60001	10/21/0116 05:37.51	00000036	0.003	Inter828t1-2	1.611	1	2	0.000	24.444	-0.3	0.000	0.000	D	F	0.0	0.000	0.109	0.000	1905.911	404.968	0.013	-	0.000	0.006	-	-	-	CAR1	-	13.999	-	FREEWAY_GENERAL	Urban	F	1011101000001001	0000000000000000	-	-	-	-	-	-	-	-	-	-	Terminate	
Unknown	0.61668	10/21/0116 05:37.51	00000037	0.004	Inter828t1-2	1.611	1	2	0.000	24.444	-0.3	0.000	0.000	D	F	0.0	0.000	0.112	0.000	1905.911	404.969	0.013	-	0.000	0.008	-	-	-	CAR1	-	14.058	-	FREEWAY_GENERAL	Urban	F	1011101000001001	0000000000000000	-	-	-	-	-	-	-	-	-	-	Terminate	
Unknown	0.63335	10/21/0116 05:37.51	00000038	0.004	Inter828t1-2	1.611	1	2	0.000	24.444	-0.3	0.000	0.000	D	F	0.0	0.000	0.115	0.000	1905.911	404.969	0.014	-	0.000	0.008	-	-	-	CAR1	-	14.117	-	FREEWAY_GENERAL	Urban	F	1011101000001001	0000000000000000	-	-	-	-	-	-	-	-	-	-	Terminate	
Unknown	0.65001	10/21/0116 05:37.51	00000039	0.004	Inter828t1-2	1.611	1	2	0.000	24.444	-0.3	0.000	0.000	D	F	0.0	0.000	0.117	0.000	1905.911	404.969	0.014	-	0.000	0.007	-	-	-	CAR1	-	14.179	-	FREEWAY_GENERAL	Urban	F	1111101000001001	0000000000000000	-	-	-	-	-	-	-	-	-	-	Terminate	
Unknown	0.66668	10/21/0116 05:37.51	00000040	0.004	Inter828t1-2	1.611	1	2	0.000	24.444	-0.3	0.000	0.000	D	F	0.0	0.000	0.119	0.000	1905.911	404.969	0.014	-	0.000	0.005	-	-	-	CAR1	-	14.242	-	FREEWAY_GENERAL	Urban	F	1011101000001001	0000000000000000	-	-	-	-	-	-	-	-	-	-	Terminate	
Unknown	0.68335	10/21/0116 05:37.51	00000041	0.004	Inter828t1-2	1.611	1	2	0.000	24.444	-0.3	0.000	0.000	D	F	0.0	0.000	0.120	0.000	1905.911	404.969	0.014	-	0.000	0.002	-	-	-	CAR1	-	14.307	-	FREEWAY_GENERAL	Urban	F	1011101000001001	0000000000000000	-	-	-	-	-	-	-	-	-	-	Terminate	
Unknown	0.70001	10/21/0116 05:37.51	00000042	0.004	Inter828t1-2	1.611	1	2	0.000	24.444	-0.3	0.000	0.000	D	F	0.0	0.000	0.122	0.000	1905.911	404.969	0.015	-	0.000	-0.001	-	-	-	CAR1	-	14.374	-	FREEWAY_GENERAL	Urban	F	1111101000001001	0000000000000000	-	-	-	-	-	-	-	-	-	-	Terminate	
Unknown	0.71668	10/21/0116 05:37.51	00000043	0.004	Inter828t1-2	1.611	1	2	0.000	24.444	-0.3	0.000	0.000	D	F	0.0	0.000	0.123	0.000	1905.911	404.969	0.015	-	0.000	-0.004	-	-	-	CAR1	-	14.442	-	FREEWAY_GENERAL	Urban	F	1011101000001001	0000000000000000	-	-	-	-	-	-	-	-	-	-	Terminate	
Unknown	0.73335	10/21/0116 05:37.51	00000044	0.004	Inter828t1-2	1.611	1	2	0.000	24.444	-0.3	0.000	0.000	D	F	0.0	0.000	0.124	0.000	1905.911	404.969	0.015	-	0.000	-0.006	-	-	-	CAR1	-	14.512	-	FREEWAY_GENERAL	Urban	F	1011101000001001	0000000000000000	-	-	-	-	-	-	-	-	-	-	Terminate	
Unknown	0.75002	10/21/0116 05:37.51	00000045	0.003	Inter828t1-2	1.611	1	2	0.000	24.444	-0.3	0.000	0.000	D	F	0.0	0.000	0.126	0.000	1905.911	404.969	0.016	-	0.000	-0.009	-	-	-	CAR1	-	14.583	-	FREEWAY_GENERAL	Urban	F	1111101000001001	0000000000000000	-	-	-	-	-	-	-	-	-	-	Terminate	
Unknown	0.76668	10/21/0116 05:37.51	00000046	0.003	Inter828t1-2	1.611	1	2	0.000	24.444	-0.3	0.000	0.000	D	F	0.0	0.000	0.128	0.000	1905.911	404.969	0.016	-	0.000	-0.010	-	-	-	CAR1	-	14.656	-	FREEWAY_GENERAL	Urban	F	1111101000001001	0000000000000000	-	-	-	-	-	-	-	-	-	-	Terminate	
Unknown	0.78335	10/21/0116 05:37.51	00000047	0.003	Inter828t1-2	1.611	1	2	0.000	24.444	-0.3	0.000	0.000	D	F	0.0	0.000	0.129	0.000	1905.911	404.969	0.016	-	0.000	-0.011	-	-	-	CAR1	-	14.731	-	FREEWAY_GENERAL	Urban	F	1011101000001001	0000000000000000	-	-	-	-	-	-	-	-	-	-	Terminate	
Unknown	0.80002	10/21/0116 05:37.52	00000048	0.003	Inter828t1-2	1.611	1	2	0.000	24.444	-0.3	0.000	0.000	D	F	0.0	0.000	0.131	0.000	1905.911	404.969	0.016	-	0.000	-0.011	-	-	-	CAR1	-	14.808	-	FREEWAY_GENERAL	Urban	F	1011101000001001	0000000000000000	-	-	-	-	-	-	-	-	-	-	Terminate	
Unknown	0.81668	10/21/0116 05:37.52	00000049	0.003	Inter828t1-2	1.611	1	2	0.000	24.444	-0.3	0.000	0.000	D	F	0.0	0.000	0.134	0.000	1905.911	404.969	0.017	-	-0.000	-0.010	-	-	-	CAR1	-	14.886	-	FREEWAY_GENERAL	Urban	F	1011101000001001	0000000000000000	-	-	-	-	-	-	-	-	-	-	Terminate	
Unknown	0.83335	10/21/0116 05:37.52	00000050	0.003	Inter828t1-2	1.611	1	2	0.000	24.444	-0.3	0.000	0.000	D	F	0.0	0.000	0.136	0.000	1905.911	404.969	0.017	-	-0.000	-0.009	-	-	-	CAR1	-	14.966	-	FREEWAY_GENERAL	Urban	F	1011101000001001	0000000000000000	-	-	-	-	-	-	-	-	-	-	Terminate	
Unknown	0.85002	10/21/0116 05:37.52	00000051	0.002	Inter828t1-2	1.611	1	2	0.000	24.444	-0.3	0.000	0.000	D	F	0.0	0.000	0.138	0.000	1905.911	404.970	0.017	-	0.000	-0.007	-	-	-	CAR1	-	15.047	-	FREEWAY_GENERAL	Urban	F	1011101000001001	0000000000000000	-	-	-	-	-	-	-	-	-	-	Terminate	
Unknown	0.86668	10/21/0116 05:37.52	00000052	0.002	Inter828t1-2	1.611	1	2	0.000	24.444	-0.3	0.000	0.000	D	F	0.0	0.000	0.140	0.000	1905.911	404.970	0.018	-	0.000	-0.005	-	-	-	CAR1	-	15.131	-	FREEWAY_GENERAL	Urban	F	1011101000001001	0000000000000000	-	-	-	-	-	-	-	-	-	-	Terminate	
Unknown	0.88335	10/21/0116 05:37.52	00000053	0.002	Inter828t1-2	1.611	1	2	0.000	24.444	-0.3	0.000	0.000	D	F	0.0	0.000	0.143	0.000	1905.911	404.970	0.018	-	0.000	-0.004	-	-	-	CAR1	-	15.215	-	FREEWAY_GENERAL	Urban	F	1011101000001001	0000000000000000	-	-	-	-	-	-	-	-	-	-	Terminate	
Unknown	0.90002	10/21/0116 05:37.52	00000054	0.002	Inter828t1-2	1.611	1	2	0.000	24.444	-0.3	0.000	0.000	D	F	0.0	0.000	0.145	0.000	1905.911	404.970	0.018	-	0.000	-0.002	-	-	-	CAR1	-	15.302	-	FREEWAY_GENERAL	Urban	F	1011101000001001	0000000000000000	-	-	-	-	-	-	-	-	-	-	Terminate	
Unknown	0.91668	10/21/0116 05:37.52	00000055	0.002	Inter828t1-2	1.611	1	2	0.000	24.444	-0.3	0.000	0.000	D	F	0.0	0.000	0.147	0.000	1905.911	404.970	0.018	-	0.000	-0.001	-	-	-	CAR1	-	15.390	-	FREEWAY_GENERAL	Urban	F	1011101000001001	0000000000000000	-	-	-	-	-	-	-	-	-	-	Terminate	
Unknown	0.93335	10/21/0116 05:37.52	00000056	0.002	Inter828t1-2	1.611	1	2	0.000	24.444	-0.3	0.000	0.000	D	F	0.0	0.000	0.149	0.000	1905.911	404.970	0.019	-	0.000	0.000	-	-	-	CAR1	-	15.480	-	FREEWAY_GENERAL	Urban	F	1011101000001001	0000000000000000	-	-	-	-	-	-	-	-	-	-	Terminate	
Unknown	0.95002	10/21/0116 05:37.52	00000057	0.002	Inter828t1-2	1.611	1	2	0.000	24.444	-0.3	0.000	0.000	D	F	0.0	0.000	0.150	0.000	1905.911	404.970	0.019	-	0.000	0.001	-	-	-	CAR1	-	15.572	-	FREEWAY_GENERAL	Urban	F	1111101000001001	0000000000000000	-	-	-	-	-	-	-	-	-	-	Terminate	
Unknown	0.96669	10/21/0116 05:37.52	00000058	0.002	Inter828t1-2	1.611	1	2	0.000	24.444	-0.3	0.000	0.000	D	F	0.0	0.000	0.152	0.000	1905.911	404.970	0.019	-	0.000	0.001	-	-	-	CAR1	-	15.665	-	FREEWAY_GENERAL	Urban	F	1011101000001001	0000000000000000	-	-	-	-	-	-	-	-	-	-	Terminate	
Unknown	0.98335	10/21/0116 05:37.52	00000059	0.002	Inter828t1-2	1.611	1	2	0.000	24.444	-0.3	0.000	0.000	D	F	0.0	0.000	0.153	0.000	1905.911	404.970	0.019	-	0.000	0.000	-	-	-	CAR1	-	15.760	-	FREEWAY_GENERAL	Urban	F	1011101000001001	0000000000000000	-	-	-	-	-	-	-	-	-	-	Terminate	
Unknown	1.00002	10/21/0116 05:37.52	00000060	0.002	Inter828t1-2	1.611	1	2	0.000	24.444	-0.3	0.000	0.000	D	F	0.0	0.000	0.155	0.000	1905.911	404.970	0.019	-	0.000	-0.000	-	-	-	CAR1	-	15.856	-	FREEWAY_GENERAL	Urban	F	1011101000001001	0000000000000000	-	-	-	-	-	-	-	-	-	-	Terminate	
Unknown	1.01669	10/21/0116 05:37.52	00000061	0.002	Inter828t1-2	1.611	1	2	0.000	24.444	-0.3	0.000	0.000	D	F	0.0	0.000	0.156	0.000	1905.911	404.970	0.020	-	0.000	-0.001	-	-	-	CAR1	-	15.954	-	FREEWAY_GENERAL	Urban	F	1011101000001001	0000000000000000	-	-	-	-	-	-	-	-	-	-	Terminate	
Unknown	1.03335	10/21/0116 05:37.52	00000062	0.002	Inter828t1-2	1.611	1	2	0.000	24.444	-0.3	0.000	0.000	D	F	0.0	0.000	0.157	0.000	1905.911	404.970	0.020	-	0.000	-0.002	-	-	-	CAR1	-	16.054	-	FREEWAY_GENERAL	Urban	F	1011101000001001	0000000000000000	-	-	-	-	-	-	-	-	-	-	Terminate	
Unknown	1.05002	10/21/0116 05:37.52	00000063	0.002	Inter828t1-2	1.611	1	2	0.000	24.444	-0.3	0.000	0.000	D	F	0.0	0.000	0.158	0.000	1905.911	404.970	0.020	-	0.000	-0.003	-	-	-	CAR1	-	16.156	-	FREEWAY_GENERAL	Urban	F	1011101000001001	0000000000000000	-	-	-	-	-	-	-	-	-	-	Terminate	
Unknown	1.06669	10/21/0116 05:37.52	00000064	0.002	Inter828t1-2	1.611	1	2	0.000	24.444	-0.3	0.000	0.000	D	F	0.0	0.000	0.159	0.000	1905.911	404.970	0.020	-	0.000	-0.004	-	-	-	CAR1	-	16.259	-	FREEWAY_GENERAL	Urban	F	1011101000001001	0000000000000000	-	-	-	-	-	-	-	-	-	-	Terminate	
Unknown	1.08335	10/21/0116 05:37.52	00000065	0.002	Inter828t1-2	1.611	1	2	0.000	24.444	-0.3	0.000	0.000	D	F	0.0	0.000	0.160	0.000	1905.911	404.970	0.020	-	0.000	-0.005	-	-	-	CAR1	-	16.364	-	FREEWAY_GENERAL	Urban	F	1011101000001001	0000000000000000	-	-	-	-	-	-	-	-	-	-	Terminate	
Unknown	1.10002	10/21/0116 05:37.52	00000066	0.002	Inter828t1-2	1.611	1	2	0.000	24.444	-0.3	0.000	0.000	D	F	0.0	0.000	0.161	0.000	1905.911	404.970	0.021	-	0.000	-0.005	-	-	-	CAR1	-	16.470	-	FREEWAY_GENERAL	Urban	F	1111101000001001	0000000000000000	-	-	-	-	-	-	-	-	-	-	Terminate	
Unknown	1.11669	10/21/0116 05:37.52	00000067	0.002	Inter828t1-2	1.611	1	2	0.000	24.444	-0.3	0.000	0.000	D	F	0.0	0.000	0.162	0.000	1905.911	404.970	0.021	-	-0.000	-0.005	-	-	-	CAR1	-	16.579	-	FREEWAY_GENERAL	Urban	F	1011101000001001	0000000000000000	-	-	-	-	-	-	-	-	-	-	Terminate	
Unknown	1.13336	10/21/0116 05:37.52	00000068	0.002	Inter828t1-2	1.611	1	2	0.000	24.444	-0.3	0.000	0.000	D	F	0.0	0.000	0.164	0.000	1905.911	404.970	0.021	-	-0.000	-0.005	-	-	-	CAR1	-	16.689	-	FREEWAY_GENERAL	Urban	F	1011101000001001	0000000000000000	-	-	-	-	-	-	-	-	-	-	Terminate	
Unknown	1.15002	10/21/0116 05:37.52	00000069	0.002	Inter828t1-2	1.611	1	2	0.000	24.444	-0.3	0.000	0.000	D	F	0.0	0.000	0.165	0.000	1905.911	404.970	0.021	-	-0.000	-0.005	-	-	-	CAR1	-	16.800	-	FREEWAY_GENERAL	Urban	F	1011101000001001	0000000000000000	-	-	-	-	-	-	-	-	-	-	Terminate	
Unknown	1.16669	10/21/0116 05:37.52	00000070	0.002	Inter828t1-2	1.611	1	2	0.000	24.444	-0.3	0.000	0.000	D	F	0.0	0.000	0.166	0.000	1905.911	404.970	0.021	-	-0.000	-0.004	-	-	-	CAR1	-	16.913	-	FREEWAY_GENERAL	Urban	F	1011101000001001	0000000000000000	-	-	-	-	-	-	-	-	-	-	Terminate	
Unknown	1.18336	10/21/0116 05:37.52	00000071	0.002	Inter828t1-2	1.611	1	2	0.000	24.444	-0.3	0.000	0.000	D	F	0.0	0.000	0.167	0.000	1905.911	404.971	0.022	-	-0.000	-0.004	-	-	-	CAR1	-	17.028	-	FREEWAY_GENERAL	Urban	F	1111101000001001	0000000000000000	-	-	-	-	-	-	-	-	-	-	Terminate	
Unknown	1.20002	10/21/0116 05:37.52	00000072	0.002	Inter828t1-2	1.611	1	2	0.000	24.444	-0.3	0.000	0.000	D	F	0.0	0.000	0.168	0.000	1905.911	404.971	0.022	-	-0.000	-0.003	-	-	-	CAR1	-	17.145	-	FREEWAY_GENERAL	Urban	F	1011101000001001	0000000000000000	-	-	-	-	-	-	-	-	-	-	Terminate	
Unknown	1.21669	10/21/0116 05:37.52	00000073	0.002	Inter828t1-2	1.611	1	2	0.000	24.444	-0.3	0.000	0.000	D	F	0.0	0.000	0.170	0.000	1905.911	404.971	0.022	-	-0.000	-0.003	-	-	-	CAR1	-	17.263	-	FREEWAY_GENERAL	Urban	F	1111101000001001	0000000000000000	-	-	-	-	-	-	-	-	-	-	Terminate	
Unknown	1.23336	10/21/0116 05:37.52	00000074	0.002	Inter828t1-2	1.611	1	2	0.000	24.444	-0.3	0.000	0.000	D	F	0.0	0.000	0.171	0.000	1905.911	404.971	0.022	-	-0.000	-0.002	-	-	-	CAR1	-	17.383	-	FREEWAY_GENERAL	Urban	F	1011101000001001	0000000000000000	-	-	-	-	-	-	-	-	-	-	Terminate	
Unknown	1.25003	10/21/0116 05:37.52	00000075	0.002	Inter828t1-2	1.611	1	2	0.000	24.444	-0.3	0.000	0.000	D	F	0.0	0.000	0.172	0.000	1905.911	404.971	0.022	-	-0.000	-0.002	-	-	-	CAR1	-	17.505	-	FREEWAY_GENERAL	Urban	F	1011101000001001	0000000000000000	-	-	-	-	-	-	-	-	-	-	Terminate	
Unknown	1.26669	10/21/0116 05:37.52	00000076	0.001	Inter828t1-2	1.611	1	2	0.000	24.444	-0.3	0.000	0.000	D	F	0.0	0.000	0.173	0.000	1905.911	404.971	0.022	-	-0.000	-0.001	-	-	-	CAR1	-	17.628	-	FREEWAY_GENERAL	Urban	F	1111101000001001	0000000000000000	-	-	-	-	-	-	-	-	-	-	Terminate	
Unknown	1.28336	10/21/0116 05:37.52	00000077	0.001	Inter828t1-2	1.611	1	2	0.000	24.444	-0.3	0.000	0.000	D	F	0.0	0.000	0.174	0.000	1905.911	404.971	0.022	-	-0.000	-0.001	-	-	-	CAR1	-	17.753	-	FREEWAY_GENERAL	Urban	F	1011101000001001	0000000000000000	-	-	-	-	-	-	-	-	-	-	Terminate	
Unknown	1.30003	10/21/0116 05:37.52	00000078	0.001	Inter828t1-2	1.611	1	2	0.000	24.444	-0.3	0.000	0.000	D	F	0.0	0.000	0.175	0.000	1905.911	404.971	0.023	-	-0.000	-0.001	-	-	-	CAR1	-	17.879	-	FREEWAY_GENERAL	Urban	F	1011101000001001	0000000000000000	-	-	-	-	-	-	-	-	-	-	Terminate	
Unknown	1.31669	10/21/0116 05:37.52	00000079	0.001	Inter828t1-2	1.611	1	2	0.000	24.444	-0.3	0.000	0.000	D	F	0.0	0.000	0.176	0.000	1905.911	404.971	0.023	-	-0.000	-0.001	-	-	-	CAR1	-	18.008	-	FREEWAY_GENERAL	Urban	F	1111101000001001	0000000000000000	-	-	-	-	-	-	-	-	-	-	Terminate	
Unknown	1.33336	10/21/0116 05:37.52	00000080	0.001	Inter828t1-2	1.611	1	2	0.000	24.444	-0.3	0.000	0.000	D	F	0.0	0.000	0.177	0.000	1905.911	404.971	0.023	-	-0.000	-0.001	-	-	-	CAR1	-	18.137	-	FREEWAY_GENERAL	Urban	F	1011101000001001	0000000000000000	-	-	-	-	-	-	-	-	-	-	Terminate	
Unknown	1.35003	10/21/0116 05:37.52	00000081	0.001	Inter828t1-2	1.611	1	2	0.000	24.444	-0.3	0.000	0.000	D	F	0.0	0.000	0.177	0.000	1905.911	404.971	0.023	-	-0.000	-0.001	-	-	-	CAR1	-	18.269	-	FREEWAY_GENERAL	Urban	F	1011101000001001	0000000000000000	-	-	-	-	-	-	-	-	-	-	Terminate	
Unknown	1.36669	10/21/0116 05:37.52	00000082	0.001	Inter828t1-2	1.611	1	2	0.000	24.444	-0.3	0.000	0.000	D	F	0.0	0.000	0.178	0.000	1905.911	404.971	0.023	-	-0.000	-0.002	-	-	-	CAR1	-	18.402	-	FREEWAY_GENERAL	Urban	F	1011101000001001	0000000000000000	-	-	-	-	-	-	-	-	-	-	Terminate	
Unknown	1.38336	10/21/0116 05:37.52	00000083	0.001	Inter828t1-2	1.611	1	2	0.000	24.444	-0.3	0.000	0.000	D	F	0.0	0.000	0.179	0.000	1905.911	404.971	0.023	-	-0.000	-0.002	-	-	-	CAR1	-	18.537	-	FREEWAY_GENERAL	Urban	F	1011101000001001	0000000000000000	-	-	-	-	-	-	-	-	-	-	Terminate	
Unknown	1.40003	10/21/0116 05:37.52	00000084	0.001	Inter828t1-2	1.611	1	2	0.000	24.444	-0.3	0.000	0.000	D	F	0.0	0.000	0.180	0.000	1905.911	404.971	0.023	-	-0.000	-0.002	-	-	-	CAR1	-	18.674	-	FREEWAY_GENERAL	Urban	F	1011101000001001	0000000000000000	-	-	-	-	-	-	-	-	-	-	Terminate	
Unknown	1.41669	10/21/0116 05:37.52	00000085	0.001	Inter828t1-2	1.611	1	2	0.000	24.444	-0.3	0.000	0.000	D	F	0.0	0.000	0.180	0.000	1905.911	404.971	0.024	-	-0.000	-0.002	-	-	-	CAR1	-	18.812	-	FREEWAY_GENERAL	Urban	F	1011101000001001	0000000000000000	-	-	-	-	-	-	-	-	-	-	Terminate	
Unknown	1.43336	10/21/0116 05:37.52	00000086	0.001	Inter828t1-2	1.611	1	2	0.000	24.444	-0.3	0.000	0.000	D	F	0.0	0.000	0.181	0.000	1905.911	404.971	0.024	-	-0.000	-0.002	-	-	-	CAR1	-	18.952	-	FREEWAY_GENERAL	Urban	F	1011101000001001	0000000000000000	-	-	-	-	-	-	-	-	-	-	Terminate	
Unknown	1.45003	10/21/0116 05:37.52	00000087	0.001	Inter828t1-2	1.611	1	2	0.000	24.444	-0.3	0.000	0.000	D	F	0.0	0.000	0.182	0.000	1905.911	404.971	0.024	-	-0.000	-0.002	-	-	-	CAR1	-	19.094	-	FREEWAY_GENERAL	Urban	F	1011101000001001	0000000000000000	-	-	-	-	-	-	-	-	-	-	Terminate	
Unknown	1.46670	10/21/0116 05:37.52	00000088	0.001	Inter828t1-2	1.611	1	2	0.000	24.444	-0.3	0.000	0.000	D	F	0.0	0.000	0.182	0.000	1905.911	404.971	0.024	-	-0.000	-0.002	-	-	-	CAR1	-	19.237	-	FREEWAY_GENERAL	Urban	F	1011101000001001	0000000000000000	-	-	-	-	-	-	-	-	-	-	Terminate	
Unknown	1.48336	10/21/0116 05:37.52	00000089	0.001	Inter828t1-2	1.611	1	2	0.000	24.444	-0.3	0.000	0.000	D	F	0.0	0.000	0.183	0.000	1905.911	404.971	0.024	-	-0.000	-0.002	-	-	-	CAR1	-	19.382	-	FREEWAY_GENERAL	Urban	F	1011101000001001	0000000000000000	-	-	-	-	-	-	-	-	-	-	Terminate	
Unknown	1.50003	10/21/0116 05:37.52	00000090	0.001	Inter828t1-2	1.611	1	2	0.000	24.444	-0.3	0.000	0.000	D	F	0.0	0.000	0.184	0.000	1905.911	404.971	0.024	-	-0.000	-0.002	-	-	-	CAR1	-	19.529	-	FREEWAY_GENERAL	Urban	F	1111101000001001	0000000000000000	-	-	-	-	-	-	-	-	-	-	Terminate	
Unknown	1.51670	10/21/0116 05:37.52	00000091	0.001	Inter828t1-2	1.611	1	2	0.000	24.444	-0.3	0.000	0.000	D	F	0.0	0.000	0.184	0.000	1905.911	404.971	0.024	-	-0.000	-0.002	-	-	-	CAR1	-	19.677	-	FREEWAY_GENERAL	Urban	F	1011101000001001	0000000000000000	-	-	-	-	-	-	-	-	-	-	Terminate	
Unknown	1.53336	10/21/0116 05:37.52	00000092	0.001	Inter828t1-2	1.611	1	2	0.000	24.444	-0.3	0.000	0.000	D	F	0.0	0.000	0.185	0.000	1905.911	404.971	0.024	-	-0.000	-0.002	-	-	-	CAR1	-	19.827	-	FREEWAY_GENERAL	Urban	F	1011101000001001	0000000000000000	-	-	-	-	-	-	-	-	-	-	Terminate	
Unknown	1.55003	10/21/0116 05:37.52	00000093	0.001	Inter828t1-2	1.611	1	2	0.000	24.444	-0.3	0.000	0.000	D	F	0.0	0.000	0.186	0.000	1905.911	404.971	0.024	-	-0.000	-0.002	-	-	-	CAR1	-	19.978	-	FREEWAY_GENERAL	Urban	F	1011101000001011	0000000000000000	-	-	-	-	-	-	-	-	-	-	Terminate	
Unknown	1.56670	10/21/0116 05:37.52	00000094	0.001	Inter828t1-2	1.611	1	2	0.000	24.444	-0.3	0.000	0.000	D	F	5.6	0.000	0.186	0.000	1905.911	404.971	0.025	-	-0.000	-0.002	-	-	-	CAR1	-	20.132	-	FREEWAY_GENERAL	Urban	F	1111101000001011	0000000000000000	-	-	-	-	-	-	-	-	-	-	Terminate	
Unknown	1.58336	10/21/0116 05:37.52	00000095	0.001	Inter828t1-2	1.611	1	2	0.000	24.444	-0.3	0.000	0.000	D	F	11.1	0.000	0.187	0.000	1905.911	404.971	0.025	-	-0.000	-0.001	-	-	-	CAR1	-	20.287	-	FREEWAY_GENERAL	Urban	F	1011101000001011	0000000000000000	-	-	-	-	-	-	-	-	-	-	Terminate	
Unknown	1.60003	10/21/0116 05:37.52	00000096	0.001	Inter828t1-2	1.611	1	2	0.000	24.444	-0.3	0.000	0.000	D	F	16.7	0.000	0.188	0.000	1905.911	404.971	0.025	-	-0.000	-0.000	-	-	-	CAR1	-	20.443	-	FREEWAY_GENERAL	Urban	F	1011101000001011	0000000000000000	-	-	-	-	-	-	-	-	-	-	Terminate	
Unknown	1.61670	10/21/0116 05:37.52	00000097	0.001	Inter828t1-2	1.611	1	2	0.000	24.444	-0.3	0.000	0.000	D	F	22.2	0.000	0.188	0.000	1905.911	404.971	0.025	-	-0.000	0.000	-	-	-	CAR1	-	20.602	-	FREEWAY_GENERAL	Urban	F	1011101000001011	0000000000000000	-	-	-	-	-	-	-	-	-	-	Terminate	
Unknown	1.63337	10/21/0116 05:37.52	00000098	0.001	Inter828t1-2	1.611	1	2	0.000	24.444	-0.3	0.000	0.000	D	F	27.8	0.000	0.189	0.000	1905.911	404.971	0.025	-	-0.000	0.001	-	-	-	CAR1	-	20.762	-	FREEWAY_GENERAL	Urban	F	1011101000001011	0000000000000000	-	-	-	-	-	-	-	-	-	-	Terminate	
Unknown	1.65003	10/21/0116 05:37.52	00000099	0.001	Inter828t1-2	1.611	1	2	0.000	24.444	-0.3	0.000	0.000	D	F	33.3	0.000	0.189	0.000	1905.911	404.971	0.025	-	-0.000	0.002	-	-	-	CAR1	-	20.923	-	FREEWAY_GENERAL	Urban	F	1011101000001011	0000000000000000	-	-	-	-	-	-	-	-	-	-	Terminate	
Unknown	1.66670	10/21/0116 05:37.52	00000100	0.001	Inter828t1-2	1.611	1	2	0.000	24.444	-0.3	0.000	0.000	D	F	38.9	0.000	0.190	0.000	1905.911	404.971	0.025	-	-0.000	0.002	-	-	-	CAR1	-	21.087	-	FREEWAY_GENERAL	Urban	F	1011101000001011	0000000000000000	-	-	-	-	-	-	-	-	-	-	Terminate	
Unknown	1.68337	10/21/0116 05:37.52	00000101	0.001	Inter828t1-2	1.611	1	2	0.000	24.444	-0.3	0.000	0.000	D	F	44.4	0.000	0.190	0.000	1905.911	404.971	0.025	-	-0.000	0.002	-	-	-	CAR1	-	21.252	-	FREEWAY_GENERAL	Urban	F	1011101000001011	0000000000000000	-	-	-	-	-	-	-	-	-	-	Terminate	
Unknown	1.70003	10/21/0116 05:37.52	00000102	0.001	Inter828t1-2	1.611	1	2	0.000	24.444	-0.3	0.000	0.000	D	F	50.0	0.000	0.191	0.000	1905.911	404.971	0.025	-	-0.000	0.003	-	-	-	CAR1	-	21.418	-	FREEWAY_GENERAL	Urban	F	1011101000001011	0000000000000000	-	-	-	-	-	-	-	-	-	-	Terminate	
Unknown	1.71670	10/21/0116 05:37.52	00000103	0.001	Inter828t1-2	1.611	1	2	0.000	24.444	-0.3	0.000	0.000	D	F	55.6	0.000	0.191	0.000	1905.911	404.971	0.025	-	-0.000	0.003	-	-	-	CAR1	-	21.586	-	FREEWAY_GENERAL	Urban	F	1011101000001011	0000000000000000	-	-	-	-	-	-	-	-	-	-	Terminate	
Unknown	1.73337	10/21/0116 05:37.52	00000104	0.001	Inter828t1-2	1.611	1	2	0.000	24.444	-0.3	0.000	0.000	D	F	61.1	0.000	0.192	0.000	1905.911	404.971	0.025	-	-0.000	0.003	-	-	-	CAR1	-	21.756	-	FREEWAY_GENERAL	Urban	F	1011101000001011	0000000000000000	-	-	-	-	-	-	-	-	-	-	Terminate	
Unknown	1.75004	10/21/0116 05:37.52	00000105	0.001	Inter828t1-2	1.611	1	2	0.000	24.444	-0.3	0.000	0.000	D	F	66.7	0.000	0.192	0.000	1905.911	404.971	0.025	-	-0.000	0.003	-	-	-	CAR1	-	21.928	-	FREEWAY_GENERAL	Urban	F	1011101000001011	0000000000000000	-	-	-	-	-	-	-	-	-	-	Terminate	
Unknown	1.76670	10/21/0116 05:37.52	00000106	0.001	Inter828t1-2	1.611	1	2	0.000	24.444	-0.3	0.000	0.000	D	F	72.2	0.000	0.193	0.000	1905.911	404.971	0.025	-	-0.000	0.003	-	-	-	CAR1	-	22.101	-	FREEWAY_GENERAL	Urban	F	1011101000001011	0000000000000000	-	-	-	-	-	-	-	-	-	-	Terminate	
Unknown	1.78337	10/21/0116 05:37.52	00000107	0.001	Inter828t1-2	1.611	1	2	0.000	24.444	-0.3	0.000	0.000	D	F	77.8	0.000	0.193	0.000	1905.911	404.971	0.026	-	-0.000	0.003	-	-	-	CAR1	-	22.276	-	FREEWAY_GENERAL	Urban	F	1111101000001011	0000000000000000	-	-	-	-	-	-	-	-	-	-	Terminate	
Unknown	1.80004	10/21/0116 05:37.53	00000108	0.001	Inter828t1-2	1.611	1	2	0.000	24.444	-0.3	0.000	0.000	D	F	83.3	0.000	0.193	0.000	1905.911	404.971	0.026	-	-0.000	0.003	-	-	-	CAR1	-	22.453	-	FREEWAY_GENERAL	Urban	F	1011101000001011	0000000000000000	-	-	-	-	-	-	-	-	-	-	Terminate	
Unknown	1.81670	10/21/0116 05:37.53	00000109	0.001	Inter828t1-2	1.611	1	2	0.000	24.444	-0.3	0.000	0.000	D	F	88.9	0.000	0.194	0.000	1905.911	404.972	0.026	-	-0.000	0.002	-	-	-	CAR1	-	22.631	-	FREEWAY_GENERAL	Urban	F	1011101000001011	0000000000000000	-	-	-	-	-	-	-	-	-	-	Terminate	
Unknown	1.83337	10/21/0116 05:37.53	00000110	0.001	Inter828t1-2	1.611	1	2	0.000	24.444	-0.3	0.000	0.000	D	F	94.4	0.000	0.194	0.000	1905.911	404.972	0.026	-	-0.000	0.002	-	-	-	CAR1	-	22.811	-	FREEWAY_GENERAL	Urban	F	1011101000001011	0000000000000000	-	-	-	-	-	-	-	-	-	-	Terminate	
Unknown	1.85004	10/21/0116 05:37.53	00000111	0.001	Inter828t1-2	1.611	1	2	0.000	24.444	-0.3	0.000	0.000	D	F	100.0	0.000	0.195	0.000	1905.911	404.972	0.026	-	-0.000	0.002	-	-	-	CAR1	-	22.993	-	FREEWAY_GENERAL	Urban	F	1011101000001011	0000000000000000	-	-	-	-	-	-	-	-	-	-	Terminate	
Unknown	1.86670	10/21/0116 05:37.53	00000112	0.002	Inter828t1-2	1.611	1	2	0.000	24.444	-0.3	0.000	0.000	D	F	105.6	0.000	0.195	0.000	1905.911	404.972	0.026	-	-0.000	0.002	-	-	-	CAR1	-	23.176	-	FREEWAY_GENERAL	Urban	F	1011101000001011	0000000000000000	-	-	-	-	-	-	-	-	-	-	Terminate	
Unknown	1.88337	10/21/0116 05:37.53	00000113	0.002	Inter828t1-2	1.611	1	2	0.000	24.444	-0.3	0.000	0.000	D	F	111.1	0.000	0.195	0.000	1905.911	404.972	0.026	-	-0.000	0.002	-	-	-	CAR1	-	23.361	-	FREEWAY_GENERAL	Urban	F	1011101000001011	0000000000000000	-	-	-	-	-	-	-	-	-	-	Terminate	
Unknown	1.90004	10/21/0116 05:37.53	00000114	0.002	Inter828t1-2	1.611	1	2	0.000	24.444	-0.3	0.000	0.000	D	F	116.7	0.000	0.196	0.000	1905.911	404.972	0.026	-	-0.000	0.001	-	-	-	CAR1	-	23.548	-	FREEWAY_GENERAL	Urban	F	1011101000001011	0000000000000000	-	-	-	-	-	-	-	-	-	-	Terminate	
Unknown	1.91671	10/21/0116 05:37.53	00000115	0.002	Inter828t1-2	1.611	1	2	0.000	24.444	-0.3	0.000	0.000	D	F	122.2	0.000	0.196	0.000	1905.911	404.972	0.026	-	-0.000	0.001	-	-	-	CAR1	-	23.736	-	FREEWAY_GENERAL	Urban	F	1011101000001011	0000000000000000	-	-	-	-	-	-	-	-	-	-	Terminate	
Unknown	1.93337	10/21/0116 05:37.53	00000116	0.002	Inter828t1-2	1.611	1	2	0.000	24.444	-0.3	0.000	0.000	D	F	127.8	0.000	0.196	0.000	1905.911	404.972	0.026	-	-0.000	0.001	-	-	-	CAR1	-	23.926	-	FREEWAY_GENERAL	Urban	F	1011101000001011	0000000000000000	-	-	-	-	-	-	-	-	-	-	Terminate	
Unknown	1.95004	10/21/0116 05:37.53	00000117	0.002	Inter828t1-2	1.611	1	2	0.000	24.444	-0.3	0.000	0.000	D	F	133.3	0.000	0.196	0.000	1905.911	404.972	0.026	-	-0.000	0.001	-	-	-	CAR1	-	24.118	-	FREEWAY_GENERAL	Urban	F	1011101000001011	0000000000000000	-	-	-	-	-	-	-	-	-	-	Terminate	
Unknown	1.96671	10/21/0116 05:37.53	00000118	0.002	Inter828t1-2	1.611	1	2	0.000	24.444	-0.3	0.000	0.000	D	F	138.9	0.000	0.197	0.000	1905.911	404.972	0.026	-	-0.000	0.001	-	-	-	CAR1	-	24.311	-	FREEWAY_GENERAL	Urban	F	1011101000001011	0000000000000000	-	-	-	-	-	-	-	-	-	-	Terminate	
Unknown	1.98337	10/21/0116 05:37.53	00000119	0.002	Inter828t1-2	1.611	1	2	0.000	24.444	-0.3	0.000	0.000	D	F	144.4	0.000	0.197	0.000	1905.911	404.972	0.026	-	-0.000	0.001	-	-	-	CAR1	-	24.506	-	FREEWAY_GENERAL	Urban	F	1011101000001011	0000000000000000	-	-	-	-	-	-	-	-	-	-	Terminate	
Unknown	2.00004	10/21/0116 05:37.53	00000120	0.002	Inter828t1-2	1.611	1	2	0.000	24.444	-0.3	0.000	0.000	D	F	150.0	0.000	0.197	0.000	1905.911	404.972	0.026	-	-0.000	0.000	-	-	-	CAR1	-	24.703	-	FREEWAY_GENERAL	Urban	F	1011101000001011	0000000000000000	-	-	-	-	-	-	-	-	-	-	Terminate	
Unknown	2.01671	10/21/0116 05:37.53	00000121	0.002	Inter828t1-2	1.611	1	2	0.000	24.444	-0.3	0.000	0.000	D	F	155.6	0.000	0.198	0.000	1905.911	404.972	0.026	-	-0.000	0.000	-	-	-	CAR1	-	24.901	-	FREEWAY_GENERAL	Urban	F	1011101000001011	0000000000000000	-	-	-	-	-	-	-	-	-	-	Terminate	
Unknown	2.03337	10/21/0116 05:37.53	00000122	0.002	Inter828t1-2	1.611	1	2	0.000	24.444	-0.3	0.000	0.000	D	F	161.1	0.000	0.198	0.000	1905.911	404.972	0.026	-	-0.000	0.000	-	-	-	CAR1	-	25.101	-	FREEWAY_GENERAL	Urban	F	1011101000001011	0000000000000000	-	-	-	-	-	-	-	-	-	-	Terminate	
Unknown	2.05004	10/21/0116 05:37.53	00000123	0.002	Inter828t1-2	1.611	1	2	0.000	24.444	-0.3	0.000	0.000	D	F	166.7	0.000	0.198	0.000	1905.911	404.972	0.026	-	-0.000	0.000	-	-	-	CAR1	-	25.303	-	FREEWAY_GENERAL	Urban	F	1011101000001011	0000000000000000	-	-	-	-	-	-	-	-	-	-	Terminate	
Unknown	2.06671	10/21/0116 05:37.53	00000124	0.002	Inter828t1-2	1.611	1	2	0.000	24.444	-0.3	0.000	0.000	D	F	172.2	0.000	0.198	0.000	1905.911	404.972	0.026	-	-0.000	0.000	-	-	-	CAR1	-	25.506	-	FREEWAY_GENERAL	Urban	F	1011101000001011	0000000000000000	-	-	-	-	-	-	-	-	-	-	Terminate	
Unknown	2.08337	10/21/0116 05:37.53	00000125	0.002	Inter828t1-2	1.611	1	2	0.000	24.444	-0.3	0.000	0.000	D	F	177.8	0.000	0.199	0.000	1905.911	404.972	0.026	-	-0.000	0.000	-	-	-	CAR1	-	25.711	-	FREEWAY_GENERAL	Urban	F	1011101000001011	0000000000000000	-	-	-	-	-	-	-	-	-	-	Terminate	
Unknown	2.10004	10/21/0116 05:37.53	00000126	0.002	Inter828t1-2	1.611	1	2	0.000	24.444	-0.3	0.000	0.000	D	F	183.3	0.000	0.199	0.000	1905.911	404.972	0.026	-	-0.000	-0.000	-	-	-	CAR1	-	25.918	-	FREEWAY_GENERAL	Urban	F	1011101000001011	0000000000000000	-	-	-	-	-	-	-	-	-	-	Terminate	
Unknown	2.11671	10/21/0116 05:37.53	00000127	0.002	Inter828t1-2	1.611	1	2	0.000	24.444	-0.3	0.000	0.000	D	F	188.9	0.000	0.199	-0.000	1905.911	404.972	0.026	-	-0.000	-0.000	-	-	-	CAR1	-	26.126	-	FREEWAY_GENERAL	Urban	F	1011101000001011	0000000000000000	-	-	-	-	-	-	-	-	-	-	Terminate	
Unknown	2.13338	10/21/0116 05:37.53	00000128	0.002	Inter828t1-2	1.611	1	2	0.000	24.444	-0.3	0.000	0.000	D	F	194.4	0.000	0.199	-0.000	1905.911	404.972	0.027	-	-0.000	-0.000	-	-	-	CAR1	-	26.336	-	FREEWAY_GENERAL	Urban	F	1011101000001011	0000000000000000	-	-	-	-	-	-	-	-	-	-	Terminate	
Unknown	2.15004	10/21/0116 05:37.53	00000129	0.002	Inter828t1-2	1.611	1	2	0.000	24.444	-0.3	0.000	0.000	D	F	200.0	0.000	0.200	-0.000	1905.911	404.972	0.027	-	-0.000	-0.000	-	-	-	CAR1	-	26.547	-	FREEWAY_GENERAL	Urban	F	1011101000001011	0000000000000000	-	-	-	-	-	-	-	-	-	-	Terminate	
Unknown	2.16671	10/21/0116 05:37.53	00000130	0.002	Inter828t1-2	1.611	1	2	0.000	24.444	-0.3	0.000	0.000	D	F	205.6	0.000	0.200	-0.000	1905.911	404.972	0.027	-	-0.000	-0.000	-	-	-	CAR1	-	26.761	-	FREEWAY_GENERAL	Urban	F	1011101000001011	0000000000000000	-	-	-	-	-	-	-	-	-	-	Terminate	
Unknown	2.18338	10/21/0116 05:37.53	00000131	0.002	Inter828t1-2	1.611	1	2	0.000	24.444	-0.3	0.000	0.000	D	F	211.1	0.000	0.200	-0.000	1905.911	404.972	0.027	-	-0.000	-0.000	-	-	-	CAR1	-	26.976	-	FREEWAY_GENERAL	Urban	F	1011101000001011	0000000000000000	-	-	-	-	-	-	-	-	-	-	Terminate	
Unknown	2.20004	10/21/0116 05:37.53	00000132	0.002	Inter828t1-2	1.611	1	2	0.000	24.444	-0.3	0.000	0.000	D	F	216.7	0.000	0.200	-0.000	1905.911	404.972	0.027	-	-0.000	-0.001	-	-	-	CAR1	-	27.192	-	FREEWAY_GENERAL	Urban	F	1011101000001011	0000000000000000	-	-	-	-	-	-	-	-	-	-	Terminate	
Unknown	2.21671	10/21/0116 05:37.53	00000133	0.002	Inter828t1-2	1.611	1	2	0.000	24.444	-0.3	0.000	0.000	D	F	222.2	0.000	0.201	-0.000	1905.911	404.972	0.027	-	-0.000	-0.001	-	-	-	CAR1	-	27.411	-	FREEWAY_GENERAL	Urban	F	1011101000001011	0000000000000000	-	-	-	-	-	-	-	-	-	-	Terminate	
Unknown	2.23338	10/21/0116 05:37.53	00000134	0.002	Inter828t1-2	1.611	1	2	0.000	24.444	-0.3	0.000	0.000	D	F	227.8	0.000	0.201	-0.000	1905.911	404.972	0.027	-	-0.000	-0.001	-	-	-	CAR1	-	27.631	-	FREEWAY_GENERAL	Urban	F	1011101000001011	0000000000000000	-	-	-	-	-	-	-	-	-	-	Terminate	
Unknown	2.25005	10/21/0116 05:37.53	00000135	0.002	Inter828t1-2	1.611	1	2	0.000	24.444	-0.3	0.000	0.000	D	F	233.3	0.000	0.201	-0.000	1905.911	404.972	0.027	-	-0.000	-0.001	-	-	-	CAR1	-	27.852	-	FREEWAY_GENERAL	Urban	F	1111101000001011	0000000000000000	-	-	-	-	-	-	-	-	-	-	Terminate	
Unknown	2.26671	10/21/0116 05:37.53	00000136	0.002	Inter828t1-2	1.611	1	2	0.000	24.444	-0.3	0.000	0.000	D	F	238.9	0.000	0.201	-0.000	1905.911	404.972	0.027	-	-0.000	-0.001	-	-	-	CAR1	-	28.076	-	FREEWAY_GENERAL	Urban	F	1111101000001011	0000000000000000	-	-	-	-	-	-	-	-	-	-	Terminate	
Unknown	2.28338	10/21/0116 05:37.53	00000137	0.002	Inter828t1-2	1.611	1	2	0.000	24.444	-0.3	0.000	0.000	D	F	244.4	0.000	0.201	-0.000	1905.911	404.972	0.027	-	-0.000	-0.001	-	-	-	CAR1	-	28.301	-	FREEWAY_GENERAL	Urban	F	1111101000001011	0000000000000000	-	-	-	-	-	-	-	-	-	-	Terminate	
Unknown	2.30005	10/21/0116 05:37.53	00000138	0.002	Inter828t1-2	1.611	1	2	0.000	24.444	-0.3	0.000	0.000	D	F	250.0	0.000	0.202	-0.000	1905.911	404.972	0.027	-	-0.000	-0.001	-	-	-	CAR1	-	28.527	-	FREEWAY_GENERAL	Urban	F	1011101000001011	0000000000000000	-	-	-	-	-	-	-	-	-	-	Terminate	
Unknown	2.31671	10/21/0116 05:37.53	00000139	0.002	Inter828t1-2	1.611	1	2	0.000	24.444	-0.3	0.000	0.000	D	F	255.6	0.000	0.202	-0.000	1905.911	404.972	0.027	-	-0.000	-0.001	-	-	-	CAR1	-	28.756	-	FREEWAY_GENERAL	Urban	F	1011101000001011	0000000000000000	-	-	-	-	-	-	-	-	-	-	Terminate	
Unknown	2.33338	10/21/0116 05:37.53	00000140	0.001	Inter828t1-2	1.611	1	2	0.000	24.444	-0.3	0.000	0.000	D	F	261.1	0.000	0.202	-0.000	1905.911	404.972	0.027	-	-0.000	-0.001	-	-	-	CAR1	-	28.986	-	FREEWAY_GENERAL	Urban	F	1011101000001011	0000000000000000	-	-	-	-	-	-	-	-	-	-	Terminate	
Unknown	2.35005	10/21/0116 05:37.53	00000141	0.001	Inter828t1-2	1.611	1	2	0.000	24.444	-0.3	0.000	0.000	D	F	266.7	0.000	0.202	-0.000	1905.911	404.972	0.027	-	-0.000	-0.001	-	-	-	CAR1	-	29.217	-	FREEWAY_GENERAL	Urban	F	1011101000001011	0000000000000000	-	-	-	-	-	-	-	-	-	-	Terminate	
Unknown	2.36671	10/21/0116 05:37.53	00000142	0.001	Inter828t1-2	1.611	1	2	0.000	24.444	-0.3	0.000	0.000	D	F	272.2	0.000	0.202	-0.000	1905.911	404.972	0.027	-	-0.000	-0.001	-	-	-	CAR1	-	29.451	-	FREEWAY_GENERAL	Urban	F	1011101000001011	0000000000000000	-	-	-	-	-	-	-	-	-	-	Terminate	
Unknown	2.38338	10/21/0116 05:37.53	00000143	0.001	Inter828t1-2	1.611	1	2	0.000	24.444	-0.3	0.000	0.000	D	F	277.8	0.000	0.202	-0.000	1905.911	404.972	0.027	-	-0.000	-0.001	-	-	-	CAR1	-	29.686	-	FREEWAY_GENERAL	Urban	F	1011101000001011	0000000000000000	-	-	-	-	-	-	-	-	-	-	Terminate	
Unknown	2.40005	10/21/0116 05:37.53	00000144	0.001	Inter828t1-2	1.611	1	2	0.000	24.444	-0.3	0.000	0.000	D	F	283.3	0.000	0.203	-0.000	1905.911	404.973	0.027	-	-0.000	-0.001	-	-	-	CAR1	-	29.922	-	FREEWAY_GENERAL	Urban	F	1111101000001011	0000000000000000	-	-	-	-	-	-	-	-	-	-	Terminate	
Unknown	2.41671	10/21/0116 05:37.53	00000145	0.001	Inter828t1-2	1.611	1	2	0.000	24.444	-0.3	0.000	0.000	D	F	288.9	0.000	0.203	-0.000	1905.911	404.973	0.027	-	-0.000	-0.001	-	-	-	CAR1	-	30.161	-	FREEWAY_GENERAL	Urban	F	1011101000001011	0000000000000000	-	-	-	-	-	-	-	-	-	-	Terminate	
Unknown	2.43338	10/21/0116 05:37.53	00000146	0.001	Inter828t1-2	1.611	1	2	0.000	24.444	-0.3	0.000	0.000	D	F	294.4	0.000	0.203	-0.000	1905.911	404.973	0.027	-	-0.000	-0.001	-	-	-	CAR1	-	30.401	-	FREEWAY_GENERAL	Urban	F	1011101000001011	0000000000000000	-	-	-	-	-	-	-	-	-	-	Terminate	
Unknown	2.45005	10/21/0116 05:37.53	00000147	0.001	Inter828t1-2	1.611	1	2	0.000	24.444	-0.3	0.000	0.000	D	F	300.0	0.000	0.203	-0.000	1905.911	404.973	0.027	-	-0.000	-0.001	-	-	-	CAR1	-	30.642	-	FREEWAY_GENERAL	Urban	F	1011101000001011	0000000000000000	-	-	-	-	-	-	-	-	-	-	Terminate	
Unknown	2.46672	10/21/0116 05:37.53	00000148	0.001	Inter828t1-2	1.611	1	2	0.000	24.444	-0.3	0.000	0.000	D	F	305.6	0.000	0.203	-0.000	1905.911	404.973	0.027	-	-0.000	-0.001	-	-	-	CAR1	-	30.885	-	FREEWAY_GENERAL	Urban	F	1011101000001011	0000000000000000	-	-	-	-	-	-	-	-	-	-	Terminate	
Unknown	2.48338	10/21/0116 05:37.53	00000149	0.001	Inter828t1-2	1.611	1	2	0.000	24.444	-0.3	0.000	0.000	D	F	311.1	0.000	0.203	-0.000	1905.911	404.973	0.027	-	-0.000	-0.001	-	-	-	CAR1	-	31.130	-	FREEWAY_GENERAL	Urban	F	1011101000001011	0000000000000000	-	-	-	-	-	-	-	-	-	-	Terminate	
Unknown	2.50005	10/21/0116 05:37.53	00000150	0.001	Inter828t1-2	1.611	1	2	0.000	24.444	-0.3	0.000	0.000	D	F	316.7	0.000	0.203	-0.000	1905.911	404.973	0.027	-	-0.000	-0.001	-	-	-	CAR1	-	31.377	-	FREEWAY_GENERAL	Urban	F	1011101000001011	0000000000000000	-	-	-	-	-	-	-	-	-	-	Terminate	
Unknown	2.51672	10/21/0116 05:37.53	00000151	0.001	Inter828t1-2	1.611	1	2	0.000	24.444	-0.3	0.000	0.000	D	F	322.2	0.000	0.204	-0.000	1905.911	404.973	0.027	-	-0.000	-0.001	-	-	-	CAR1	-	31.625	-	FREEWAY_GENERAL	Urban	F	1011101000001011	0000000000000000	-	-	-	-	-	-	-	-	-	-	Terminate	
Unknown	2.53338	10/21/0116 05:37.53	00000152	0.001	Inter828t1-2	1.611	1	2	0.000	24.444	-0.3	0.000	0.000	D	F	327.8	0.000	0.204	-0.000	1905.911	404.973	0.027	-	-0.000	-0.001	-	-	-	CAR1	-	31.875	-	FREEWAY_GENERAL	Urban	F	1011101000001011	0000000000000000	-	-	-	-	-	-	-	-	-	-	Terminate	
Unknown	2.55005	10/21/0116 05:37.53	00000153	0.001	Inter828t1-2	1.611	1	2	0.000	24.444	-0.3	0.000	0.000	D	F	333.3	0.000	0.204	-0.000	1905.911	404.973	0.027	-	-0.000	-0.001	-	-	-	CAR1	-	32.127	-	FREEWAY_GENERAL	Urban	F	1011101000001011	0000000000000000	-	-	-	-	-	-	-	-	-	-	Terminate	
Unknown	2.56672	10/21/0116 05:37.53	00000154	0.001	Inter828t1-2	1.611	1	2	0.000	24.444	-0.3	0.000	0.000	D	F	338.9	0.000	0.204	-0.000	1905.911	404.973	0.027	-	-0.000	-0.001	-	-	-	CAR1	-	32.380	-	FREEWAY_GENERAL	Urban	F	1011101000001011	0000000000000000	-	-	-	-	-	-	-	-	-	-	Terminate	
Unknown	2.58338	10/21/0116 05:37.53	00000155	0.001	Inter828t1-2	1.611	1	2	0.000	24.444	-0.3	0.000	0.000	D	F	344.4	0.000	0.204	-0.000	1905.911	404.973	0.027	-	-0.000	-0.001	-	-	-	CAR1	-	32.635	-	FREEWAY_GENERAL	Urban	F	1111101000001001	0000000000000000	-	-	-	-	-	-	-	-	-	-	Terminate	
Unknown	2.60005	10/21/0116 05:37.53	00000156	0.001	Inter828t1-2	1.611	1	2	0.000	24.444	-0.3	0.000	0.000	D	F	350.0	0.000	0.204	-0.000	1905.911	404.973	0.027	-	-0.000	-0.001	-	-	-	CAR1	-	32.892	-	FREEWAY_GENERAL	Urban	F	1011101000001001	0000000000000000	-	-	-	-	-	-	-	-	-	-	Terminate	
Unknown	2.61672	10/21/0116 05:37.53	00000157	0.001	Inter828t1-2	1.611	1	2	0.000	24.444	-0.3	0.000	0.000	D	F	355.6	0.000	0.204	-0.000	1905.911	404.973	0.027	-	-0.000	-0.001	-	-	-	CAR1	-	33.150	-	FREEWAY_GENERAL	Urban	F	1011101000001001	0000000000000000	-	-	-	-	-	-	-	-	-	-	Terminate	
Unknown	2.63339	10/21/0116 05:37.53	00000158	0.001	Inter828t1-2	1.611	1	2	0.000	24.444	-0.3	0.000	0.000	D	F	361.1	0.000	0.204	-0.000	1905.911	404.973	0.027	-	-0.000	-0.000	-	-	-	CAR1	-	33.410	-	FREEWAY_GENERAL	Urban	F	1111101000001001	0000000000000000	-	-	-	-	-	-	-	-	-	-	Terminate	
Unknown	2.65005	10/21/0116 05:37.53	00000159	0.001	Inter828t1-2	1.611	1	2	0.000	24.444	-0.3	0.000	0.000	D	F	366.7	0.000	0.205	-0.000	1905.911	404.973	0.027	-	-0.000	-0.000	-	-	-	CAR1	-	33.672	-	FREEWAY_GENERAL	Urban	F	1011101000001001	0000000000000000	-	-	-	-	-	-	-	-	-	-	Terminate	
Unknown	2.66672	10/21/0116 05:37.53	00000160	0.001	Inter828t1-2	1.611	1	2	0.000	24.444	-0.3	0.000	0.000	D	F	372.2	0.000	0.205	-0.000	1905.911	404.973	0.027	-	-0.000	-0.000	-	-	-	CAR1	-	33.935	-	FREEWAY_GENERAL	Urban	F	1111101000001001	0000000000000000	-	-	-	-	-	-	-	-	-	-	Terminate	
Unknown	2.68339	10/21/0116 05:37.53	00000161	0.001	Inter828t1-2	1.611	1	2	0.000	24.444	-0.3	0.000	0.000	D	F	377.8	0.000	0.205	-0.000	1905.911	404.973	0.027	-	-0.000	-0.000	-	-	-	CAR1	-	34.200	-	FREEWAY_GENERAL	Urban	F	1011101000001001	0000000000000000	-	-	-	-	-	-	-	-	-	-	Terminate	
Unknown	2.70005	10/21/0116 05:37.53	00000162	0.001	Inter828t1-2	1.611	1	2	0.000	24.444	-0.3	0.000	0.000	D	F	383.3	0.000	0.205	-0.000	1905.911	404.973	0.027	-	-0.000	-0.000	-	-	-	CAR1	-	32.107	-	FREEWAY_GENERAL	Urban	F	1011101000001001	0000000000000000	-	-	-	-	-	-	-	-	-	-	Terminate	
Unknown	2.71672	10/21/0116 05:37.53	00000163	0.001	Inter828t1-2	1.611	1	2	0.000	24.444	-0.3	0.000	0.000	D	F	388.9	0.000	0.205	-0.000	1905.911	404.973	0.027	-	-0.000	-0.000	-	-	-	CAR1	-	32.376	-	FREEWAY_GENERAL	Urban	F	1011101000001001	0000000000000000	-	-	-	-	-	-	-	-	-	-	Terminate	
Unknown	2.73339	10/21/0116 05:37.53	00000164	0.001	Inter828t1-2	1.611	1	2	0.000	24.444	-0.3	0.000	0.000	D	F	394.4	0.000	0.205	-0.000	1905.911	404.973	0.027	-	-0.000	0.000	-	-	-	CAR1	-	32.646	-	FREEWAY_GENERAL	Urban	F	1011101000001001	0000000000000000	-	-	-	-	-	-	-	-	-	-	Terminate	
Unknown	2.75006	10/21/0116 05:37.53	00000165	0.001	Inter828t1-2	1.611	1	2	0.000	24.444	-0.3	0.000	0.000	D	F	400.0	0.000	0.205	-0.000	1905.911	404.973	0.027	-	-0.000	0.000	-	-	-	CAR1	-	32.917	-	FREEWAY_GENERAL	Urban	F	1011101000001001	0000000000000000	-	-	-	-	-	-	-	-	-	-	Terminate	
Unknown	2.76672	10/21/0116 05:37.53	00000166	0.001	Inter828t1-2	1.611	1	2	0.000	24.444	-0.3	0.000	0.000	D	F	405.6	0.000	0.205	-0.000	1905.911	404.973	0.027	-	-0.000	0.000	-	-	-	CAR1	-	33.191	-	FREEWAY_GENERAL	Urban	F	1011101000001001	0000000000000000	-	-	-	-	-	-	-	-	-	-	Terminate	
Unknown	2.78339	10/21/0116 05:37.53	00000167	0.001	Inter828t1-2	1.611	1	2	0.000	24.444	-0.3	0.000	0.000	D	F	411.1	0.000	0.205	-0.000	1905.911	404.973	0.027	-	-0.000	0.001	-	-	-	CAR1	-	33.466	-	FREEWAY_GENERAL	Urban	F	1111101000001001	0000000000000000	-	-	-	-	-	-	-	-	-	-	Terminate	
Unknown	2.80006	10/21/0116 05:37.54	00000168	0.001	Inter828t1-2	1.611	1	2	0.000	24.444	-0.3	0.000	0.000	D	F	416.7	0.000	0.206	-0.000	1905.911	404.973	0.027	-	-0.000	0.001	-	-	-	CAR1	-	33.742	-	FREEWAY_GENERAL	Urban	F	1111101000001001	0000000000000000	-	-	-	-	-	-	-	-	-	-	Terminate	
Unknown	2.81672	10/21/0116 05:37.54	00000169	0.001	Inter828t1-2	1.611	1	2	0.000	24.444	-0.3	0.000	0.000	D	F	422.2	0.000	0.206	-0.000	1905.911	404.973	0.027	-	-0.000	0.001	-	-	-	CAR1	-	34.021	-	FREEWAY_GENERAL	Urban	F	1011101000001001	0000000000000000	-	-	-	-	-	-	-	-	-	-	Terminate	
Unknown	2.83339	10/21/0116 05:37.54	00000170	0.001	Inter828t1-2	1.611	1	2	0.000	24.444	-0.3	0.000	0.000	D	F	427.8	0.000	0.206	-0.000	1905.911	404.973	0.027	-	-0.000	0.001	-	-	-	CAR1	-	34.301	-	FREEWAY_GENERAL	Urban	F	1011101000001001	0000000000000000	-	-	-	-	-	-	-	-	-	-	Terminate	
Unknown	2.85006	10/21/0116 05:37.54	00000171	0.001	Inter828t1-2	1.611	1	2	0.000	24.444	-0.3	0.000	0.000	D	F	433.3	0.000	0.206	-0.000	1905.911	404.973	0.027	-	-0.000	0.001	-	-	-	CAR1	-	34.582	-	FREEWAY_GENERAL	Urban	F	1011101000001001	0000000000000000	-	-	-	-	-	-	-	-	-	-	Terminate	
Unknown	2.86672	10/21/0116 05:37.54	00000172	0.001	Inter828t1-2	1.611	1	2	0.000	24.444	-0.3	0.000	0.000	D	F	438.9	0.000	0.206	-0.000	1905.911	404.973	0.027	-	-0.000	0.002	-	-	-	CAR1	-	34.866	-	FREEWAY_GENERAL	Urban	F	1011101000001001	0000000000000000	-	-	-	-	-	-	-	-	-	-	Terminate	
Unknown	2.88339	10/21/0116 05:37.54	00000173	0.001	Inter828t1-2	1.611	1	2	0.000	24.444	-0.3	0.000	0.000	D	F	444.4	0.000	0.206	0.000	1905.911	404.973	0.028	-	-0.000	0.002	-	-	-	CAR1	-	35.151	-	FREEWAY_GENERAL	Urban	F	1011101000001001	0000000000000000	-	-	-	-	-	-	-	-	-	-	Terminate	
Unknown	2.90006	10/21/0116 05:37.54	00000174	0.001	Inter828t1-2	1.611	1	2	0.000	24.444	-0.3	0.000	0.000	D	F	450.0	0.000	0.206	0.000	1905.911	404.973	0.028	-	-0.000	0.002	-	-	-	CAR1	-	35.437	-	FREEWAY_GENERAL	Urban	F	1011101000001001	0000000000000000	-	-	-	-	-	-	-	-	-	-	Terminate	
Unknown	2.91672	10/21/0116 05:37.54	00000175	0.002	Inter828t1-2	1.611	1	2	0.000	24.444	-0.3	0.000	0.000	D	F	455.6	0.000	0.206	0.000	1905.911	404.973	0.028	-	-0.000	0.003	-	-	-	CAR1	-	35.726	-	FREEWAY_GENERAL	Urban	F	1011101000001001	0000000000000000	-	-	-	-	-	-	-	-	-	-	Terminate	
Unknown	2.93339	10/21/0116 05:37.54	00000176	0.002	Inter828t1-2	1.611	1	2	0.000	24.444	-0.3	0.000	0.000	D	F	461.1	0.000	0.206	0.000	1905.911	404.973	0.028	-	-0.000	0.003	-	-	-	CAR1	-	36.016	-	FREEWAY_GENERAL	Urban	F	1011101000001001	0000000000000000	-	-	-	-	-	-	-	-	-	-	Terminate	
Unknown	2.95006	10/21/0116 05:37.54	00000177	0.002	Inter828t1-2	1.611	1	2	0.000	24.444	-0.3	0.000	0.000	D	F	466.7	0.000	0.206	0.000	1905.911	404.973	0.028	-	-0.000	0.004	-	-	-	CAR1	-	36.307	-	FREEWAY_GENERAL	Urban	F	1011101000001001	0000000000000000	-	-	-	-	-	-	-	-	-	-	Terminate	
Unknown	2.96673	10/21/0116 05:37.54	00000178	0.002	Inter828t1-2	1.611	1	2	0.000	24.444	-0.3	0.000	0.000	D	F	472.2	0.000	0.206	0.000	1905.911	404.973	0.028	-	-0.000	0.004	-	-	-	CAR1	-	36.601	-	FREEWAY_GENERAL	Urban	F	1011101000001001	0000000000000000	-	-	-	-	-	-	-	-	-	-	Terminate	
Unknown	2.98339	10/21/0116 05:37.54	00000179	0.002	Inter828t1-2	1.611	1	2	0.000	24.444	-0.3	0.000	0.000	D	F	477.8	0.000	0.207	0.000	1905.911	404.973	0.028	-	-0.000	0.005	-	-	-	CAR1	-	36.896	-	FREEWAY_GENERAL	Urban	F	1011101000001001	0000000000000000	-	-	-	-	-	-	-	-	-	-	Terminate	
Unknown	3.00006	10/21/0116 05:37.54	00000180	0.002	Inter828t1-2	1.611	1	2	0.000	24.444	-0.3	0.000	0.000	D	F	483.3	0.000	0.207	0.000	1905.911	404.973	0.028	-	-0.000	0.006	-	-	-	CAR1	-	37.192	-	FREEWAY_GENERAL	Urban	F	1111101000001001	0000000000000000	-	-	-	-	-	-	-	-	-	-	Terminate	
Unknown	3.01673	10/21/0116 05:37.54	00000181	0.002	Inter828t1-2	1.611	1	2	0.000	24.444	-0.3	0.000	0.000	D	F	488.9	0.000	0.207	0.000	1905.911	404.973	0.028	-	-0.000	0.006	-	-	-	CAR1	-	37.491	-	FREEWAY_GENERAL	Urban	F	1011101000001001	0000000000000000	-	-	-	-	-	-	-	-	-	-	Terminate	
Unknown	3.03339	10/21/0116 05:37.54	00000182	0.002	Inter828t1-2	1.611	1	2	0.000	24.444	-0.3	0.000	0.000	D	F	494.4	0.000	0.207	0.000	1905.911	404.973	0.028	-	-0.000	0.007	-	-	-	CAR1	-	37.790	-	FREEWAY_GENERAL	Urban	F	1011101000001001	0000000000000000	-	-	-	-	-	-	-	-	-	-	Terminate	
Unknown	3.05006	10/21/0116 05:37.54	00000183	0.002	Inter828t1-2	1.611	1	2	0.000	24.444	-0.3	0.000	0.000	D	F	500.0	0.000	0.207	0.000	1905.911	404.973	0.028	-	-0.000	0.008	-	-	-	CAR1	-	38.092	-	FREEWAY_GENERAL	Urban	F	1011101000001001	0000000000000000	-	-	-	-	-	-	-	-	-	-	Terminate	
Unknown	3.06673	10/21/0116 05:37.54	00000184	0.002	Inter828t1-2	1.611	1	2	0.000	24.444	-0.3	0.000	0.000	D	F	500.0	0.000	0.207	0.000	1905.911	404.974	0.028	-	-0.000	0.008	-	-	-	CAR1	-	38.395	-	FREEWAY_GENERAL	Urban	F	1011101000001001	0000000000000000	-	-	-	-	-	-	-	-	-	-	Terminate	
Unknown	3.08340	10/21/0116 05:37.54	00000185	0.003	Inter828t1-2	1.611	1	2	0.000	24.444	-0.3	0.000	0.000	D	F	500.0	0.000	0.207	0.000	1905.911	404.974	0.028	-	-0.000	0.009	-	-	-	CAR1	-	38.700	-	FREEWAY_GENERAL	Urban	F	1011101000001001	0000000000000000	-	-	-	-	-	-	-	-	-	-	Terminate	
Unknown	3.10006	10/21/0116 05:37.54	00000186	0.003	Inter828t1-2	1.611	1	2	0.000	24.444	-0.3	0.000	0.000	D	F	477.5	0.000	0.207	0.000	1905.911	404.974	0.028	-	-0.000	0.011	-	-	-	CAR1	-	39.007	-	FREEWAY_GENERAL	Urban	F	1011101000001001	0000000000000000	-	-	-	-	-	-	-	-	-	-	Terminate	
Unknown	3.11673	10/21/0116 05:37.54	00000187	0.003	Inter828t1-2	1.611	1	2	0.000	24.444	-0.3	0.000	0.000	D	F	477.5	0.000	0.207	0.000	1905.911	404.974	0.028	-	-0.000	0.012	-	-	-	CAR1	-	39.315	-	FREEWAY_GENERAL	Urban	F	1011101000001001	0000000000000000	-	-	-	-	-	-	-	-	-	-	Terminate	
Unknown	3.13340	10/21/0116 05:37.54	00000188	0.003	Inter828t1-2	1.611	1	2	0.000	24.444	-0.3	0.000	0.000	D	F	477.5	0.000	0.207	0.000	1905.911	404.974	0.028	-	-0.000	0.013	-	-	-	CAR1	-	39.625	-	FREEWAY_GENERAL	Urban	F	1011101000001001	0000000000000000	-	-	-	-	-	-	-	-	-	-	Terminate	
Unknown	3.15006	10/21/0116 05:37.54	00000189	0.004	Inter828t1-2	1.611	1	2	0.000	24.444	-0.3	0.000	0.000	D	F	477.5	0.000	0.207	0.000	1905.911	404.974	0.027	-	-0.000	0.014	-	-	-	CAR1	-	39.937	-	FREEWAY_GENERAL	Urban	F	1011101000001001	0000000000000000	-	-	-	-	-	-	-	-	-	-	Terminate	
Unknown	3.16673	10/21/0116 05:37.54	00000190	0.004	Inter828t1-2	1.611	1	2	0.000	24.444	-0.3	0.000	0.000	D	F	477.5	0.000	0.207	0.000	1905.911	404.974	0.027	-	-0.000	0.015	-	-	-	CAR1	-	40.250	-	FREEWAY_GENERAL	Urban	F	1011101000001001	0000000000000000	-	-	-	-	-	-	-	-	-	-	Terminate	
Unknown	3.18340	10/21/0116 05:37.54	00000191	0.004	Inter828t1-2	1.611	1	2	0.000	24.444	-0.3	0.000	0.000	D	F	477.5	0.000	0.207	0.000	1905.911	404.974	0.027	-	-0.000	0.017	-	-	-	CAR1	-	40.565	-	FREEWAY_GENERAL	Urban	F	1011101000001001	0000000000000000	-	-	-	-	-	-	-	-	-	-	Terminate	
Unknown	3.20006	10/21/0116 05:37.54	00000192	0.004	Inter828t1-2	1.611	1	2	0.000	24.444	-0.3	0.000	0.000	D	F	477.5	0.000	0.207	0.000	1905.911	404.974	0.027	-	-0.000	0.018	-	-	-	CAR1	-	40.881	-	FREEWAY_GENERAL	Urban	F	1011101000001001	0000000000000000	-	-	-	-	-	-	-	-	-	-	Terminate	
Unknown	3.21673	10/21/0116 05:37.54	00000193	0.005	Inter828t1-2	1.611	1	2	0.000	24.444	-0.3	0.000	0.000	D	F	477.5	0.000	0.207	0.000	1905.911	404.974	0.027	-	-0.000	0.019	-	-	-	CAR1	-	41.200	-	FREEWAY_GENERAL	Urban	F	1011101000001001	0000000000000000	-	-	-	-	-	-	-	-	-	-	Terminate	
Unknown	3.23340	10/21/0116 05:37.54	00000194	0.005	Inter828t1-2	1.611	1	2	0.000	24.444	-0.3	0.000	0.000	D	F	477.5	0.000	0.207	0.000	1905.911	404.974	0.027	-	-0.000	0.020	-	-	-	CAR1	-	41.519	-	FREEWAY_GENERAL	Urban	F	1011101000001001	0000000000000000	-	-	-	-	-	-	-	-	-	-	Terminate	
Unknown	3.25007	10/21/0116 05:37.54	00000195	0.005	Inter828t1-2	1.611	1	2	0.000	24.444	-0.3	0.000	0.000	D	F	477.5	0.000	0.207	0.000	1905.911	404.974	0.027	-	-0.000	0.022	-	-	-	CAR1	-	41.841	-	FREEWAY_GENERAL	Urban	F	1011101000001001	0000000000000000	-	-	-	-	-	-	-	-	-	-	Terminate	
Unknown	3.26673	10/21/0116 05:37.54	00000196	0.006	Inter828t1-2	1.611	1	2	0.000	24.444	-0.3	0.000	0.000	D	F	477.5	0.000	0.207	0.000	1905.911	404.974	0.027	-	-0.000	0.023	-	-	-	CAR1	-	42.164	-	FREEWAY_GENERAL	Urban	F	1011101000001001	0000000000000000	-	-	-	-	-	-	-	-	-	-	Terminate	
Unknown	3.28340	10/21/0116 05:37.54	00000197	0.006	Inter828t1-2	1.611	1	2	0.000	24.444	-0.3	0.000	0.000	D	F	477.5	0.000	0.207	0.000	1905.911	404.974	0.027	-	-0.000	0.024	-	-	-	CAR1	-	42.489	-	FREEWAY_GENERAL	Urban	F	1011101000001001	0000000000000000	-	-	-	-	-	-	-	-	-	-	Terminate	
Unknown	3.30007	10/21/0116 05:37.54	00000198	0.007	Inter828t1-2	1.611	1	2	0.000	24.444	-0.3	0.000	0.000	D	F	477.5	0.000	0.207	0.000	1905.911	404.975	0.027	-	-0.000	0.025	-	-	-	CAR1	-	42.815	-	FREEWAY_GENERAL	Urban	F	1011101000001001	0000000000000000	-	-	-	-	-	-	-	-	-	-	Terminate	
Unknown	3.31673	10/21/0116 05:37.54	00000199	0.007	Inter828t1-2	1.611	1	2	0.000	24.444	-0.3	0.000	0.000	D	F	477.5	0.000	0.207	0.000	1905.911	404.975	0.027	-	-0.000	0.025	-	-	-	CAR1	-	43.143	-	FREEWAY_GENERAL	Urban	F	1011101000001001	0000000000000000	-	-	-	-	-	-	-	-	-	-	Terminate	
Unknown	3.33340	10/21/0116 05:37.54	00000200	0.008	Inter828t1-2	1.611	1	2	0.000	24.444	-0.3	0.000	0.000	D	F	477.5	0.000	0.207	0.000	1905.911	404.975	0.027	-	-0.000	0.026	-	-	-	CAR1	-	43.473	-	FREEWAY_GENERAL	Urban	F	1011101000001001	0000000000000000	-	-	-	-	-	-	-	-	-	-	Terminate	
Unknown	3.35007	10/21/0116 05:37.54	00000201	0.008	Inter828t1-2	1.611	1	2	0.000	24.444	-0.3	0.000	0.000	D	F	477.5	0.000	0.207	0.000	1905.911	404.975	0.027	-	-0.000	0.027	-	-	-	CAR1	-	43.805	-	FREEWAY_GENERAL	Urban	F	1011101000001001	0000000000000000	-	-	-	-	-	-	-	-	-	-	Terminate	
Unknown	3.36673	10/21/0116 05:37.54	00000202	0.009	Inter828t1-2	1.611	1	2	0.000	24.444	-0.3	0.000	0.000	D	F	477.5	0.000	0.206	0.000	1905.911	404.975	0.027	-	-0.000	0.028	-	-	-	CAR1	-	44.138	-	FREEWAY_GENERAL	Urban	F	1011101000001001	0000000000000000	-	-	-	-	-	-	-	-	-	-	Terminate	
Unknown	3.38340	10/21/0116 05:37.54	00000203	0.009	Inter828t1-2	1.611	1	2	0.000	24.444	-0.3	0.000	0.000	D	F	477.5	0.000	0.206	0.000	1905.911	404.975	0.027	-	-0.000	0.028	-	-	-	CAR1	-	44.472	-	FREEWAY_GENERAL	Urban	F	1011101000001001	0000000000000000	-	-	-	-	-	-	-	-	-	-	Terminate	
Unknown	3.40007	10/21/0116 05:37.54	00000204	0.009	Inter828t1-2	1.611	1	2	0.000	24.444	-0.3	0.000	0.000	D	F	477.5	0.000	0.206	0.000	1905.911	404.975	0.027	-	-0.000	0.029	-	-	-	CAR1	-	44.809	-	FREEWAY_GENERAL	Urban	F	1011101000001001	0000000000000000	-	-	-	-	-	-	-	-	-	-	Terminate	
Unknown	3.41673	10/21/0116 05:37.54	00000205	0.010	Inter828t1-2	1.611	1	2	0.000	24.444	-0.3	0.000	0.000	D	F	477.5	0.000	0.206	0.000	1905.911	404.975	0.027	-	-0.000	0.029	-	-	-	CAR1	-	45.147	-	FREEWAY_GENERAL	Urban	F	1011101000001001	0000000000000000	-	-	-	-	-	-	-	-	-	-	Terminate	
Unknown	3.43340	10/21/0116 05:37.54	00000206	0.010	Inter828t1-2	1.611	1	2	0.000	24.444	-0.3	0.000	0.000	D	F	477.5	0.000	0.206	0.000	1905.911	404.976	0.027	-	-0.000	0.029	-	-	-	CAR1	4348.975	45.486	-	FREEWAY_GENERAL	Urban	F	1011101000001001	0000000000000000	-	-	-	-	-	-	-	-	-	-	Terminate	
Unknown	3.45007	10/21/0116 05:37.54	00000207	0.011	Inter828t1-2	1.611	1	2	0.000	24.444	-0.3	0.000	0.000	D	F	477.5	0.000	0.205	0.000	1905.911	404.976	0.027	-	-0.000	0.030	-	-	-	CAR1	4181.718	45.827	-	FREEWAY_GENERAL	Urban	F	1011101000001001	0000000000000000	-	-	-	-	-	-	-	-	-	-	Terminate	
Unknown	3.46674	10/21/0116 05:37.54	00000208	0.011	Inter828t1-2	1.611	1	2	0.000	24.444	-0.3	0.000	0.000	D	F	477.5	0.000	0.205	0.000	1905.911	404.976	0.027	-	-0.000	0.030	-	-	-	CAR1	4026.636	46.170	-	FREEWAY_GENERAL	Urban	F	1011101000001001	0000000000000000	-	-	-	-	-	-	-	-	-	-	Terminate	
Unknown	3.48340	10/21/0116 05:37.54	00000209	0.012	Inter828t1-2	1.611	1	2	0.000	24.444	-0.3	0.000	0.000	D	F	477.5	0.000	0.205	0.000	1905.911	404.976	0.027	-	-0.000	0.031	-	-	-	CAR1	3882.059	46.515	-	FREEWAY_GENERAL	Urban	F	1111101000001001	0000000000000000	-	-	-	-	-	-	-	-	-	-	Terminate	
Unknown	3.50007	10/21/0116 05:37.54	00000210	0.013	Inter828t1-2	1.611	1	2	0.000	24.444	-0.3	0.000	0.000	D	F	477.5	0.000	0.205	0.000	1905.911	404.976	0.026	-	-0.000	0.031	-	-	-	CAR1	3746.482	46.861	-	FREEWAY_GENERAL	Urban	F	1011101000001001	0000000000000000	-	-	-	-	-	-	-	-	-	-	Terminate	
