ZoneName	Time	SystemTime	Frame	Velocity	LaneName	LanePos	LaneIndex	LaneCount	LaneHeading	SpeedLimit	Steer	Accel	Brake	Gear	Horn	SubjectEngineRPM	SubjectHeading	SubjectPitch	SubjectRoll	SubjectX	SubjectY	SubjectZ	Signal	LatAccel	LongAccel	Collision	CollisionAngle	CollisionVelocity	VehAhead	HeadwayTime	HeadwayDist	TTC	TerrainType	CultureType	Slip	DigitalInputs	DigitalInputs2	ActiveTrigger	EntityName	DistToEntity	TimeToEntity	EntityVelocity	EntityAccel	EntityHeading	EntityX	EntityY	EntityZ	GrabData	
Unknown	0.98335	11/01/0116 09:43.12	00000059	0.002	Inter625t13-0	-0.088	1	2	0.000	11.111	-3.5	0.004	0.000	P	F	0.0	0.000	0.153	0.001	1503.500	523.206	0.019	-	0.000	0.000	-	-	-	-	-	-	-	PAVEMENT_GENERAL	Urban	F	1111101000011101	0000000000010000	-	-	-	-	-	-	-	-	-	-	Terminate	
Unknown	1.98337	11/01/0116 09:43.13	00000119	0.000	Inter625t13-0	-0.088	1	2	0.000	11.111	-3.5	0.051	0.000	P	F	0.0	0.000	0.197	0.000	1503.500	523.208	0.026	-	-0.000	-0.001	-	-	-	-	-	-	-	PAVEMENT_GENERAL	Urban	F	1111101000011101	0000000000010000	-	-	-	-	-	-	-	-	-	-	Terminate	
Unknown	2.98339	11/01/0116 09:43.14	00000179	-0.000	Inter625t13-0	-0.088	1	2	0.000	11.111	-2.6	0.071	0.000	P	F	94.4	0.000	0.206	0.000	1503.500	523.208	0.028	-	0.000	-0.001	-	-	-	-	-	-	-	PAVEMENT_GENERAL	Urban	F	1011101000011111	0000000000010000	-	-	-	-	-	-	-	-	-	-	Terminate	
Unknown	3.98341	11/01/0116 09:43.15	00000239	-0.000	Inter625t13-0	-0.088	1	2	0.000	11.111	-2.7	0.067	0.000	P	F	427.8	0.000	0.208	0.000	1503.500	523.208	0.028	-	-0.000	-0.000	-	-	-	-	-	-	-	PAVEMENT_GENERAL	Urban	F	1011101000011101	0000000000010000	-	-	-	-	-	-	-	-	-	-	Terminate	
Unknown	4.98343	11/01/0116 09:43.16	00000299	-0.000	Inter625t13-0	-0.088	1	2	0.000	11.111	-3.0	0.065	0.000	D	F	909.2	0.000	0.209	-0.000	1503.500	523.208	0.028	-	-0.000	0.002	-	-	-	-	-	-	-	PAVEMENT_GENERAL	Urban	F	1011101000011101	0000000000010000	-	-	-	-	-	-	-	-	-	-	Terminate	
Unknown	5.98345	11/01/0116 09:43.17	00000359	0.353	Inter625t13-0	-0.088	1	2	0.000	11.111	-3.2	0.063	0.000	2	F	1015.8	0.000	0.241	0.000	1503.500	523.266	0.018	-	-0.002	1.592	-	-	-	-	-	-	-	PAVEMENT_GENERAL	Urban	F	1011101000011101	0000000000010000	-	-	-	-	-	-	-	-	-	-	Terminate	
Unknown	6.98347	11/01/0116 09:43.18	00000419	1.184	Inter625t13-0	-0.087	1	2	0.000	11.111	18.1	0.049	0.000	2	F	831.9	0.055	0.212	-0.007	1503.501	524.212	0.022	-	0.036	0.520	-	-	-	-	-	-	-	PAVEMENT_GENERAL	Urban	F	1011101000011101	0000000000010000	-	-	-	-	-	-	-	-	-	-	Terminate	
Unknown	7.98349	11/01/0116 09:43.19	00000479	2.447	Inter625t13-0	-0.054	1	2	0.000	11.111	15.0	0.090	0.000	2	F	1234.0	0.791	0.221	0.002	1503.534	525.970	0.020	-	0.016	1.626	-	-	-	-	-	-	-	PAVEMENT_GENERAL	Urban	F	1011101000011101	0000000000010000	-	-	-	-	-	-	-	-	-	-	Terminate	
Unknown	8.98351	11/01/0116 09:43.20	00000539	4.382	Inter625t13-0	0.024	1	2	0.000	11.111	8.5	0.166	0.000	2	F	1669.9	1.323	0.220	-0.009	1503.612	529.354	0.017	-	0.069	2.002	-	-	-	-	-	-	-	PAVEMENT_GENERAL	Urban	F	1011101000011101	0000000000010000	-	-	-	-	-	-	-	-	-	-	Terminate	
Unknown	9.98353	11/01/0116 09:43.21	00000599	6.435	Inter625t49-0	0.204	1	1	0.005	11.111	-7.7	0.250	0.000	2	F	2142.6	1.982	0.224	0.026	1503.792	534.737	0.016	-	-0.155	2.249	-	-	-	-	-	-	-	PAVEMENT_GENERAL	Urban	F	1011101000011101	0000000000010000	-	-	-	-	-	-	-	-	-	-	Terminate	
Unknown	10.98355	11/01/0116 09:43.22	00000659	8.694	Inter625t49-0	0.367	1	1	0.007	11.111	6.2	0.287	0.000	2	F	2440.6	1.088	0.233	-0.031	1503.955	542.285	0.016	-	0.142	2.586	-	-	-	-	-	-	-	PAVEMENT_GENERAL	Urban	F	1011101000011101	0000000000010000	-	-	-	-	-	-	-	-	-	-	Terminate	
Unknown	11.98357	11/01/0116 09:43.23	00000719	10.420	Inter625t49-0	0.574	1	1	0.008	11.111	-4.6	0.340	0.000	2	F	2133.6	1.089	0.215	0.021	1504.164	551.883	0.019	-	-0.141	1.630	-	-	-	-	-	-	-	PAVEMENT_GENERAL	Urban	F	1011101000011101	0000000000010000	-	-	-	-	-	-	-	-	-	-	Terminate	
Unknown	12.98359	11/01/0116 09:43.24	00000779	11.978	Inter625t49-0	0.758	1	1	0.005	11.111	-0.3	0.409	0.000	2	F	2276.8	0.953	0.213	0.002	1504.349	563.089	0.019	-	-0.004	1.522	-	-	-	-	-	-	-	PAVEMENT_GENERAL	Urban	F	1011101000011101	0000000000010000	-	-	-	-	-	-	-	-	-	-	Terminate	
Unknown	13.98361	11/01/0116 09:43.25	00000839	13.450	Inter625t49-0	0.952	1	1	0.005	11.111	-2.9	0.430	0.000	2	F	2443.2	0.655	0.211	0.024	1504.545	575.808	0.020	-	-0.150	1.444	-	-	-	-	-	-	-	PAVEMENT_GENERAL	Urban	F	1011101000011101	0000000000010000	-	-	-	-	-	-	-	-	-	-	Terminate	
Unknown	14.98363	11/01/0116 09:43.26	00000899	14.893	Inter625t15-0	1.037	1	2	0.000	11.111	-1.4	0.455	0.000	2	F	2627.8	0.032	0.209	0.013	1504.630	589.981	0.020	-	-0.107	1.430	-	-	-	12	4.588	68.334	-	PAVEMENT_GENERAL	Urban	F	1011101000011101	0000000000010000	-	-	-	-	-	-	-	-	-	-	Terminate	
Unknown	15.98365	11/01/0116 09:43.27	00000959	16.311	Inter614t1-0	1.007	1	2	0.000	11.111	1.4	0.459	0.000	2	F	2826.3	359.767	0.207	-0.002	1504.600	605.585	0.020	-	0.013	1.403	-	-	-	-	-	-	-	PAVEMENT_GENERAL	Urban	F	1011101000011101	0000000000010000	-	-	-	-	-	-	-	-	-	-	Terminate	
Unknown	16.98367	11/01/0116 09:43.29	00001019	17.693	Inter614t1-0	0.997	1	2	0.000	11.111	2.1	0.451	0.000	2	F	3027.4	0.234	0.205	-0.016	1504.590	622.591	0.020	-	0.142	1.363	-	-	-	-	-	-	-	PAVEMENT_GENERAL	Urban	F	1011101000011101	0000000000010000	-	-	-	-	-	-	-	-	-	-	Terminate	
Unknown	17.98369	11/01/0116 09:43.30	00001079	19.043	Inter614t1-0	1.087	1	2	0.000	11.111	-4.7	0.459	0.000	2	F	3220.8	0.180	0.202	0.032	1504.680	640.962	0.020	-	-0.210	1.331	-	-	-	12	3.714	70.725	58.885	PAVEMENT_GENERAL	Urban	F	1011101000011101	0000000000010000	-	-	-	-	-	-	-	-	-	-	Terminate	
Unknown	18.98371	11/01/0116 09:43.31	00001139	20.287	Inter614t1-0	1.069	1	2	0.000	11.111	-0.1	0.286	0.000	2	F	3290.1	359.830	0.192	0.001	1504.662	660.653	0.021	-	-0.012	0.938	-	-	-	12	3.395	68.882	28.361	PAVEMENT_GENERAL	Urban	F	1011101000011101	0000000000010000	-	-	-	-	-	-	-	-	-	-	Terminate	
Unknown	19.98373	11/01/0116 09:43.32	00001199	20.794	Inter614t1-0	1.015	1	2	0.000	11.111	0.6	0.242	0.000	2	F	3277.5	359.923	0.193	-0.008	1504.608	681.224	0.024	-	0.058	0.520	-	-	-	-	-	-	-	PAVEMENT_GENERAL	Urban	F	1011101000011101	0000000000010000	-	-	-	-	-	-	-	-	-	-	Terminate	
Unknown	20.98375	11/01/0116 09:43.33	00001259	21.334	Inter614t1-0	0.999	1	2	0.000	11.111	-0.3	0.205	0.000	2	F	3290.0	0.000	0.187	0.002	1504.592	702.293	0.024	-	-0.002	0.384	-	-	-	-	-	-	-	PAVEMENT_GENERAL	Urban	F	1011101000011101	0000000000010000	-	-	-	-	-	-	-	-	-	-	Terminate	
Unknown	21.98377	11/01/0116 09:43.34	00001319	21.717	Inter614t1-0	0.995	1	2	0.000	11.111	0.7	0.220	0.000	2	F	3354.2	0.061	0.188	-0.008	1504.589	723.810	0.025	-	0.062	0.374	-	-	-	-	-	-	-	PAVEMENT_GENERAL	Urban	F	1011101000011101	0000000000010000	-	-	-	-	-	-	-	-	-	-	Terminate	
Unknown	22.98379	11/01/0116 09:43.35	00001379	22.177	Inter614t1-0	1.038	1	2	0.000	11.111	0.7	0.263	0.000	2	F	3474.8	0.192	0.191	-0.006	1504.631	745.734	0.024	-	0.047	0.598	-	-	-	12	2.494	55.298	12.873	PAVEMENT_GENERAL	Urban	F	1011101000011101	0000000000010000	-	-	-	-	-	-	-	-	-	-	Terminate	
Unknown	23.98381	11/01/0116 09:43.36	00001439	22.823	Inter614t1-0	1.131	1	2	0.000	11.111	-0.7	0.307	0.000	2	F	3630.7	0.243	0.193	0.006	1504.724	768.215	0.023	-	-0.037	0.815	-	-	-	12	2.221	50.697	10.257	PAVEMENT_GENERAL	Urban	F	1111101000011101	0000000000010000	-	-	-	-	-	-	-	-	-	-	Terminate	
Unknown	24.98383	11/01/0116 09:43.37	00001499	23.585	Inter614t1-0	1.211	1	2	0.000	11.111	0.6	0.272	0.000	2	F	3666.8	0.154	0.187	-0.001	1504.804	791.425	0.023	-	0.005	0.687	-	-	-	12	1.922	45.337	7.949	PAVEMENT_GENERAL	Urban	F	1011101000011101	0000000000010000	-	-	-	-	-	-	-	-	-	-	Terminate	
Unknown	25.98385	11/01/0116 09:43.38	00001559	22.894	Inter612t1-0	1.266	1	2	0.000	11.111	-0.2	0.000	0.000	2	F	3454.0	0.026	0.172	0.007	1504.860	814.763	0.031	-	-0.061	-0.930	-	-	-	12	1.879	43.022	13.970	PAVEMENT_GENERAL	Urban	F	1011101000011101	0000000000010000	-	-	-	-	-	-	-	-	-	-	Terminate	
Unknown	26.98387	11/01/0116 09:43.39	00001619	21.978	Inter612t1-0	1.231	1	2	0.000	11.111	-1.9	0.000	0.000	2	F	3318.1	359.556	0.174	0.032	1504.824	837.196	0.031	-	-0.226	-0.900	-	-	-	12	1.871	41.129	46.706	PAVEMENT_GENERAL	Urban	F	1011101000011101	0000000000010000	-	-	-	-	-	-	-	-	-	-	Terminate	
Unknown	27.98389	11/01/0116 09:43.40	00001679	21.092	Inter612t1-0	1.066	1	2	0.000	11.111	1.2	0.000	0.000	2	F	3183.9	359.651	0.177	-0.012	1504.659	858.729	0.031	-	0.093	-0.875	-	-	-	12	1.947	41.055	-	PAVEMENT_GENERAL	Urban	F	1111101000011101	0000000000010000	-	-	-	-	-	-	-	-	-	-	Terminate	
Unknown	28.98391	11/01/0116 09:43.41	00001739	20.320	Inter612t1-0	0.973	1	2	0.000	11.111	0.8	0.088	0.000	2	F	3083.3	359.920	0.182	-0.014	1504.566	879.406	0.029	-	0.100	-0.561	-	-	-	12	2.084	42.356	-	PAVEMENT_GENERAL	Urban	F	1011101000011101	0000000000010000	-	-	-	-	-	-	-	-	-	-	Terminate	
Unknown	29.98393	11/01/0116 09:43.42	00001799	19.935	Inter612t1-0	0.967	1	2	0.000	11.111	0.6	0.132	0.000	2	F	3039.2	0.056	0.186	-0.005	1504.560	899.522	0.028	-	0.035	-0.287	-	-	-	12	2.236	44.577	-	PAVEMENT_GENERAL	Urban	F	1011101000011101	0000000000010000	-	-	-	-	-	-	-	-	-	-	Terminate	
Unknown	30.98395	11/01/0116 09:43.43	00001859	19.706	Inter612t1-0	1.005	1	2	0.000	11.111	1.4	0.155	0.000	2	F	3016.7	0.213	0.192	-0.010	1504.598	919.347	0.028	-	0.079	-0.080	-	-	-	12	2.390	47.105	-	PAVEMENT_GENERAL	Urban	F	1011101000011101	0000000000010000	-	-	-	-	-	-	-	-	-	-	Terminate	
Unknown	31.98397	11/01/0116 09:43.44	00001919	19.971	Inter612t1-0	1.122	1	2	0.000	11.111	0.5	0.201	0.000	2	F	3099.3	0.476	0.190	-0.006	1504.716	939.167	0.025	-	0.050	0.316	-	-	-	12	2.486	49.639	-	PAVEMENT_GENERAL	Urban	F	1011101000011101	0000000000010000	-	-	-	-	-	-	-	-	-	-	Terminate	
Unknown	32.98399	11/01/0116 09:43.45	00001979	20.362	Inter612t1-0	1.285	1	2	0.000	11.111	0.1	0.192	0.000	2	F	3139.9	0.425	0.187	0.001	1504.878	959.318	0.025	-	-0.012	0.341	-	-	-	12	2.546	51.841	-	PAVEMENT_GENERAL	Urban	F	1011101000011101	0000000000010000	-	-	-	-	-	-	-	-	-	-	Terminate	
Unknown	33.98401	11/01/0116 09:43.46	00002039	20.769	Inter612t1-0	1.423	1	2	0.000	11.111	-3.0	0.231	0.000	2	F	3262.7	0.210	0.192	0.022	1505.016	979.855	0.024	-	-0.170	0.505	-	-	-	12	2.584	53.658	-	PAVEMENT_GENERAL	Urban	F	1111101000011101	0000000000010000	-	-	-	-	-	-	-	-	-	-	Terminate	
Unknown	34.98403	11/01/0116 09:43.47	00002099	21.242	Inter613t1-0	1.401	1	2	0.000	11.111	-0.1	0.224	0.000	2	F	3305.1	359.567	0.189	0.018	1504.994	1000.866	0.025	-	-0.139	0.445	-	-	-	12	2.589	55.000	-	PAVEMENT_GENERAL	Urban	F	1011101000011101	0000000000010000	-	-	-	-	-	-	-	-	-	-	Terminate	
Unknown	35.98405	11/01/0116 09:43.48	00002159	21.584	Inter613t1-0	1.273	1	2	0.000	11.111	0.3	0.217	0.000	2	F	3331.1	359.729	0.189	-0.002	1504.866	1022.292	0.025	-	0.023	0.336	-	-	-	11	2.477	53.462	14.439	PAVEMENT_GENERAL	Urban	F	1011101000011101	0000000000010000	-	-	-	-	-	-	-	-	-	-	Terminate	
Unknown	36.98407	11/01/0116 09:43.49	00002219	22.034	Inter613t1-0	1.179	1	2	0.000	11.111	0.4	0.242	0.000	2	F	3425.0	359.814	0.188	-0.005	1504.772	1044.090	0.025	-	0.036	0.484	-	-	-	11	2.248	49.543	11.929	PAVEMENT_GENERAL	Urban	F	1011101000011101	0000000000010000	-	-	-	-	-	-	-	-	-	-	Terminate	
Unknown	37.98409	11/01/0116 09:43.50	00002279	22.447	Inter613t1-0	1.111	1	2	0.000	11.111	0.6	0.168	0.000	2	F	3434.3	359.865	0.170	-0.004	1504.704	1066.359	0.025	-	0.037	-0.072	-	-	-	11	2.012	45.154	9.889	PAVEMENT_GENERAL	Urban	F	1011101000011101	0000000000010000	-	-	-	-	-	-	-	-	-	-	Terminate	
Unknown	38.98411	11/01/0116 09:43.51	00002339	21.624	Inter613t1-0	1.075	1	2	0.000	11.111	1.2	0.000	0.000	2	F	3263.3	0.009	0.175	-0.013	1504.668	1088.428	0.031	-	0.084	-0.890	-	-	-	11	1.894	40.965	10.944	PAVEMENT_GENERAL	Urban	F	1011101000011101	0000000000010000	-	-	-	-	-	-	-	-	-	-	Terminate	
Unknown	39.98413	11/01/0116 09:43.52	00002399	20.056	Inter613t1-0	1.061	1	2	0.000	11.111	-0.9	0.000	0.084	2	F	2995.9	359.791	0.163	0.014	1504.654	1109.375	0.033	-	-0.108	-1.826	-	-	-	11	1.889	37.894	17.421	PAVEMENT_GENERAL	Urban	F	1011101000011101	0000000000010000	-	-	-	-	-	-	-	-	-	-	Terminate	
Unknown	40.98415	11/01/0116 09:43.53	00002459	18.334	Inter613t1-0	0.993	1	2	0.000	11.111	1.0	0.000	0.075	2	F	2743.8	359.901	0.169	-0.012	1504.586	1128.552	0.032	-	0.090	-1.633	-	-	-	12	3.351	61.436	-	PAVEMENT_GENERAL	Urban	F	1011101000011101	0000000000010000	-	-	-	-	-	-	-	-	-	-	Terminate	
Unknown	41.98417	11/01/0116 09:43.54	00002519	16.717	Inter613t1-0	0.983	1	2	0.000	11.111	-0.3	0.000	0.072	2	F	2502.8	0.036	0.172	0.001	1504.576	1146.072	0.032	-	0.003	-1.582	-	-	-	12	3.964	66.269	-	PAVEMENT_GENERAL	Urban	F	1011101000011101	0000000000010000	-	-	-	-	-	-	-	-	-	-	Terminate	
Unknown	42.98419	11/01/0116 09:43.55	00002579	15.117	Inter613t1-0	0.979	1	2	0.000	11.111	-2.8	0.000	0.066	2	F	2267.4	359.825	0.179	0.023	1504.572	1161.982	0.032	-	-0.138	-1.438	-	-	-	12	4.810	72.712	-	PAVEMENT_GENERAL	Urban	F	1011101000011101	0000000000010000	-	-	-	-	-	-	-	-	-	-	Terminate	
Unknown	43.98421	11/01/0116 09:43.56	00002639	13.800	Inter613t1-0	0.869	1	2	0.000	11.111	-2.4	0.000	0.051	2	F	2073.5	359.258	0.180	0.016	1504.462	1176.421	0.031	-	-0.125	-1.262	-	-	-	12	5.843	80.627	-	PAVEMENT_GENERAL	Urban	F	1111101000011101	0000000000010000	-	-	-	-	-	-	-	-	-	-	Terminate	
Unknown	44.98423	11/01/0116 09:43.57	00002699	12.787	Inter613t1-0	0.646	1	2	0.000	11.111	-2.4	0.000	0.000	2	F	1935.3	358.779	0.192	0.016	1504.239	1189.647	0.029	-	-0.113	-0.644	-	-	-	12	7.019	89.755	-	PAVEMENT_GENERAL	Urban	F	1011101000011101	0000000000010000	-	-	-	-	-	-	-	-	-	-	Terminate	
Unknown	45.98425	11/01/0116 09:43.58	00002759	12.153	Inter746t1-0	0.338	1	2	0.000	11.111	-1.5	0.000	0.000	2	F	1839.3	358.419	0.192	0.009	1503.931	1202.112	0.029	-	-0.065	-0.627	-	-	-	12	8.199	99.643	-	PAVEMENT_GENERAL	Urban	F	1011101000011101	0000000000010000	-	-	-	-	-	-	-	-	-	-	Terminate	
Unknown	46.98427	11/01/0116 09:43.59	00002819	11.860	Inter746t1-0	-0.017	1	2	0.000	11.111	2.1	0.101	0.000	2	F	1937.0	358.263	0.204	-0.011	1503.576	1214.030	0.026	-	0.062	0.130	-	-	-	12	9.282	110.079	-	PAVEMENT_GENERAL	Urban	F	1011101000011101	0000000000010000	-	-	-	-	-	-	-	-	-	-	Terminate	
Unknown	47.98429	11/01/0116 09:44.00	00002879	12.011	Inter746t1-0	-0.348	1	2	0.000	11.111	1.7	0.131	0.000	2	F	2004.8	358.489	0.201	-0.008	1503.245	1225.955	0.026	-	0.052	0.224	-	-	-	12	10.033	120.507	-	PAVEMENT_GENERAL	Urban	F	1011101000011101	0000000000010000	-	-	-	-	-	-	-	-	-	-	Terminate	
Unknown	48.98431	11/01/0116 09:44.01	00002939	12.680	Inter746t1-0	-0.635	1	2	0.000	11.111	11.6	0.093	0.000	2	F	2019.7	358.981	0.188	-0.058	1502.958	1238.309	0.024	-	0.388	0.197	-	-	-	12	10.293	130.507	-	PAVEMENT_GENERAL	Urban	F	1111101000011101	0000000000010000	-	-	-	-	-	-	-	-	-	-	Terminate	
Unknown	49.98433	11/01/0116 09:44.02	00002999	12.502	Inter746t1-0	-0.581	1	2	0.000	11.111	10.4	0.000	0.000	2	F	1892.0	1.570	0.183	-0.072	1503.013	1250.953	0.029	-	0.544	-0.634	-	-	-	12	11.216	140.216	-	PAVEMENT_GENERAL	Urban	F	1011101000011101	0000000000010000	-	-	-	-	-	-	-	-	-	-	Terminate	
Unknown	50.98435	11/01/0116 09:44.03	00003059	12.094	Inter746t1-0	-0.077	1	2	0.000	11.111	-6.4	0.101	0.000	2	F	1953.5	2.747	0.198	0.020	1503.516	1263.179	0.027	-	-0.131	0.003	-	-	-	12	12.348	149.337	-	PAVEMENT_GENERAL	Urban	F	1011101000011101	0000000000010000	-	-	-	-	-	-	-	-	-	-	Terminate	
Unknown	51.98437	11/01/0116 09:44.04	00003119	12.832	Inter746t1-0	0.367	1	2	0.000	11.111	-1.5	0.252	0.000	2	F	2272.7	1.639	0.207	0.009	1503.960	1275.555	0.022	-	-0.080	1.035	-	-	-	12	12.039	154.479	-	PAVEMENT_GENERAL	Urban	F	1011101000011101	0000000000010000	-	-	-	-	-	-	-	-	-	-	Terminate	
Unknown	52.98439	11/01/0116 09:44.05	00003179	14.001	Inter746t1-0	0.721	1	2	0.000	11.111	0.7	0.384	0.000	2	F	2502.6	1.443	0.212	-0.006	1504.314	1288.938	0.020	-	0.017	1.364	-	-	-	12	11.048	154.683	78.679	PAVEMENT_GENERAL	Urban	F	1011101000011101	0000000000010000	-	-	-	-	-	-	-	-	-	-	Terminate	
Unknown	53.98441	11/01/0116 09:44.06	00003239	15.445	Inter746t1-0	1.002	1	2	0.000	11.111	-4.4	0.522	0.000	2	F	2704.4	0.519	0.209	0.031	1504.595	1303.651	0.020	-	-0.261	1.459	-	-	-	14	0.971	15.005	-	PAVEMENT_GENERAL	Urban	F	1011101000011101	0000000000010000	-	-	-	-	-	-	-	-	-	-	Terminate	
Unknown	54.98443	11/01/0116 09:44.07	00003299	16.891	Inter746t1-0	1.067	1	2	0.000	11.111	-0.6	0.526	0.000	2	F	2918.2	359.942	0.207	0.009	1504.660	1319.821	0.020	-	-0.091	1.431	-	-	-	14	1.122	18.946	-	PAVEMENT_GENERAL	Urban	F	1011101000011101	0000000000010000	-	-	-	-	-	-	-	-	-	-	Terminate	
Unknown	55.98445	11/01/0116 09:44.08	00003359	18.286	Inter746t1-0	1.038	1	2	0.000	11.111	-0.6	0.427	0.000	2	F	3107.4	359.855	0.203	0.003	1504.631	1337.417	0.020	-	-0.028	1.343	-	-	-	14	1.174	21.468	-	PAVEMENT_GENERAL	Urban	F	1011101000011101	0000000000010000	-	-	-	-	-	-	-	-	-	-	Terminate	
Unknown	56.98447	11/01/0116 09:44.09	00003419	17.927	Inter746t1-0	0.992	1	2	0.000	11.111	1.1	0.000	0.000	2	F	2708.3	0.000	0.183	-0.016	1504.585	1355.693	0.030	-	0.103	-0.780	-	-	-	-	-	-	-	PAVEMENT_GENERAL	Urban	F	1011101000011101	0000000000010000	-	-	-	-	-	-	-	-	-	-	Terminate	
Unknown	57.98449	11/01/0116 09:44.10	00003479	17.158	Inter746t1-0	1.007	1	2	0.000	11.111	-0.6	0.000	0.000	2	F	2592.7	0.140	0.184	-0.000	1504.600	1373.233	0.030	L	0.011	-0.760	-	-	-	-	-	-	-	PAVEMENT_GENERAL	Urban	F	1011101000111101	0000000000010000	-	-	-	-	-	-	-	-	-	-	Terminate	
Unknown	58.98451	11/01/0116 09:44.11	00003539	16.223	Inter746t1-0	0.900	1	2	0.000	11.111	-30.7	0.000	0.057	2	F	2437.3	357.904	0.166	0.233	1504.493	1389.984	0.031	L	-1.654	-1.405	-	-	-	-	-	-	-	PAVEMENT_GENERAL	Urban	F	1011101000111101	0000000000010000	-	-	-	-	-	-	-	-	-	-	Terminate	
Unknown	59.98453	11/01/0116 09:44.12	00003599	14.609	Inter749t9-0	-0.398	1	2	0.000	11.111	9.3	0.000	0.078	2	F	2187.5	353.276	0.171	-0.019	1503.195	1405.348	0.032	-	0.026	-1.613	-	-	-	-	-	-	-	PAVEMENT_GENERAL	Urban	F	1011101000011101	0000000000010000	-	-	-	-	-	-	-	-	-	-	Terminate	
Unknown	60.98455	11/01/0116 09:44.13	00003659	12.973	Inter749t31-0	-1.525	1	1	356.532	11.111	9.6	0.000	0.096	2	F	1940.0	356.682	0.163	-0.076	1501.942	1419.090	0.032	-	0.625	-1.767	-	-	-	12	4.246	55.088	4.246	PAVEMENT_GENERAL	Urban	F	1011101000011101	0000000000010000	-	-	-	-	-	-	-	-	-	-	Terminate	
Unknown	61.98457	11/01/0116 09:44.14	00003719	10.719	Inter749t31-0	-1.399	1	1	354.661	11.111	7.6	0.000	0.203	2	F	1579.2	358.352	0.140	-0.036	1501.422	1431.042	0.034	-	0.289	-3.064	-	-	-	12	4.023	43.126	4.023	PAVEMENT_GENERAL	Urban	F	1011101000011101	0000000000010000	-	-	-	-	-	-	-	-	-	-	Terminate	
Unknown	62.98459	11/01/0116 09:44.15	00003779	7.734	Inter749t31-0	-0.767	1	1	355.290	11.111	4.1	0.000	0.182	2	F	1143.8	359.360	0.160	-0.013	1501.250	1440.253	0.034	-	0.092	-2.810	-	-	-	12	4.380	33.877	4.380	PAVEMENT_GENERAL	Urban	F	1011101000011101	0000000000010000	-	-	-	-	-	-	-	-	-	-	Terminate	
Unknown	63.98461	11/01/0116 09:44.16	00003839	5.022	Inter749t31-0	-0.160	1	1	356.282	11.111	3.8	0.000	0.176	2	F	743.5	359.894	0.163	-0.004	1501.217	1446.638	0.033	-	0.031	-2.678	-	-	-	12	5.480	27.520	5.480	PAVEMENT_GENERAL	Urban	F	1011101000011101	0000000000010000	-	-	-	-	-	-	-	-	-	-	Terminate	
Unknown	64.98463	11/01/0116 09:44.17	00003899	2.461	Inter749t31-0	0.214	1	1	356.861	11.111	-0.0	0.000	0.164	2	F	477.5	0.012	0.169	0.000	1501.218	1450.365	0.033	-	-0.003	-2.412	-	-	-	12	9.687	23.837	11.205	PAVEMENT_GENERAL	Urban	F	1011101000011101	0000000000010000	-	-	-	-	-	-	-	-	-	-	Terminate	
Unknown	65.98465	11/01/0116 09:44.18	00003959	1.169	Inter749t31-0	0.312	1	1	356.903	11.111	1.9	0.000	0.000	2	F	477.5	0.032	0.216	-0.000	1501.219	1451.929	0.029	-	0.004	-0.179	-	-	-	12	20.171	23.581	-	PAVEMENT_GENERAL	Urban	F	1011101000011101	0000000000010000	-	-	-	-	-	-	-	-	-	-	Terminate	
Unknown	66.98467	11/01/0116 09:44.19	00004019	1.922	Inter749t31-0	0.381	1	1	356.903	11.111	3.1	0.212	0.000	2	F	1529.7	0.120	0.251	-0.001	1501.223	1453.145	0.019	-	0.012	3.630	-	-	-	12	13.368	25.690	-	PAVEMENT_GENERAL	Urban	F	1111101000011101	0000000000010000	-	-	-	-	-	-	-	-	-	-	Terminate	
Unknown	67.98470	11/01/0116 09:44.20	00004079	5.100	Inter749t31-0	0.608	1	1	356.903	11.111	5.8	0.220	0.000	2	F	1898.9	0.465	0.219	-0.007	1501.249	1456.845	0.014	-	0.059	2.380	-	-	-	12	5.357	27.319	-	PAVEMENT_GENERAL	Urban	F	1011101000011101	0000000000010000	-	-	-	-	-	-	-	-	-	-	Terminate	
Unknown	68.98471	11/01/0116 09:44.21	00004139	7.433	Inter749t31-0	1.047	1	1	356.903	11.111	2.5	0.273	0.000	2	F	2385.7	1.081	0.226	-0.005	1501.350	1463.122	0.015	-	0.044	2.352	-	-	-	12	3.818	28.377	-	PAVEMENT_GENERAL	Urban	F	1011101000011101	0000000000010000	-	-	-	-	-	-	-	-	-	-	Terminate	
Unknown	69.98473	11/01/0116 09:44.22	00004199	9.119	Inter749t11-0	1.422	LT1	2	0.000	11.111	-24.0	0.229	0.000	2	F	1935.3	0.437	0.214	0.079	1501.484	1471.494	0.020	-	-0.570	1.410	-	-	-	12	3.150	28.723	-	PAVEMENT_GENERAL	Urban	F	1011101000011101	0000000000010000	-	-	-	-	-	-	-	-	-	-	Terminate	
Unknown	70.98476	11/01/0116 09:44.23	00004259	10.343	Inter749t11-0	0.687	LT1	2	0.000	11.111	-94.7	0.212	0.000	2	F	1959.6	350.295	0.202	0.378	1500.749	1481.209	0.022	-	-2.923	0.969	-	-	-	12	2.604	26.935	94.634	PAVEMENT_GENERAL	Urban	F	1011101000011101	0000000000010000	-	-	-	-	-	-	-	-	-	-	Terminate	
Unknown	71.98477	11/01/0116 09:44.24	00004319	11.195	Inter749t65-0	-0.502	1	1	331.999	11.111	-111.1	0.203	0.000	2	F	2016.0	330.056	0.177	0.526	1497.004	1491.268	0.026	-	-4.097	0.728	-	-	-	12	2.642	29.581	-	PAVEMENT_GENERAL	Urban	F	1011101000011101	0000000000010000	-	-	-	-	-	-	-	-	-	-	Terminate	
Unknown	72.98479	11/01/0116 09:44.25	00004379	11.885	Inter749t65-0	-0.762	1	1	304.805	11.111	-127.8	0.196	0.000	2	F	2087.0	308.829	0.186	0.623	1489.450	1499.922	0.028	-	-4.734	0.584	-	-	-	12	2.378	28.261	-	PAVEMENT_GENERAL	Urban	F	1011101000011101	0000000000010000	-	-	-	-	-	-	-	-	-	-	Terminate	
Unknown	73.98481	11/01/0116 09:44.26	00004439	12.078	Inter749t3-3	1.574	1	2	270.000	11.111	-136.3	0.143	0.000	2	F	2024.0	282.326	0.156	0.739	1478.696	1505.105	0.035	-	-5.641	0.093	-	-	-	12	2.807	33.908	-	PAVEMENT_GENERAL	Urban	F	1011101000011101	0000000000010000	-	-	-	-	-	-	-	-	-	-	Terminate	
Unknown	74.98483	11/01/0116 09:44.27	00004499	12.330	Inter749t17-0	-1.549	1	1	270.063	11.111	2.3	0.178	0.000	2	F	2111.0	266.367	0.195	-0.000	1466.590	1505.583	0.024	-	-0.438	0.540	-	-	-	12	2.963	36.537	-	PAVEMENT_GENERAL	Urban	F	1111101000011101	0000000000010000	-	-	-	-	-	-	-	-	-	-	Terminate	
Unknown	75.98486	11/01/0116 09:44.28	00004559	13.062	Inter749t19-0	1.521	1	1	270.103	11.111	8.5	0.217	0.000	2	F	2253.8	269.266	0.204	-0.075	1453.930	1505.066	0.023	-	0.528	0.855	-	-	-	12	3.462	45.224	-	PAVEMENT_GENERAL	Urban	F	1011101000011101	0000000000010000	-	-	-	-	-	-	-	-	-	-	Terminate	
Unknown	76.98487	11/01/0116 09:44.29	00004619	14.183	Inter749t19-0	1.399	1	1	270.082	11.111	-1.0	0.337	0.000	2	F	2515.0	269.511	0.208	0.011	1440.345	1504.968	0.020	-	-0.078	1.316	-	-	-	12	3.690	52.333	-	PAVEMENT_GENERAL	Urban	F	1011101000011101	0000000000010000	-	-	-	-	-	-	-	-	-	-	Terminate	
Unknown	77.98489	11/01/0116 09:44.30	00004679	15.504	Inter749t19-0	1.267	1	1	270.061	11.111	2.5	0.346	0.000	2	F	2689.3	269.840	0.207	-0.019	1425.501	1504.858	0.020	-	0.160	1.306	-	-	-	12	3.806	59.015	-	PAVEMENT_GENERAL	Urban	F	1011101000011101	0000000000010000	-	-	-	-	-	-	-	-	-	-	Terminate	
Unknown	78.98492	11/01/0116 09:44.31	00004739	16.792	Inter749t1-2	1.243	1	2	270.000	11.111	0.2	0.347	0.000	2	F	2877.8	269.964	0.205	-0.001	1409.350	1504.843	0.021	-	-0.006	1.269	-	-	-	Ambient252	3.882	65.193	9.884	PAVEMENT_GENERAL	Urban	F	1011101000011101	0000000000010000	-	-	-	-	-	-	-	-	-	-	Terminate	
Unknown	79.98493	11/01/0116 09:44.32	00004799	18.033	Inter747t1-2	1.234	1	2	270.000	11.111	0.5	0.346	0.000	2	F	3052.2	270.027	0.203	-0.002	1391.933	1504.841	0.021	-	0.023	1.216	-	-	-	Ambient252	3.214	57.965	7.397	PAVEMENT_GENERAL	Urban	F	1011101000011101	0000000000010000	-	-	-	-	-	-	-	-	-	-	Terminate	
Unknown	80.98495	11/01/0116 09:44.33	00004859	19.222	Inter747t1-2	1.258	1	2	270.000	11.111	-0.1	0.344	0.000	2	F	3214.4	270.121	0.200	-0.001	1373.301	1504.865	0.021	-	0.009	1.165	-	-	-	Ambient252	2.577	49.529	5.488	PAVEMENT_GENERAL	Urban	F	1011101000011101	0000000000010000	-	-	-	-	-	-	-	-	-	-	Terminate	
Unknown	81.98497	11/01/0116 09:44.34	00004919	20.353	Inter747t1-2	1.285	1	2	270.000	11.111	-1.7	0.330	0.000	2	F	3355.3	269.967	0.198	0.010	1353.509	1504.892	0.022	-	-0.096	1.096	-	-	-	Ambient252	1.962	39.930	3.932	PAVEMENT_GENERAL	Urban	F	1011101000011101	0000000000010000	-	-	-	-	-	-	-	-	-	-	Terminate	
Unknown	82.98499	11/01/0116 09:44.35	00004979	21.415	Inter747t1-2	1.206	1	2	270.000	11.111	0.5	0.340	0.000	2	F	3500.2	269.555	0.195	0.000	1332.626	1504.813	0.022	-	-0.043	1.057	-	-	-	Ambient252	1.365	29.237	2.606	PAVEMENT_GENERAL	Urban	F	1011101000011101	0000000000010000	-	-	-	-	-	-	-	-	-	-	Terminate	
Unknown	83.98502	11/01/0116 09:44.36	00005039	22.443	Inter747t1-2	1.050	1	2	270.000	11.111	-0.1	0.339	0.000	2	F	3629.1	269.587	0.193	0.002	1310.693	1504.657	0.022	-	-0.012	1.004	-	-	-	Ambient252	0.780	17.500	1.429	PAVEMENT_GENERAL	Urban	F	1011101000011101	0000000000010000	-	-	-	-	-	-	-	-	-	-	Terminate	
Unknown	84.98503	11/01/0116 09:44.37	00005099	23.420	Inter747t1-2	0.863	1	2	270.000	11.111	3.0	0.346	0.000	2	F	3752.6	269.517	0.191	-0.021	1287.759	1504.470	0.022	-	0.107	0.962	-	-	-	12	3.305	77.412	72.477	PAVEMENT_GENERAL	Urban	F	1011101000011101	0000000000010000	-	-	-	-	-	-	-	-	-	-	Terminate	
Unknown	85.98505	11/01/0116 09:44.38	00005159	24.261	Inter747t1-2	0.737	1	2	270.000	11.111	0.2	0.303	0.000	2	F	3787.9	269.963	0.184	-0.016	1263.897	1504.344	0.023	-	0.128	0.709	-	-	-	12	3.129	75.904	39.754	PAVEMENT_GENERAL	Urban	F	1011101000011101	0000000000010000	-	-	-	-	-	-	-	-	-	-	Terminate	
Unknown	86.98507	11/01/0116 09:44.39	00005219	24.510	Inter747t1-2	0.739	1	2	270.000	11.111	1.3	0.120	0.000	2	F	3722.3	270.151	0.158	-0.013	1239.433	1504.346	0.027	-	0.103	-0.499	-	-	-	12	3.011	73.793	34.194	PAVEMENT_GENERAL	Urban	F	1011101000011101	0000000000010000	-	-	-	-	-	-	-	-	-	-	Terminate	
Unknown	87.98509	11/01/0116 09:44.40	00005279	23.672	Inter747t1-2	0.829	1	2	270.000	11.111	-2.6	0.095	0.000	2	F	3588.5	270.166	0.176	0.022	1215.344	1504.436	0.030	-	-0.166	-0.675	-	-	-	12	3.044	72.059	54.574	PAVEMENT_GENERAL	Urban	F	1011101000011101	0000000000010000	-	-	-	-	-	-	-	-	-	-	Terminate	
Unknown	88.98512	11/01/0116 09:44.41	00005339	22.997	Inter748t1-2	0.784	1	2	270.000	11.111	-1.3	0.106	0.000	2	F	3488.6	269.466	0.175	0.031	1192.016	1504.391	0.030	-	-0.229	-0.618	-	-	-	12	3.091	71.084	110.173	PAVEMENT_GENERAL	Urban	F	1011101000011101	0000000000010000	-	-	-	-	-	-	-	-	-	-	Terminate	
Unknown	89.98513	11/01/0116 09:44.42	00005399	22.431	Inter748t1-2	0.698	1	2	270.000	11.111	6.8	0.120	0.000	2	F	3407.8	270.800	0.174	-0.103	1169.316	1504.305	0.029	-	0.801	-0.491	-	-	-	12	3.154	70.737	895.419	PAVEMENT_GENERAL	Urban	F	1011101000011101	0000000000010000	-	-	-	-	-	-	-	-	-	-	Terminate	
Unknown	90.98515	11/01/0116 09:44.43	00005459	21.865	Inter748t1-2	1.117	1	2	270.000	11.111	-11.1	0.078	0.000	2	F	3312.7	270.824	0.177	0.110	1147.145	1504.724	0.030	-	-0.718	-0.678	-	-	-	Ambient245	-0.097	-2.124	-0.202	PAVEMENT_GENERAL	Urban	F	1011101000011101	0000000000010000	-	-	-	-	-	-	-	-	-	-	Terminate	
Unknown	91.98518	11/01/0116 09:44.44	00005519	21.307	Inter748t1-2	1.098	1	2	270.000	11.111	0.9	0.111	0.000	2	F	3236.4	269.339	0.180	0.001	1125.572	1504.705	0.029	-	-0.033	-0.515	-	-	-	12	3.365	71.700	-	PAVEMENT_GENERAL	Urban	F	1011101000011101	0000000000010000	-	-	-	-	-	-	-	-	-	-	Terminate	
Unknown	92.98519	11/01/0116 09:44.45	00005579	20.810	Inter748t1-2	0.905	1	2	270.000	11.111	3.2	0.111	0.000	2	F	3161.6	269.710	0.181	-0.031	1104.517	1504.512	0.029	-	0.217	-0.478	-	-	-	12	3.508	72.999	-	PAVEMENT_GENERAL	Urban	F	1011101000011101	0000000000010000	-	-	-	-	-	-	-	-	-	-	Terminate	
Unknown	93.98521	11/01/0116 09:44.46	00005639	20.438	Inter748t1-2	0.916	1	2	270.000	11.111	-0.2	0.127	0.000	2	F	3114.9	270.251	0.184	0.000	1083.912	1504.522	0.028	-	0.004	-0.304	-	-	-	12	3.657	74.748	-	PAVEMENT_GENERAL	Urban	F	1011101000011101	0000000000010000	-	-	-	-	-	-	-	-	-	-	Terminate	
Unknown	94.98523	11/01/0116 09:44.47	00005699	20.278	Inter748t1-2	0.987	1	2	270.000	11.111	0.0	0.190	0.000	2	F	3120.3	270.124	0.190	0.005	1063.593	1504.594	0.026	-	-0.034	0.154	-	-	-	-	-	-	-	PAVEMENT_GENERAL	Urban	F	1011101000011101	0000000000010000	-	-	-	-	-	-	-	-	-	-	Terminate	
Unknown	95.98525	11/01/0116 09:44.48	00005759	19.832	Inter748t1-2	1.029	1	2	270.000	11.111	-1.1	0.000	0.072	2	F	2976.4	270.106	0.176	0.005	1043.402	1504.636	0.031	-	-0.032	-1.087	-	-	-	-	-	-	-	PAVEMENT_GENERAL	Urban	F	1111101000011101	0000000000010000	-	-	-	-	-	-	-	-	-	-	Terminate	
Unknown	96.98528	11/01/0116 09:44.49	00005819	14.803	Inter748t1-2	0.996	1	2	270.000	11.111	-8.2	0.000	0.660	2	F	2030.9	269.236	-0.140	0.068	1025.665	1504.603	0.042	-	-0.393	-7.509	-	-	-	-	-	-	-	PAVEMENT_GENERAL	Urban	F	1011101000011101	0000000000010000	-	-	-	-	-	-	-	-	-	-	Terminate	
Unknown	97.98529	11/01/0116 09:44.50	00005879	5.658	Inter748t1-2	0.773	1	2	270.000	11.111	1.0	0.000	0.904	2	F	786.0	267.930	-0.377	-0.001	1015.381	1504.380	0.045	-	-0.046	-9.172	-	-	-	-	-	-	-	PAVEMENT_GENERAL	Urban	F	1011101000011101	0000000000010000	-	-	-	-	-	-	-	-	-	-	Terminate	
Unknown	98.98531	11/01/0116 09:44.51	00005939	0.060	Inter748t1-2	0.709	1	2	270.000	11.111	20.0	0.000	0.104	2	F	477.5	268.131	0.166	0.000	1013.408	1504.316	0.038	-	-0.001	-0.259	-	-	-	-	-	-	-	PAVEMENT_GENERAL	Urban	F	1011101000011101	0000000000010000	-	-	-	-	-	-	-	-	-	-	Terminate	
Unknown	99.98534	11/01/0116 09:44.52	00005999	0.336	Inter748t1-2	0.708	1	2	270.000	11.111	52.5	0.108	0.000	2	F	1197.5	268.233	0.223	-0.003	1013.262	1504.314	0.027	-	0.061	1.532	-	-	-	-	-	-	-	PAVEMENT_GENERAL	Urban	F	1011101000011101	0000000000010000	-	-	-	-	-	-	-	-	-	-	Terminate	
Unknown	100.98535	11/01/0116 09:44.53	00006059	1.760	Inter748t1-2	0.734	1	2	270.000	11.111	55.1	0.000	0.000	2	F	477.5	269.985	0.139	-0.006	1011.870	1504.341	0.023	-	0.066	-0.462	-	-	-	-	-	-	-	PAVEMENT_GENERAL	Urban	F	1011101000011101	0000000000010000	-	-	-	-	-	-	-	-	-	-	Terminate	
Unknown	101.98537	11/01/0116 09:44.54	00006119	1.411	Inter748t1-2	0.866	1	2	270.000	11.111	176.9	0.000	0.000	2	F	477.5	273.431	0.196	-0.035	1010.300	1504.473	0.027	-	0.291	-0.311	-	-	-	-	-	-	-	PAVEMENT_GENERAL	Urban	F	1011101000011101	0000000000010000	-	-	-	-	-	-	-	-	-	-	Terminate	
Unknown	102.98539	11/01/0116 09:44.55	00006179	2.698	Inter748t1-2	1.227	1	2	270.000	11.111	158.9	0.252	0.000	2	F	1689.7	280.012	0.177	-0.075	1008.767	1504.833	0.012	-	0.584	4.185	-	-	-	-	-	-	-	PAVEMENT_GENERAL	Urban	F	1011101000011101	0000000000010000	-	-	-	-	-	-	-	-	-	-	Terminate	
Unknown	103.98541	11/01/0116 09:44.56	00006239	5.753	Inter748t1-3	-1.144	2	2	270.000	11.111	-44.0	0.245	0.000	2	F	2024.3	285.730	0.223	0.155	1004.546	1506.063	0.015	-	-0.853	2.386	-	-	-	-	-	-	-	PAVEMENT_GENERAL	Urban	F	1011101000011101	0000000000010000	-	-	-	-	-	-	-	-	-	-	Terminate	
Unknown	104.98544	11/01/0116 09:44.57	00006299	8.512	Inter752t1-3	-0.442	2	2	269.994	24.444	-43.8	0.425	0.000	2	F	2738.2	279.185	0.584	0.167	997.578	1507.458	0.024	-	-0.980	2.792	-	-	-	-	-	-	-	FREEWAY_SMOOTH	Urban	F	1011101000011101	0000000000010000	-	-	-	-	-	-	-	-	-	-	Terminate	
Unknown	105.98545	11/01/0116 09:44.58	00006359	11.328	Inter752t1-3	0.488	2	2	269.954	24.444	-16.7	0.430	0.000	2	F	2698.9	273.286	0.104	-0.215	987.713	1508.379	0.060	-	-0.641	2.529	-	-	-	-	-	-	-	FREEWAY_SMOOTH	Urban	F	1011101000011101	0000000000010000	-	-	-	-	-	-	-	-	-	-	Terminate	
Unknown	106.98547	11/01/0116 09:44.59	00006419	13.059	Inter752t1-3	0.830	2	2	269.547	24.444	-22.8	0.459	0.000	2	F	2407.0	269.351	0.417	-0.437	975.465	1508.666	0.103	-	-1.041	1.536	-	-	-	-	-	-	-	FREEWAY_SMOOTH	Urban	F	1011101000011101	0000000000010000	-	-	-	-	-	-	-	-	-	-	Terminate	
Unknown	107.98550	11/01/0116 09:45.00	00006479	14.576	Inter752t1-3	0.478	2	2	268.817	24.444	0.6	0.473	0.000	2	F	2591.4	267.036	0.391	-0.914	961.657	1508.118	0.149	-	-0.102	1.506	-	-	-	-	-	-	-	FREEWAY_SMOOTH	Urban	F	1011101000011101	0000000000010000	-	-	-	-	-	-	-	-	-	-	Terminate	
Unknown	108.98551	11/01/0116 09:45.01	00006539	16.055	Inter752t1-3	0.095	2	2	267.621	24.444	-8.1	0.446	0.000	2	F	2786.0	266.494	0.381	-1.249	946.362	1507.257	0.195	-	-0.383	1.452	-	-	-	-	-	-	-	FREEWAY_SMOOTH	Urban	F	1011101000011101	0000000000010000	-	-	-	-	-	-	-	-	-	-	Terminate	
Unknown	109.98553	11/01/0116 09:45.02	00006599	17.475	Inter752t1-3	-0.675	2	2	265.847	24.444	-21.0	0.453	0.000	2	F	2988.8	260.115	0.214	-1.447	929.688	1505.527	0.230	-	-2.100	1.428	-	-	-	-	-	-	-	FREEWAY_SMOOTH	Urban	F	1011101000011101	0000000000010000	-	-	-	-	-	-	-	-	-	-	Terminate	
Unknown	110.98555	11/01/0116 09:45.03	00006659	18.916	Inter752t1-2	1.288	1	2	263.347	24.444	2.3	0.522	0.000	2	F	3209.5	259.670	0.197	-2.163	911.807	1502.181	0.224	-	0.129	1.453	-	-	-	-	-	-	-	FREEWAY_SMOOTH	Urban	F	1011101000011101	0000000000010000	-	-	-	-	-	-	-	-	-	-	Terminate	
Unknown	111.98557	11/01/0116 09:45.04	00006719	20.334	Inter752t1-2	0.533	1	2	260.015	24.444	-2.6	0.499	0.000	2	F	3406.5	259.658	0.308	-2.611	892.507	1498.583	0.237	-	-0.175	1.377	-	-	-	-	-	-	-	FREEWAY_SMOOTH	Urban	F	1011101000011101	0000000000010000	-	-	-	-	-	-	-	-	-	-	Terminate	
Unknown	112.98560	11/01/0116 09:45.05	00006779	21.683	Inter752t1-2	0.610	1	2	255.700	24.444	-19.4	0.490	0.000	2	F	3582.6	255.289	0.293	-2.899	871.954	1494.216	0.284	-	-1.998	1.332	-	-	-	-	-	-	-	FREEWAY_SMOOTH	Urban	F	1011101000011101	0000000000010000	-	-	-	-	-	-	-	-	-	-	Terminate	
Unknown	113.98561	11/01/0116 09:45.06	00006839	22.961	Inter752t1-2	0.722	1	2	250.326	24.444	-18.4	0.499	0.000	2	F	3753.3	250.514	0.188	-3.255	850.581	1487.762	0.323	-	-1.872	1.238	-	-	-	-	-	-	-	FREEWAY_SMOOTH	Urban	F	1011101000011101	0000000000010000	-	-	-	-	-	-	-	-	-	-	Terminate	
Unknown	114.98563	11/01/0116 09:45.07	00006899	24.126	Inter752t1-2	1.215	1	2	244.453	24.444	-31.6	0.377	0.000	2	F	3849.7	245.115	0.225	-3.134	828.675	1479.106	0.354	-	-2.826	1.044	-	-	-	-	-	-	-	FREEWAY_SMOOTH	Urban	F	1011101000011101	0000000000010000	-	-	-	-	-	-	-	-	-	-	Terminate	
Unknown	115.98566	11/01/0116 09:45.08	00006959	24.758	Inter752t1-2	1.432	1	2	238.371	24.444	-27.0	0.217	0.000	2	F	3796.3	236.875	0.072	-3.090	807.091	1467.517	0.371	-	-3.289	0.180	-	-	-	-	-	-	-	FREEWAY_SMOOTH	Urban	F	1011101000011101	0000000000010000	-	-	-	-	-	-	-	-	-	-	Terminate	
Unknown	116.98567	11/01/0116 09:45.09	00007019	24.735	Inter752t1-2	0.950	1	2	232.195	24.444	-13.8	0.201	0.000	2	F	3787.7	229.598	0.003	-3.180	787.076	1452.990	0.343	-	-2.614	0.061	-	-	-	-	-	-	-	FREEWAY_SMOOTH	Urban	F	1011101000011101	0000000000010000	-	-	-	-	-	-	-	-	-	-	Terminate	
Unknown	117.98569	11/01/0116 09:45.10	00007079	24.766	Inter752t1-2	0.458	1	2	226.059	24.444	-17.8	0.203	0.000	2	F	3794.2	224.753	0.097	-3.215	768.729	1436.381	0.313	-	-2.281	0.069	-	-	-	-	-	-	-	FREEWAY_SMOOTH	Urban	F	1011101000011101	0000000000010000	-	-	-	-	-	-	-	-	-	-	Terminate	
Unknown	118.98571	11/01/0116 09:45.11	00007139	24.603	Inter752t1-2	0.353	1	2	219.875	24.444	-14.6	0.148	0.000	2	F	3744.2	219.273	0.127	-3.224	752.003	1418.175	0.309	-	-2.233	-0.367	-	-	-	-	-	-	-	FREEWAY_SMOOTH	Urban	F	1011101000011101	0000000000010000	-	-	-	-	-	-	-	-	-	-	Terminate	
Unknown	119.98573	11/01/0116 09:45.12	00007199	24.031	Inter752t1-2	0.545	1	2	213.820	24.444	-21.0	0.125	0.000	2	F	3647.8	213.452	0.144	-3.151	737.315	1398.787	0.321	-	-2.718	-0.555	-	-	-	-	-	-	-	FREEWAY_SMOOTH	Urban	F	1011101000011101	0000000000010000	-	-	-	-	-	-	-	-	-	-	Terminate	
Unknown	120.98576	11/01/0116 09:45.13	00007259	23.497	Inter752t1-2	0.679	1	2	207.889	24.444	-19.8	0.129	0.000	2	F	3570.3	207.531	0.148	-3.203	725.074	1378.436	0.329	-	-2.367	-0.480	-	-	-	-	-	-	-	FREEWAY_SMOOTH	Urban	F	1011101000011101	0000000000010000	-	-	-	-	-	-	-	-	-	-	Terminate	
Unknown	121.98577	11/01/0116 09:45.14	00007319	22.809	Inter752t1-2	0.679	1	2	202.113	24.444	-17.1	0.039	0.000	2	F	3448.0	200.634	0.072	-3.168	715.331	1357.403	0.331	-	-2.673	-0.815	-	-	-	-	-	-	-	FREEWAY_SMOOTH	Urban	F	1011101000011101	0000000000010000	-	-	-	-	-	-	-	-	-	-	Terminate	
Unknown	122.98579	11/01/0116 09:45.15	00007379	22.041	Inter752t1-2	0.488	1	2	196.540	24.444	-11.0	0.067	0.000	2	F	3339.6	196.136	-0.002	-3.181	708.151	1336.171	0.310	-	-1.518	-0.754	-	-	-	-	-	-	-	FREEWAY_SMOOTH	Urban	F	1011101000011101	0000000000010000	-	-	-	-	-	-	-	-	-	-	Terminate	
Unknown	123.98581	11/01/0116 09:45.16	00007439	21.258	Inter752t1-2	0.666	1	2	191.759	24.444	-12.6	0.069	0.000	2	F	3221.3	192.124	0.070	-2.641	702.759	1315.201	0.274	-	-1.515	-0.734	-	-	-	-	-	-	-	FREEWAY_SMOOTH	Urban	F	1011101000011101	0000000000010000	-	-	-	-	-	-	-	-	-	-	Terminate	
Unknown	124.98583	11/01/0116 09:45.17	00007499	20.547	Inter752t1-2	0.947	1	2	187.882	24.444	-18.6	0.051	0.000	2	F	3111.9	188.040	0.050	-2.089	698.982	1294.641	0.241	-	-1.722	-0.734	-	-	-	-	-	-	-	FREEWAY_SMOOTH	Urban	F	1011101000011101	0000000000010000	-	-	-	-	-	-	-	-	-	-	Terminate	
Unknown	125.98586	11/01/0116 09:45.18	00007559	19.666	Inter752t1-2	0.822	1	2	184.862	24.444	-0.8	0.000	0.000	2	F	2971.2	183.602	0.012	-1.725	696.924	1274.637	0.193	-	-0.796	-0.862	-	-	-	-	-	-	-	FREEWAY_SMOOTH	Urban	F	1011101000011101	0000000000010000	-	-	-	-	-	-	-	-	-	-	Terminate	
Unknown	126.98587	11/01/0116 09:45.19	00007619	18.751	Inter752t1-2	0.831	1	2	182.668	24.444	7.9	0.000	0.015	2	F	2831.3	184.542	0.099	-1.442	695.690	1255.457	0.151	-	0.652	-0.959	-	-	-	-	-	-	-	FREEWAY_SMOOTH	Urban	F	1011101000011101	0000000000010000	-	-	-	-	-	-	-	-	-	-	Terminate	
Unknown	127.98589	11/01/0116 09:45.20	00007679	17.592	Inter752t1-2	1.765	1	2	181.184	24.444	-4.2	0.000	0.054	2	F	2639.7	184.807	0.079	-0.863	694.174	1237.302	0.126	-	-0.253	-1.463	-	-	-	-	-	-	-	FREEWAY_SMOOTH	Urban	F	1011101000011101	0000000000010000	-	-	-	-	-	-	-	-	-	-	Terminate	
Unknown	128.98592	11/01/0116 09:45.21	00007739	16.593	Inter752t1-3	-0.763	2	2	180.339	24.444	-7.8	0.000	0.021	2	F	2504.9	183.831	0.027	-0.431	692.898	1220.302	0.090	-	-0.363	-0.965	-	-	-	-	-	-	-	FREEWAY_SMOOTH	Urban	F	1011101000011101	0000000000010000	-	-	-	-	-	-	-	-	-	-	Terminate	
Unknown	129.98593	11/01/0116 09:45.22	00007799	15.795	Inter752t1-3	-0.043	2	2	180.009	24.444	-3.8	0.000	0.000	2	F	2388.4	181.332	0.000	-0.019	692.143	1204.135	0.041	-	-0.457	-0.766	-	-	-	-	-	-	-	FREEWAY_SMOOTH	Urban	F	1011101000011101	0000000000010000	-	-	-	-	-	-	-	-	-	-	Terminate	
Unknown	130.98595	11/01/0116 09:45.23	00007859	15.073	Inter754t3-3	0.944	2	2	180.000	11.111	-11.1	0.000	0.000	2	F	2280.2	180.695	0.186	0.069	691.849	1188.709	0.030	-	-0.475	-0.705	-	-	-	Ambient360	3.135	47.254	10.222	PAVEMENT_GENERAL	Urban	F	1111101000011101	0000000000010000	-	-	-	-	-	-	-	-	-	-	Terminate	
Unknown	131.98598	11/01/0116 09:45.24	00007919	14.393	Inter754t3-3	0.845	2	2	180.000	11.111	3.2	0.014	0.000	2	F	2180.0	178.870	0.190	-0.011	691.948	1173.984	0.029	-	0.014	-0.616	-	-	-	Ambient360	2.997	43.132	11.760	PAVEMENT_GENERAL	Urban	F	1011101000011101	0000000000010000	-	-	-	-	-	-	-	-	-	-	Terminate	
Unknown	132.98599	11/01/0116 09:45.25	00007979	13.812	Inter754t3-3	0.645	2	2	180.000	11.111	0.6	0.016	0.000	2	F	2092.8	179.435	0.190	-0.011	692.148	1159.884	0.029	-	0.060	-0.576	-	-	-	Ambient360	2.884	39.834	13.562	PAVEMENT_GENERAL	Urban	F	1011101000011101	0000000000010000	-	-	-	-	-	-	-	-	-	-	Terminate	
Unknown	133.98601	11/01/0116 09:45.26	00008039	13.562	Inter754t3-3	0.416	2	2	180.000	11.111	-26.4	0.115	0.000	2	F	2151.7	177.743	0.196	0.159	692.377	1146.268	0.026	L	-1.173	0.054	-	-	-	Ambient360	2.738	37.131	14.172	PAVEMENT_GENERAL	Urban	F	1011101000111101	0000000000010000	-	-	-	-	-	-	-	-	-	-	Terminate	
Unknown	134.98604	11/01/0116 09:45.27	00008099	13.823	Inter754t3-3	-0.629	2	2	180.000	11.111	4.5	0.175	0.000	2	F	2303.7	174.573	0.202	-0.012	693.422	1132.656	0.024	-	0.048	0.501	-	-	-	Ambient360	2.495	34.490	12.181	PAVEMENT_GENERAL	Urban	F	1011101000011101	0000000000010000	-	-	-	-	-	-	-	-	-	-	Terminate	
Unknown	135.98605	11/01/0116 09:45.28	00008159	14.129	Inter754t3-3	-1.797	2	2	180.000	11.111	8.2	0.019	0.000	2	F	2140.6	175.991	0.176	-0.051	694.590	1118.667	0.026	-	0.431	-0.470	-	-	-	Ambient360	2.230	31.502	10.094	PAVEMENT_GENERAL	Urban	F	1111101000011101	0000000000010000	-	-	-	-	-	-	-	-	-	-	Terminate	
Unknown	136.98607	11/01/0116 09:45.29	00008219	13.465	Inter754t3-2	1.077	1	2	180.000	11.111	5.3	0.000	0.000	2	F	2037.9	177.919	0.189	-0.039	695.316	1104.888	0.030	-	0.320	-0.661	-	-	-	Ambient360	2.128	28.649	11.740	PAVEMENT_GENERAL	Urban	F	1011101000011101	0000000000010000	-	-	-	-	-	-	-	-	-	-	Terminate	
Unknown	137.98610	11/01/0116 09:45.30	00008279	12.628	Inter754t9-0	0.748	1	1	179.993	11.111	3.4	0.000	0.000	2	F	1911.6	179.237	0.192	-0.024	695.646	1091.844	0.029	-	0.216	-0.640	-	-	-	Ambient360	2.109	26.632	16.615	PAVEMENT_GENERAL	Urban	F	1011101000011101	0000000000010000	-	-	-	-	-	-	-	-	-	-	Terminate	
Unknown	138.98611	11/01/0116 09:45.31	00008339	11.998	Inter754t9-0	0.589	1	1	179.990	11.111	-1.7	0.000	0.000	2	F	1815.6	179.022	0.192	0.009	695.806	1079.534	0.029	-	-0.098	-0.623	-	-	-	Ambient360	1.915	22.974	23.737	PAVEMENT_GENERAL	Urban	F	1011101000011101	0000000000010000	-	-	-	-	-	-	-	-	-	-	Terminate	
Unknown	139.98613	11/01/0116 09:45.32	00008399	11.382	Inter754t9-0	0.388	1	1	179.989	11.111	9.3	0.000	0.000	2	F	1723.6	179.233	0.192	-0.046	696.009	1067.847	0.029	-	0.314	-0.609	-	-	-	Ambient360	1.961	22.323	63.326	PAVEMENT_GENERAL	Urban	F	1011101000011101	0000000000010000	-	-	-	-	-	-	-	-	-	-	Terminate	
Unknown	140.98616	11/01/0116 09:45.33	00008459	10.793	Inter754t9-0	0.411	1	1	179.990	11.111	-3.7	0.004	0.000	2	F	1635.3	180.491	0.197	0.017	695.988	1056.766	0.029	-	-0.089	-0.420	-	-	-	Ambient360	2.281	24.621	-	PAVEMENT_GENERAL	Urban	F	1011101000011101	0000000000010000	-	-	-	-	-	-	-	-	-	-	Terminate	
Unknown	141.98618	11/01/0116 09:45.34	00008519	10.311	Inter754t9-0	0.450	1	1	179.992	11.111	1.4	0.048	0.000	2	F	1605.1	180.129	0.201	-0.002	695.951	1046.242	0.028	-	0.034	-0.238	-	-	-	Ambient360	2.441	25.165	-	PAVEMENT_GENERAL	Urban	F	1011101000011101	0000000000010000	-	-	-	-	-	-	-	-	-	-	Terminate	
Unknown	142.98619	11/01/0116 09:45.35	00008579	10.244	Inter754t9-0	0.516	1	1	179.996	11.111	-0.2	0.069	0.000	2	F	1678.5	180.534	0.200	0.001	695.887	1035.979	0.026	-	0.008	0.000	-	-	-	Ambient360	2.532	25.937	-	PAVEMENT_GENERAL	Urban	F	1011101000011101	0000000000010000	-	-	-	-	-	-	-	-	-	-	Terminate	
Unknown	143.98621	11/01/0116 09:45.36	00008639	10.339	Inter754t9-0	0.594	1	1	179.996	11.111	-4.0	0.109	0.000	2	F	1755.6	180.284	0.205	0.015	695.810	1025.705	0.026	-	-0.109	0.283	-	-	-	Ambient360	2.583	26.710	-	PAVEMENT_GENERAL	Urban	F	1011101000011101	0000000000010000	-	-	-	-	-	-	-	-	-	-	Terminate	
Unknown	144.98624	11/01/0116 09:45.37	00008699	10.728	Inter754t1-1	0.577	1	1	180.000	11.111	-2.1	0.131	0.000	2	F	1830.9	179.635	0.203	0.010	695.827	1015.181	0.024	-	-0.077	0.400	-	-	-	Ambient360	2.538	27.224	-	PAVEMENT_GENERAL	Urban	F	1011101000011101	0000000000010000	-	-	-	-	-	-	-	-	-	-	Terminate	
Unknown	145.98625	11/01/0116 09:45.38	00008759	11.133	Inter754t1-1	0.480	1	1	180.000	11.111	-1.2	0.116	0.000	2	F	1870.8	179.430	0.197	0.005	695.924	1004.250	0.024	-	-0.037	0.257	-	-	-	Ambient360	2.455	27.331	315.771	PAVEMENT_GENERAL	Urban	F	1011101000011101	0000000000010000	-	-	-	-	-	-	-	-	-	-	Terminate	
Unknown	146.98627	11/01/0116 09:45.39	00008819	11.421	Inter686t1-0	0.352	1	1	180.000	11.111	0.5	0.120	0.000	2	F	1908.8	179.378	0.200	-0.002	696.044	992.969	0.025	-	0.009	0.252	-	-	-	Ambient360	2.372	27.087	72.222	PAVEMENT_GENERAL	Urban	F	1011101000011101	0000000000010000	-	-	-	-	-	-	-	-	-	-	Terminate	
Unknown	147.98630	11/01/0116 09:45.40	00008879	11.693	Inter686t1-0	0.248	1	1	180.000	11.111	1.9	0.106	0.000	2	F	1929.0	179.622	0.197	-0.010	696.148	981.400	0.025	-	0.072	0.185	-	-	-	Ambient360	2.271	26.556	41.055	PAVEMENT_GENERAL	Urban	F	1011101000011101	0000000000010000	-	-	-	-	-	-	-	-	-	-	Terminate	
Unknown	148.98631	11/01/0116 09:45.41	00008939	11.617	Inter686t1-0	0.206	1	1	180.000	11.111	2.9	0.081	0.000	2	F	1864.4	179.974	0.200	-0.015	696.190	969.740	0.027	-	0.103	-0.024	-	-	-	Ambient360	2.232	25.933	45.471	PAVEMENT_GENERAL	Urban	F	1011101000011101	0000000000010000	-	-	-	-	-	-	-	-	-	-	Terminate	
Unknown	149.98633	11/01/0116 09:45.42	00008999	11.714	Inter686t1-0	0.231	1	1	180.000	11.111	1.2	0.113	0.000	2	F	1934.8	180.215	0.200	-0.003	696.165	958.092	0.026	-	0.042	0.170	-	-	-	Ambient360	2.162	25.323	37.946	PAVEMENT_GENERAL	Urban	F	1111101000011101	0000000000010000	-	-	-	-	-	-	-	-	-	-	Terminate	
Unknown	150.98636	11/01/0116 09:45.43	00009059	12.073	Inter686t1-0	0.300	1	1	180.000	11.111	-0.7	0.153	0.000	2	F	2045.7	180.390	0.203	0.001	696.096	946.214	0.024	-	-0.013	0.451	-	-	-	Ambient360	2.028	24.483	23.845	PAVEMENT_GENERAL	Urban	F	1011101000011101	0000000000010000	-	-	-	-	-	-	-	-	-	-	Terminate	
Unknown	151.98637	11/01/0116 09:45.44	00009119	12.527	Inter686t1-0	0.346	1	1	180.000	11.111	-1.0	0.150	0.000	2	F	2097.9	179.995	0.202	0.009	696.050	933.912	0.024	-	-0.069	0.425	-	-	-	Ambient360	1.853	23.219	15.681	PAVEMENT_GENERAL	Urban	F	1011101000011101	0000000000010000	-	-	-	-	-	-	-	-	-	-	Terminate	
Unknown	152.98639	11/01/0116 09:45.45	00009179	12.510	Inter686t1-0	0.348	1	1	180.000	11.111	1.6	0.019	0.000	2	F	1897.9	180.116	0.192	-0.008	696.048	921.302	0.028	-	0.069	-0.430	-	-	-	Ambient360	1.730	21.646	14.789	PAVEMENT_GENERAL	Urban	F	1011101000011101	0000000000010000	-	-	-	-	-	-	-	-	-	-	Terminate	
Unknown	153.98642	11/01/0116 09:45.46	00009239	11.890	Inter686t1-0	0.402	1	1	180.000	11.111	-1.8	0.000	0.000	2	F	1799.4	180.336	0.192	0.007	695.994	909.100	0.029	-	-0.036	-0.621	-	-	-	Ambient360	1.723	20.482	24.290	PAVEMENT_GENERAL	Urban	F	1011101000011101	0000000000010000	-	-	-	-	-	-	-	-	-	-	Terminate	
Unknown	154.98643	11/01/0116 09:45.47	00009299	11.448	Inter686t1-0	0.428	1	1	180.000	11.111	-1.0	0.108	0.000	2	F	1908.2	179.980	0.204	0.006	695.968	897.487	0.027	-	-0.038	0.182	-	-	-	Ambient360	1.739	19.906	49.503	PAVEMENT_GENERAL	Urban	F	1011101000011101	0000000000010000	-	-	-	-	-	-	-	-	-	-	Terminate	
Unknown	155.98645	11/01/0116 09:45.48	00009359	11.445	Inter686t1-0	0.406	1	1	180.000	11.111	-0.6	0.048	0.000	2	F	1744.5	179.804	0.200	0.004	695.990	885.996	0.027	-	-0.027	-0.198	-	-	-	Ambient360	1.700	19.453	48.813	PAVEMENT_GENERAL	Urban	F	1011101000011101	0000000000010000	-	-	-	-	-	-	-	-	-	-	Terminate	
Unknown	156.98647	11/01/0116 09:45.49	00009419	11.140	Inter686t1-0	0.360	1	1	180.000	11.111	0.1	0.046	0.000	2	F	1696.9	179.731	0.197	-0.001	696.036	874.712	0.028	-	-0.002	-0.251	-	-	-	Ambient360	1.724	19.206	205.317	PAVEMENT_GENERAL	Urban	F	1011101000011101	0000000000010000	-	-	-	-	-	-	-	-	-	-	Terminate	
Unknown	157.98650	11/01/0116 09:45.50	00009479	10.973	Inter686t1-0	0.310	1	1	180.000	11.111	0.4	0.065	0.000	2	F	1755.6	179.761	0.199	-0.001	696.087	863.669	0.027	-	0.014	-0.072	-	-	-	Ambient360	1.750	19.201	-	PAVEMENT_GENERAL	Urban	F	1011101000011101	0000000000010000	-	-	-	-	-	-	-	-	-	-	Terminate	
Unknown	158.98651	11/01/0116 09:45.51	00009539	10.889	Inter686t1-0	0.270	1	1	180.000	11.111	0.4	0.063	0.000	2	F	1731.1	179.818	0.198	-0.002	696.126	852.735	0.027	-	0.013	-0.096	-	-	-	Ambient360	1.773	19.304	-	PAVEMENT_GENERAL	Urban	F	1011101000011101	0000000000010000	-	-	-	-	-	-	-	-	-	-	Terminate	
Unknown	159.98653	11/01/0116 09:45.52	00009599	10.897	Inter686t1-0	0.236	1	1	180.000	11.111	-0.2	0.072	0.000	2	F	1760.2	179.770	0.199	0.001	696.160	841.860	0.026	-	-0.012	0.033	-	-	-	Ambient360	1.787	19.467	-	PAVEMENT_GENERAL	Urban	F	1011101000011101	0000000000010000	-	-	-	-	-	-	-	-	-	-	Terminate	
Unknown	160.98656	11/01/0116 09:45.53	00009659	10.798	Inter686t1-0	0.189	1	1	180.000	11.111	-0.6	0.035	0.000	2	F	1642.7	179.760	0.193	0.004	696.207	830.990	0.027	-	-0.015	-0.305	-	-	-	Ambient360	1.818	19.635	-	PAVEMENT_GENERAL	Urban	F	1011101000011101	0000000000010000	-	-	-	-	-	-	-	-	-	-	Terminate	
Unknown	161.98657	11/01/0116 09:45.54	00009719	10.557	Inter686t1-0	0.132	1	1	180.000	11.111	-2.6	0.042	0.000	2	F	1612.0	179.597	0.197	0.010	696.264	820.315	0.027	-	-0.076	-0.246	-	-	-	Ambient360	1.894	19.998	-	PAVEMENT_GENERAL	Urban	F	1011101000011101	0000000000010000	-	-	-	-	-	-	-	-	-	-	Terminate	
Unknown	162.98659	11/01/0116 09:45.55	00009779	10.267	Inter686t1-0	0.076	1	1	180.000	11.111	6.4	0.037	0.000	2	F	1563.0	180.084	0.197	-0.027	696.320	809.907	0.028	-	0.205	-0.265	-	-	-	Ambient360	2.009	20.627	-	PAVEMENT_GENERAL	Urban	F	1011101000011101	0000000000010000	-	-	-	-	-	-	-	-	-	-	Terminate	
Unknown	163.98662	11/01/0116 09:45.56	00009839	9.918	Inter682t1-1	0.169	1	1	180.000	11.111	0.9	0.000	0.000	2	F	1501.7	180.630	0.190	-0.005	696.235	799.788	0.029	-	0.032	-0.572	-	-	-	Ambient360	2.172	21.545	-	PAVEMENT_GENERAL	Urban	F	1011101000011101	0000000000010000	-	-	-	-	-	-	-	-	-	-	Terminate	
Unknown	164.98663	11/01/0116 09:45.57	00009899	9.358	Inter682t1-1	0.247	1	1	180.000	11.111	-3.6	0.004	0.000	2	F	1417.4	180.186	0.194	0.015	696.157	790.153	0.029	-	-0.107	-0.554	-	-	-	Ambient360	2.452	22.948	-	PAVEMENT_GENERAL	Urban	F	1011101000011101	0000000000010000	-	-	-	-	-	-	-	-	-	-	Terminate	
Unknown	165.98665	11/01/0116 09:45.58	00009959	8.868	Inter682t1-1	0.219	1	1	180.000	11.111	-3.5	0.014	0.000	2	F	1346.2	179.571	0.197	0.011	696.185	781.051	0.028	-	-0.089	-0.423	-	-	-	Ambient360	2.806	24.884	-	PAVEMENT_GENERAL	Urban	F	1011101000011101	0000000000010000	-	-	-	-	-	-	-	-	-	-	Terminate	
Unknown	166.98668	11/01/0116 09:45.59	00010019	8.481	Inter682t1-1	0.107	1	1	180.000	11.111	-3.4	0.016	0.000	2	F	1288.0	179.064	0.198	0.011	696.297	772.376	0.028	-	-0.079	-0.383	-	-	-	Ambient360	3.213	27.246	-	PAVEMENT_GENERAL	Urban	F	1011101000011101	0000000000010000	-	-	-	-	-	-	-	-	-	-	Terminate	
Unknown	167.98669	11/01/0116 09:46.00	00010079	8.312	Inter682t1-1	-0.045	1	1	180.000	11.111	8.7	0.102	0.000	2	F	1521.8	179.088	0.207	-0.026	696.449	764.048	0.025	-	0.187	0.369	-	-	-	Ambient360	3.604	29.956	-	PAVEMENT_GENERAL	Urban	F	1011101000011101	0000000000010000	-	-	-	-	-	-	-	-	-	-	Terminate	
Unknown	168.98671	11/01/0116 09:46.01	00010139	9.070	Inter682t1-1	-0.048	1	1	180.000	11.111	6.3	0.203	0.000	2	F	1847.9	180.482	0.210	-0.022	696.452	755.419	0.021	-	0.158	1.081	-	-	-	Ambient360	3.568	32.365	-	PAVEMENT_GENERAL	Urban	F	1011101000011101	0000000000010000	-	-	-	-	-	-	-	-	-	-	Terminate	
Unknown	169.98674	11/01/0116 09:46.02	00010199	10.276	Inter682t1-1	0.108	1	1	180.000	11.111	3.2	0.236	0.000	2	F	2001.5	181.155	0.211	-0.013	696.296	745.760	0.021	-	0.097	1.230	-	-	-	Ambient360	3.284	33.743	-	PAVEMENT_GENERAL	Urban	F	1011101000011101	0000000000010000	-	-	-	-	-	-	-	-	-	-	Terminate	
Unknown	170.98676	11/01/0116 09:46.03	00010259	10.971	Inter682t1-1	0.369	1	1	180.000	11.111	-3.5	0.111	0.000	2	F	1842.6	181.453	0.205	0.012	696.034	735.023	0.025	-	-0.084	0.260	-	-	-	Ambient360	3.103	34.044	-	PAVEMENT_GENERAL	Urban	F	1011101000011101	0000000000010000	-	-	-	-	-	-	-	-	-	-	Terminate	
Unknown	171.98677	11/01/0116 09:46.04	00010319	11.300	Inter682t1-1	0.580	1	1	180.000	11.111	-2.1	0.122	0.000	2	F	1901.0	180.831	0.202	0.012	695.824	723.895	0.025	-	-0.081	0.317	-	-	-	Ambient360	3.005	33.953	134.007	PAVEMENT_GENERAL	Urban	F	1011101000011101	0000000000010000	-	-	-	-	-	-	-	-	-	-	Terminate	
Unknown	172.98679	11/01/0116 09:46.05	00010379	11.541	Inter682t1-1	0.725	1	1	180.000	11.111	-2.7	0.102	0.000	2	F	1900.3	180.633	0.198	0.011	695.679	712.463	0.025	-	-0.081	0.154	-	-	-	Ambient360	2.908	33.559	67.847	PAVEMENT_GENERAL	Urban	F	1011101000011101	0000000000010000	-	-	-	-	-	-	-	-	-	-	Terminate	
Unknown	173.98682	11/01/0116 09:46.06	00010439	11.724	Inter682t1-1	0.757	1	1	180.000	11.111	-6.4	0.120	0.000	2	F	1952.0	179.622	0.201	0.028	695.647	700.840	0.025	-	-0.238	0.259	-	-	-	Ambient360	2.812	32.973	48.638	PAVEMENT_GENERAL	Urban	F	1011101000011101	0000000000010000	-	-	-	-	-	-	-	-	-	-	Terminate	
Unknown	174.98683	11/01/0116 09:46.07	00010499	12.054	Inter682t1-1	0.625	1	1	180.000	11.111	1.5	0.127	0.000	2	F	2007.8	179.451	0.201	-0.010	695.779	688.964	0.025	-	0.074	0.341	-	-	-	Ambient360	2.666	32.135	31.890	PAVEMENT_GENERAL	Urban	F	1011101000011101	0000000000010000	-	-	-	-	-	-	-	-	-	-	Terminate	
Unknown	175.98685	11/01/0116 09:46.08	00010559	12.256	Inter682t1-1	0.522	1	1	180.000	11.111	0.7	0.076	0.000	2	F	1908.6	179.527	0.193	-0.001	695.881	676.790	0.026	-	0.015	-0.055	-	-	-	Ambient360	2.529	30.998	25.619	PAVEMENT_GENERAL	Urban	F	1011101000011101	0000000000010000	-	-	-	-	-	-	-	-	-	-	Terminate	
Unknown	176.98688	11/01/0116 09:46.09	00010619	11.879	Inter682t1-1	0.444	1	1	180.000	11.111	0.7	0.000	0.000	2	F	1797.7	179.737	0.190	-0.004	695.960	664.654	0.029	-	0.035	-0.620	-	-	-	Ambient360	2.517	29.900	35.922	PAVEMENT_GENERAL	Urban	F	1011101000011101	0000000000010000	-	-	-	-	-	-	-	-	-	-	Terminate	
Unknown	177.98689	11/01/0116 09:46.10	00010679	11.266	Inter682t1-1	0.379	1	1	180.000	11.111	-10.7	0.000	0.000	2	F	1706.0	179.364	0.192	0.048	696.025	653.083	0.029	-	-0.361	-0.607	-	-	-	Ambient360	2.607	29.367	133.587	PAVEMENT_GENERAL	Urban	F	1011101000011101	0000000000010000	-	-	-	-	-	-	-	-	-	-	Terminate	
Unknown	178.98691	11/01/0116 09:46.11	00010739	10.665	Inter682t1-1	-0.062	1	1	180.000	11.111	-13.4	0.000	0.000	2	F	1615.2	176.132	0.192	0.062	696.466	642.129	0.029	-	-0.520	-0.593	-	-	-	Ambient360	2.761	29.451	-	PAVEMENT_GENERAL	Urban	F	1011101000011101	0000000000010000	-	-	-	-	-	-	-	-	-	-	Terminate	
Unknown	179.98694	11/01/0116 09:46.12	00010799	10.082	Inter682t1-1	-0.886	1	1	180.000	11.111	11.3	0.000	0.000	2	F	1527.1	175.447	0.193	-0.041	697.290	631.789	0.029	-	0.323	-0.578	-	-	-	Ambient360	2.990	30.149	-	PAVEMENT_GENERAL	Urban	F	1011101000011101	0000000000010000	-	-	-	-	-	-	-	-	-	-	Terminate	
Unknown	180.98695	11/01/0116 09:46.13	00010859	9.860	Inter682t1-1	-1.497	1	1	180.000	11.111	2.3	0.134	0.000	2	F	1736.3	176.980	0.206	-0.003	697.901	621.934	0.025	-	0.070	0.398	-	-	-	Ambient360	3.178	31.330	-	PAVEMENT_GENERAL	Urban	F	1011101000011101	0000000000010000	-	-	-	-	-	-	-	-	-	-	Terminate	
Unknown	181.98697	11/01/0116 09:46.14	00010919	10.532	-	-	CL	0	-	-	9.7	0.148	0.000	2	F	1846.9	178.020	0.205	-0.039	698.354	611.729	0.024	-	0.296	0.562	-	-	-	-	-	-	-	PAVEMENT_GENERAL	Urban	F	1011101000011101	0000000000010000	-	-	-	-	-	-	-	-	-	-	Terminate	
Unknown	182.98700	11/01/0116 09:46.15	00010979	10.875	-	-	CL	0	-	-	5.9	0.113	0.000	2	F	1830.2	179.423	0.203	-0.028	698.561	601.015	0.025	-	0.192	0.317	-	-	-	-	-	-	-	PAVEMENT_GENERAL	Urban	F	1011101000011101	0000000000010000	-	-	-	-	-	-	-	-	-	-	Terminate	
Unknown	183.98701	11/01/0116 09:46.16	00011039	11.125	-	-	CL	0	-	-	0.4	0.115	0.000	2	F	1865.4	179.913	0.202	0.003	698.607	590.014	0.025	-	0.020	0.247	-	-	-	-	-	-	-	PAVEMENT_GENERAL	Urban	F	1011101000011101	0000000000010000	-	-	-	-	-	-	-	-	-	-	Terminate	
Unknown	184.98703	11/01/0116 09:46.17	00011099	11.354	-	-	SH-	1	-	-	0.3	0.104	0.000	2	F	1877.2	179.921	0.202	0.001	698.618	578.760	0.026	-	0.000	0.178	-	-	-	-	-	-	-	PAVEMENT_GENERAL	Urban	F	1011101000011101	0000000000010000	-	-	-	-	-	-	-	-	-	-	Terminate	
Unknown	185.98706	11/01/0116 09:46.18	00011159	11.505	Inter688t33-0	-0.994	1	1	173.370	11.111	-2.1	0.000	0.000	2	F	1734.2	179.877	0.178	0.009	698.634	567.301	0.026	-	-0.065	-0.666	-	-	-	Ambient360	2.567	29.527	62.184	PAVEMENT_GENERAL	Urban	F	1011101000011101	0000000000010000	-	-	-	-	-	-	-	-	-	-	Terminate	
Unknown	186.98708	11/01/0116 09:46.19	00011219	10.617	Inter688t33-0	0.324	1	1	176.027	11.111	-0.2	0.000	0.096	2	F	1586.2	179.365	0.162	0.004	698.716	556.142	0.031	-	-0.026	-1.742	-	-	-	Ambient360	2.769	29.397	-	PAVEMENT_GENERAL	Urban	F	1011101000011101	0000000000010000	-	-	-	-	-	-	-	-	-	-	Terminate	
Unknown	187.98709	11/01/0116 09:46.20	00011279	8.399	Inter688t33-0	0.877	1	1	176.027	11.111	1.7	0.000	0.206	2	F	1238.1	179.276	0.146	-0.006	698.829	546.525	0.034	L	0.028	-2.992	-	-	-	Ambient360	3.669	30.816	-	PAVEMENT_GENERAL	Urban	F	1011101000111101	0000000000010000	-	-	-	-	-	-	-	-	-	-	Terminate	
Unknown	188.98711	11/01/0116 09:46.21	00011339	6.221	Inter688t27-1	1.073	LT1	1	179.909	11.111	4.2	0.000	0.152	2	F	923.1	179.737	0.152	-0.009	698.885	539.379	0.031	L	0.059	-2.266	-	-	-	Ambient360	5.580	34.711	-	PAVEMENT_GENERAL	Urban	F	1111101000111101	0000000000010000	-	-	-	-	-	-	-	-	-	-	Terminate	
Unknown	189.98714	11/01/0116 09:46.22	00011399	2.352	Inter688t27-1	1.083	LT1	1	179.909	11.111	3.9	0.000	0.319	2	F	477.5	180.119	0.140	0.000	698.882	534.932	0.038	L	0.001	-4.174	-	-	-	Ambient360	17.563	41.307	-	PAVEMENT_GENERAL	Urban	F	1011101000111101	0000000000010000	-	-	-	-	-	-	-	-	-	-	Terminate	
Unknown	190.98715	11/01/0116 09:46.23	00011459	0.497	Inter688t27-1	1.088	LT1	1	179.909	11.111	0.5	0.000	0.000	2	F	477.5	180.174	0.236	-0.000	698.878	533.957	0.031	L	0.001	0.026	-	-	-	-	-	-	-	PAVEMENT_GENERAL	Urban	F	1011101000111101	0000000000010000	-	-	-	-	-	-	-	-	-	-	Terminate	
Unknown	191.98717	11/01/0116 09:46.24	00011519	0.601	Inter688t27-1	1.093	LT1	1	179.909	11.111	17.7	0.058	0.000	2	F	872.7	180.266	0.223	-0.002	698.874	533.440	0.026	L	0.015	0.742	-	-	-	-	-	-	-	PAVEMENT_GENERAL	Urban	F	1111101000111101	0000000000010000	-	-	-	-	-	-	-	-	-	-	Terminate	
Unknown	192.98720	11/01/0116 09:46.25	00011579	3.363	Inter688t27-1	1.137	LT1	1	179.909	11.111	13.7	0.205	0.000	2	F	1674.8	180.984	0.222	-0.005	698.834	531.536	0.013	L	0.051	2.997	-	-	-	-	-	-	-	PAVEMENT_GENERAL	Urban	F	1011101000111101	0000000000010000	-	-	-	-	-	-	-	-	-	-	Terminate	
Unknown	193.98721	11/01/0116 09:46.26	00011639	6.554	Inter688t27-1	1.252	LT1	1	179.909	11.111	-19.0	0.374	0.000	2	F	2272.5	180.962	0.228	0.046	698.726	526.550	0.012	L	-0.319	2.976	-	-	-	-	-	-	-	PAVEMENT_GENERAL	Urban	F	1011101000111101	0000000000010000	-	-	-	-	-	-	-	-	-	-	Terminate	
Unknown	194.98723	11/01/0116 09:46.27	00011699	9.291	Inter688t27-1	0.968	LT1	1	179.909	11.111	-81.0	0.332	0.000	2	F	2765.4	174.981	0.228	0.275	699.022	518.608	0.015	L	-1.989	2.737	-	-	-	-	-	-	-	PAVEMENT_GENERAL	Urban	F	1111101000111101	0000000000010000	-	-	-	-	-	-	-	-	-	-	Terminate	
Unknown	195.98726	11/01/0116 09:46.28	00011759	10.667	Inter688t59-0	0.854	1	1	153.629	11.111	-123.8	0.162	0.000	2	F	1902.2	157.107	0.181	0.543	701.534	508.788	0.026	L	-4.109	0.455	-	-	-	-	-	-	-	PAVEMENT_GENERAL	Urban	F	1011101000111101	0000000000010000	-	-	-	-	-	-	-	-	-	-	Terminate	
Unknown	196.98727	11/01/0116 09:46.29	00011819	10.649	Inter688t59-0	0.953	1	1	131.098	11.111	-184.1	0.102	0.000	2	F	1783.0	131.866	0.187	0.747	707.753	500.170	0.035	L	-5.618	-0.244	-	-	-	-	-	-	-	PAVEMENT_GENERAL	Urban	F	1111101000111101	0000000000010000	-	-	-	-	-	-	-	-	-	-	Terminate	
Unknown	197.98729	11/01/0116 09:46.30	00011879	10.451	Inter688t59-0	0.699	1	1	93.676	11.111	-153.6	0.118	0.000	2	F	1777.5	98.655	0.127	0.723	717.191	495.865	0.037	L	-5.593	0.046	-	-	-	-	-	-	-	PAVEMENT_GENERAL	Urban	F	1011101000111101	0000000000010000	-	-	-	-	-	-	-	-	-	-	Terminate	
Unknown	198.98732	11/01/0116 09:46.31	00011939	10.809	Inter688t5-0	0.349	1	1	90.156	11.111	14.1	0.146	0.000	2	F	1872.7	84.708	0.202	-0.034	727.749	496.130	0.024	-	0.192	0.535	-	-	-	-	-	-	-	PAVEMENT_GENERAL	Urban	F	1011101000011101	0000000000010000	-	-	-	-	-	-	-	-	-	-	Terminate	
Unknown	199.98734	11/01/0116 09:46.32	00011999	11.363	Inter688t5-0	-0.153	1	1	90.156	11.111	11.5	0.152	0.000	2	F	1945.9	90.053	0.198	-0.054	738.821	496.602	0.024	-	0.558	0.508	-	-	-	-	-	-	-	PAVEMENT_GENERAL	Urban	F	1011101000011101	0000000000010000	-	-	-	-	-	-	-	-	-	-	Terminate	
Unknown	200.98735	11/01/0116 09:46.33	00012059	11.895	Inter688t19-0	-0.022	1	1	90.068	11.111	2.9	0.145	0.000	2	F	2007.5	91.118	0.202	-0.015	750.448	496.446	0.024	-	0.115	0.460	-	-	-	-	-	-	-	PAVEMENT_GENERAL	Urban	F	1011101000011101	0000000000010000	-	-	-	-	-	-	-	-	-	-	Terminate	
Unknown	201.98737	11/01/0116 09:46.34	00012119	12.267	Inter688t19-0	0.241	1	1	90.020	11.111	2.5	0.138	0.000	2	F	2046.1	91.487	0.201	-0.012	762.534	496.168	0.025	-	0.093	0.339	-	-	-	-	-	-	-	PAVEMENT_GENERAL	Urban	F	1011101000011101	0000000000010000	-	-	-	-	-	-	-	-	-	-	Terminate	
Unknown	202.98740	11/01/0116 09:46.35	00012179	12.538	Inter688t19-0	0.610	1	1	90.003	11.111	2.3	0.123	0.000	2	F	2058.8	91.939	0.200	-0.012	774.942	495.795	0.025	-	0.094	0.226	-	-	-	-	-	-	-	PAVEMENT_GENERAL	Urban	F	1011101000011101	0000000000010000	-	-	-	-	-	-	-	-	-	-	Terminate	
Unknown	203.98741	11/01/0116 09:46.36	00012239	12.823	Inter688t7-0	1.084	1	1	90.000	11.111	-11.2	0.152	0.000	2	F	2136.2	92.290	0.198	0.031	787.588	495.320	0.024	-	-0.263	0.418	-	-	-	-	-	-	-	PAVEMENT_GENERAL	Urban	F	1011101000011101	0000000000010000	-	-	-	-	-	-	-	-	-	-	Terminate	
