"Name"	"Project"	"Time"	ZoneName	Time	SystemTime	Frame	Velocity	LaneName	LanePos	LaneIndex	LaneCount	LaneHeading	SpeedLimit	Steer	Accel	Brake	Gear	Horn	SubjectEngineRPM	SubjectHeading	SubjectPitch	SubjectRoll	SubjectX	SubjectY	SubjectZ	Signal	LatAccel	LongAccel	Collision	CollisionAngle	CollisionVelocity	VehAhead	HeadwayTime	HeadwayDist	TTC	TerrainType	CultureType	Slip	DigitalInputs	DigitalInputs2	ActiveTrigger	EntityName	DistToEntity	TimeToEntity	EntityVelocity	EntityAccel	EntityHeading	EntityX	EntityY	EntityZ	GrabData	
"Student21Mode1"	"Seema_Shokoufeh_Track2"	"Feb 14, 2017 10:32:38 AM"	Unknown	0.98335	01/14/0117 10:32.42	00000059	0.002	Inter625t13-0	-0.088	1	2	0.000	11.111	0.5	0.000	0.000	D	F	0.0	0.000	0.153	-0.000	1503.500	523.206	0.019	-	-0.000	0.000	-	-	-	-	-	-	-	PAVEMENT_GENERAL	Urban	F	1011101000011101	0000000000000000	-	-	-	-	-	-	-	-	-	-	Terminate	
"Student21Mode1"	"Seema_Shokoufeh_Track2"	"Feb 14, 2017 10:32:38 AM"	Unknown	1.98337	01/14/0117 10:32.43	00000119	0.000	Inter625t13-0	-0.088	1	2	0.000	11.111	0.5	0.000	0.000	D	F	0.0	0.000	0.197	-0.000	1503.500	523.208	0.026	-	0.000	-0.001	-	-	-	-	-	-	-	PAVEMENT_GENERAL	Urban	F	1011101000011101	0000000000000000	-	-	-	-	-	-	-	-	-	-	Terminate	
"Student21Mode1"	"Seema_Shokoufeh_Track2"	"Feb 14, 2017 10:32:38 AM"	Unknown	2.98339	01/14/0117 10:32.44	00000179	0.000	Inter625t13-0	-0.088	1	2	0.000	11.111	0.5	0.000	0.140	D	F	0.0	0.000	0.207	-0.000	1503.500	523.208	0.028	-	0.000	0.001	-	-	-	-	-	-	-	PAVEMENT_GENERAL	Urban	F	1011101000011101	0000000000000000	-	-	-	-	-	-	-	-	-	-	Terminate	
"Student21Mode1"	"Seema_Shokoufeh_Track2"	"Feb 14, 2017 10:32:38 AM"	Unknown	3.98341	01/14/0117 10:32.45	00000239	-0.000	Inter625t13-0	-0.088	1	2	0.000	11.111	0.5	0.000	0.899	D	F	0.0	0.000	0.208	-0.000	1503.500	523.208	0.028	-	0.000	-0.000	-	-	-	-	-	-	-	PAVEMENT_GENERAL	Urban	F	1011101000011101	0000000000000000	-	-	-	-	-	-	-	-	-	-	Terminate	
"Student21Mode1"	"Seema_Shokoufeh_Track2"	"Feb 14, 2017 10:32:38 AM"	Unknown	4.98343	01/14/0117 10:32.46	00000299	-0.000	Inter625t13-0	-0.088	1	2	0.000	11.111	0.5	0.000	0.000	D	F	0.0	0.000	0.209	-0.000	1503.500	523.208	0.028	-	0.000	0.000	-	-	-	-	-	-	-	PAVEMENT_GENERAL	Urban	F	1011101000011101	0000000000000000	-	-	-	-	-	-	-	-	-	-	Terminate	
"Student21Mode1"	"Seema_Shokoufeh_Track2"	"Feb 14, 2017 10:32:38 AM"	Unknown	5.98345	01/14/0117 10:32.47	00000359	-0.000	Inter625t13-0	-0.088	1	2	0.000	11.111	0.5	0.000	0.000	D	F	0.0	0.000	0.209	-0.000	1503.500	523.208	0.028	-	0.000	0.000	-	-	-	-	-	-	-	PAVEMENT_GENERAL	Urban	F	1011101000011101	0000000000000000	-	-	-	-	-	-	-	-	-	-	Terminate	
"Student21Mode1"	"Seema_Shokoufeh_Track2"	"Feb 14, 2017 10:32:38 AM"	Unknown	6.98347	01/14/0117 10:32.48	00000419	-0.000	Inter625t13-0	-0.088	1	2	0.000	11.111	0.5	0.000	0.000	D	F	0.0	0.000	0.209	-0.000	1503.500	523.208	0.028	-	0.000	0.000	-	-	-	-	-	-	-	PAVEMENT_GENERAL	Urban	F	1011101000011101	0000000000000000	-	-	-	-	-	-	-	-	-	-	Terminate	
"Student21Mode1"	"Seema_Shokoufeh_Track2"	"Feb 14, 2017 10:32:38 AM"	Unknown	7.98349	01/14/0117 10:32.49	00000479	-0.000	Inter625t13-0	-0.088	1	2	0.000	11.111	0.5	0.000	0.000	D	F	0.0	0.000	0.209	0.000	1503.500	523.208	0.028	-	0.000	0.000	-	-	-	-	-	-	-	PAVEMENT_GENERAL	Urban	F	1011101000011101	0000000000000000	-	-	-	-	-	-	-	-	-	-	Terminate	
"Student21Mode1"	"Seema_Shokoufeh_Track2"	"Feb 14, 2017 10:32:38 AM"	Unknown	8.98351	01/14/0117 10:32.50	00000539	0.000	Inter625t13-0	-0.088	1	2	0.000	11.111	0.5	0.000	0.000	D	F	222.2	0.000	0.208	-0.000	1503.500	523.208	0.028	-	0.000	0.002	-	-	-	-	-	-	-	PAVEMENT_GENERAL	Urban	F	1011101000011111	0000000000000000	-	-	-	-	-	-	-	-	-	-	Terminate	
"Student21Mode1"	"Seema_Shokoufeh_Track2"	"Feb 14, 2017 10:32:38 AM"	Unknown	9.98353	01/14/0117 10:32.51	00000599	0.001	Inter625t13-0	-0.088	1	2	0.000	11.111	0.3	0.000	0.743	D	F	477.5	0.000	0.206	0.000	1503.500	523.210	0.027	-	0.000	0.000	-	-	-	-	-	-	-	PAVEMENT_GENERAL	Urban	F	1011101000011101	0000000000000000	-	-	-	-	-	-	-	-	-	-	Terminate	
"Student21Mode1"	"Seema_Shokoufeh_Track2"	"Feb 14, 2017 10:32:38 AM"	Unknown	10.98355	01/14/0117 10:32.52	00000659	0.000	Inter625t13-0	-0.088	1	2	0.000	11.111	0.3	0.000	0.284	D	F	477.5	0.000	0.207	0.000	1503.500	523.210	0.027	-	0.000	0.000	-	-	-	-	-	-	-	PAVEMENT_GENERAL	Urban	F	1111101000011101	0000000000000000	-	-	-	-	-	-	-	-	-	-	Terminate	
"Student21Mode1"	"Seema_Shokoufeh_Track2"	"Feb 14, 2017 10:32:38 AM"	Unknown	11.98357	01/14/0117 10:32.53	00000719	1.317	Inter625t13-0	-0.088	1	2	0.000	11.111	0.6	0.208	0.000	D	F	1522.1	0.002	0.267	-0.001	1503.500	523.449	0.010	-	0.002	4.264	-	-	-	-	-	-	-	PAVEMENT_GENERAL	Urban	F	1011101000011101	0000000000000000	-	-	-	-	-	-	-	-	-	-	Terminate	
"Student21Mode1"	"Seema_Shokoufeh_Track2"	"Feb 14, 2017 10:32:38 AM"	Unknown	12.98359	01/14/0117 10:32.54	00000779	4.932	Inter625t13-0	-0.071	1	2	0.000	11.111	4.8	0.259	0.000	D	F	1929.9	0.353	0.223	-0.004	1503.517	526.676	0.011	-	0.035	2.986	-	-	-	-	-	-	-	PAVEMENT_GENERAL	Urban	F	1011101000011101	0000000000000000	-	-	-	-	-	-	-	-	-	-	Terminate	
"Student21Mode1"	"Seema_Shokoufeh_Track2"	"Feb 14, 2017 10:32:38 AM"	Unknown	13.98361	01/14/0117 10:32.55	00000839	7.563	Inter625t49-0	0.000	1	1	0.005	11.111	2.2	0.300	0.000	D	F	2443.1	0.734	0.225	-0.005	1503.588	532.959	0.015	-	0.042	2.494	-	-	-	-	-	-	-	PAVEMENT_GENERAL	Urban	F	1011101000011101	0000000000000000	-	-	-	-	-	-	-	-	-	-	Terminate	
"Student21Mode1"	"Seema_Shokoufeh_Track2"	"Feb 14, 2017 10:32:38 AM"	Unknown	14.98363	01/14/0117 10:32.56	00000899	9.865	Inter625t49-0	0.136	1	1	0.007	11.111	0.0	0.310	0.000	D	F	2152.3	0.949	0.210	0.001	1503.724	541.733	0.017	-	0.003	1.724	-	-	-	-	-	-	-	PAVEMENT_GENERAL	Urban	F	1011101000011101	0000000000000000	-	-	-	-	-	-	-	-	-	-	Terminate	
"Student21Mode1"	"Seema_Shokoufeh_Track2"	"Feb 14, 2017 10:32:38 AM"	Unknown	15.98365	01/14/0117 10:32.57	00000959	11.429	Inter625t49-0	0.310	1	1	0.008	11.111	-1.6	0.332	0.000	D	F	2206.9	0.904	0.213	0.007	1503.900	552.393	0.019	-	-0.048	1.498	-	-	-	-	-	-	-	PAVEMENT_GENERAL	Urban	F	1011101000011101	0000000000000000	-	-	-	-	-	-	-	-	-	-	Terminate	
"Student21Mode1"	"Seema_Shokoufeh_Track2"	"Feb 14, 2017 10:32:38 AM"	Unknown	16.98367	01/14/0117 10:32.58	00001019	12.838	Inter625t49-0	0.467	1	1	0.005	11.111	-0.8	0.335	0.000	D	F	2345.1	0.603	0.211	0.005	1504.058	564.535	0.020	-	-0.047	1.368	-	-	-	-	-	-	-	PAVEMENT_GENERAL	Urban	F	1011101000011101	0000000000000000	-	-	-	-	-	-	-	-	-	-	Terminate	
"Student21Mode1"	"Seema_Shokoufeh_Track2"	"Feb 14, 2017 10:32:38 AM"	Unknown	17.98369	01/14/0117 10:32.59	00001079	14.186	Inter625t49-0	0.591	1	1	0.005	11.111	-0.9	0.339	0.000	D	F	2514.3	0.454	0.209	0.006	1504.184	578.049	0.020	-	-0.044	1.333	-	-	-	-	-	-	-	PAVEMENT_GENERAL	Urban	F	1011101000011101	0000000000000000	-	-	-	-	-	-	-	-	-	-	Terminate	
"Student21Mode1"	"Seema_Shokoufeh_Track2"	"Feb 14, 2017 10:32:38 AM"	Unknown	18.98371	01/14/0117 10:33.00	00001139	15.506	Inter625t15-0	0.679	1	2	0.000	11.111	-0.1	0.347	0.000	D	F	2689.9	0.212	0.207	0.002	1504.272	592.897	0.020	-	-0.031	1.306	-	-	-	-	-	-	-	PAVEMENT_GENERAL	Urban	F	1011101000011101	0000000000000000	-	-	-	-	-	-	-	-	-	-	Terminate	
"Student21Mode1"	"Seema_Shokoufeh_Track2"	"Feb 14, 2017 10:32:38 AM"	Unknown	19.98373	01/14/0117 10:33.01	00001199	16.735	Inter614t1-0	0.741	1	2	0.000	11.111	0.2	0.326	0.000	D	F	2859.6	0.245	0.204	-0.002	1504.335	609.029	0.021	-	0.016	1.207	-	-	-	-	-	-	-	PAVEMENT_GENERAL	Urban	F	1011101000011101	0000000000000000	-	-	-	-	-	-	-	-	-	-	Terminate	
"Student21Mode1"	"Seema_Shokoufeh_Track2"	"Feb 14, 2017 10:32:38 AM"	Unknown	20.98375	01/14/0117 10:33.02	00001259	17.853	Inter614t1-0	0.836	1	2	0.000	11.111	0.8	0.305	0.000	D	F	2998.4	0.468	0.203	-0.011	1504.430	626.339	0.022	-	0.081	1.065	-	-	-	-	-	-	-	PAVEMENT_GENERAL	Urban	F	1011101000011101	0000000000000000	-	-	-	-	-	-	-	-	-	-	Terminate	
"Student21Mode1"	"Seema_Shokoufeh_Track2"	"Feb 14, 2017 10:32:38 AM"	Unknown	21.98377	01/14/0117 10:33.03	00001319	18.815	Inter614t1-0	0.967	1	2	0.000	11.111	-1.3	0.296	0.000	D	F	2297.9	0.243	0.194	0.013	1504.561	644.712	0.023	-	-0.106	0.671	-	-	-	-	-	-	-	PAVEMENT_GENERAL	Urban	F	1011101000011101	0000000000000000	-	-	-	-	-	-	-	-	-	-	Terminate	
"Student21Mode1"	"Seema_Shokoufeh_Track2"	"Feb 14, 2017 10:32:38 AM"	Unknown	22.98379	01/14/0117 10:33.04	00001379	19.137	Inter614t1-0	1.022	1	2	0.000	11.111	-0.8	0.201	0.000	D	F	2150.7	0.069	0.194	0.006	1504.615	663.746	0.026	-	-0.049	0.247	-	-	-	12	7.174	137.285	109.306	PAVEMENT_GENERAL	Urban	F	1011101000011101	0000000000000000	-	-	-	-	-	-	-	-	-	-	Terminate	
"Student21Mode1"	"Seema_Shokoufeh_Track2"	"Feb 14, 2017 10:32:38 AM"	Unknown	23.98381	01/14/0117 10:33.05	00001439	19.521	Inter614t1-0	1.017	1	2	0.000	11.111	0.1	0.229	0.000	D	F	2214.8	359.864	0.192	0.004	1504.610	683.067	0.025	-	-0.035	0.396	-	-	-	12	7.200	140.559	85.705	PAVEMENT_GENERAL	Urban	F	1011101000011101	0000000000000000	-	-	-	-	-	-	-	-	-	-	Terminate	
"Student21Mode1"	"Seema_Shokoufeh_Track2"	"Feb 14, 2017 10:32:38 AM"	Unknown	24.98383	01/14/0117 10:33.06	00001499	19.830	Inter614t1-0	0.975	1	2	0.000	11.111	0.3	0.212	0.000	D	F	2211.8	359.902	0.190	-0.003	1504.568	702.750	0.025	-	0.024	0.301	-	-	-	12	6.877	136.369	69.979	PAVEMENT_GENERAL	Urban	F	1011101000011101	0000000000000000	-	-	-	-	-	-	-	-	-	-	Terminate	
"Student21Mode1"	"Seema_Shokoufeh_Track2"	"Feb 14, 2017 10:32:38 AM"	Unknown	25.98385	01/14/0117 10:33.07	00001559	20.159	Inter614t1-0	0.953	1	2	0.000	11.111	0.2	0.222	0.000	D	F	2257.3	0.000	0.191	-0.003	1504.546	722.741	0.025	-	0.024	0.347	-	-	-	12	6.699	135.044	392.218	PAVEMENT_GENERAL	Urban	F	1011101000011101	0000000000000000	-	-	-	-	-	-	-	-	-	-	Terminate	
"Student21Mode1"	"Seema_Shokoufeh_Track2"	"Feb 14, 2017 10:32:38 AM"	Unknown	26.98387	01/14/0117 10:33.08	00001619	19.950	Inter614t1-0	0.953	1	2	0.000	11.111	-0.3	0.215	0.266	D	F	2188.0	0.000	0.090	0.002	1504.546	743.015	0.029	-	-0.014	-2.505	-	-	-	12	6.782	135.311	-	PAVEMENT_GENERAL	Urban	F	1011101000011101	0000000000000000	-	-	-	-	-	-	-	-	-	-	Terminate	
"Student21Mode1"	"Seema_Shokoufeh_Track2"	"Feb 14, 2017 10:32:38 AM"	Unknown	27.98389	01/14/0117 10:33.09	00001679	16.598	Inter614t1-0	0.942	1	2	0.000	11.111	-0.0	0.212	0.340	D	F	1955.4	359.929	0.131	0.001	1504.535	761.282	0.034	-	-0.012	-3.477	-	-	-	12	8.345	138.503	-	PAVEMENT_GENERAL	Urban	F	1011101000011101	0000000000000000	-	-	-	-	-	-	-	-	-	-	Terminate	
"Student21Mode1"	"Seema_Shokoufeh_Track2"	"Feb 14, 2017 10:32:38 AM"	Unknown	28.98391	01/14/0117 10:33.10	00001739	12.612	Inter614t1-0	0.922	1	2	0.000	11.111	-0.2	0.215	0.457	D	F	1801.6	359.894	0.122	0.001	1504.515	775.992	0.038	-	-0.012	-4.378	-	-	-	12	11.558	145.769	-	PAVEMENT_GENERAL	Urban	F	1011101000011101	0000000000000000	-	-	-	-	-	-	-	-	-	-	Terminate	
"Student21Mode1"	"Seema_Shokoufeh_Track2"	"Feb 14, 2017 10:32:38 AM"	Unknown	29.98393	01/14/0117 10:33.11	00001799	9.130	Inter614t1-0	0.898	1	2	0.000	11.111	-0.2	0.217	0.349	D	F	1835.9	359.850	0.157	0.001	1504.491	786.704	0.032	-	-0.007	-2.807	-	-	-	12	17.240	157.395	-	PAVEMENT_GENERAL	Urban	F	1011101000011101	0000000000000000	-	-	-	-	-	-	-	-	-	-	Terminate	
"Student21Mode1"	"Seema_Shokoufeh_Track2"	"Feb 14, 2017 10:32:38 AM"	Unknown	30.98395	01/14/0117 10:33.12	00001859	7.083	Inter614t1-0	0.874	1	2	0.000	11.111	-0.3	0.219	0.245	D	F	1758.2	359.815	0.176	0.001	1504.468	794.744	0.027	-	-0.006	-1.374	-	-	-	12	24.243	171.709	-	PAVEMENT_GENERAL	Urban	F	1011101000011101	0000000000000000	-	-	-	-	-	-	-	-	-	-	Terminate	
"Student21Mode1"	"Seema_Shokoufeh_Track2"	"Feb 14, 2017 10:32:38 AM"	Unknown	31.98397	01/14/0117 10:33.13	00001919	6.027	Inter612t1-0	0.851	1	2	0.000	11.111	-0.4	0.224	0.194	D	F	1716.5	359.778	0.181	0.001	1504.444	801.262	0.024	-	-0.006	-0.647	-	-	-	12	31.119	187.544	-	PAVEMENT_GENERAL	Urban	F	1011101000011101	0000000000000000	-	-	-	-	-	-	-	-	-	-	Terminate	
"Student21Mode1"	"Seema_Shokoufeh_Track2"	"Feb 14, 2017 10:32:38 AM"	Unknown	32.98399	01/14/0117 10:33.14	00001979	6.837	Inter612t1-0	0.823	1	2	0.000	11.111	-0.1	0.229	0.000	D	F	1771.7	359.734	0.233	-0.000	1504.416	807.544	0.019	-	0.000	1.766	-	-	-	12	29.782	203.615	-	PAVEMENT_GENERAL	Urban	F	1011101000011101	0000000000000000	-	-	-	-	-	-	-	-	-	-	Terminate	
"Student21Mode1"	"Seema_Shokoufeh_Track2"	"Feb 14, 2017 10:32:38 AM"	Unknown	33.98401	01/14/0117 10:33.15	00002039	8.517	Inter612t1-0	0.788	1	2	0.000	11.111	0.2	0.268	0.000	D	F	1896.9	359.746	0.216	-0.000	1504.381	815.232	0.019	-	0.003	1.590	-	-	-	12	25.628	218.281	-	PAVEMENT_GENERAL	Urban	F	1011101000011101	0000000000000000	-	-	-	-	-	-	-	-	-	-	Terminate	
"Student21Mode1"	"Seema_Shokoufeh_Track2"	"Feb 14, 2017 10:32:38 AM"	Unknown	34.98403	01/14/0117 10:33.16	00002099	10.013	Inter612t1-0	0.759	1	2	0.000	11.111	1.5	0.284	0.000	D	F	2031.9	359.923	0.215	-0.006	1504.352	824.508	0.020	-	0.045	1.452	-	-	-	12	23.105	231.359	-	PAVEMENT_GENERAL	Urban	F	1111101000011101	0000000000000000	-	-	-	-	-	-	-	-	-	-	Terminate	
"Student21Mode1"	"Seema_Shokoufeh_Track2"	"Feb 14, 2017 10:32:38 AM"	Unknown	35.98405	01/14/0117 10:33.17	00002159	11.292	Inter612t1-0	0.769	1	2	0.000	11.111	0.9	0.250	0.000	D	F	2095.1	0.149	0.209	-0.005	1504.362	835.191	0.021	-	0.036	1.131	-	-	-	12	21.523	243.029	-	PAVEMENT_GENERAL	Urban	F	1011101000011101	0000000000000000	-	-	-	-	-	-	-	-	-	-	Terminate	
"Student21Mode1"	"Seema_Shokoufeh_Track2"	"Feb 14, 2017 10:32:38 AM"	Unknown	36.98407	01/14/0117 10:33.18	00002219	10.139	Inter612t1-0	0.808	1	2	0.000	11.111	-0.1	0.229	0.245	D	F	1969.0	0.238	0.166	-0.001	1504.401	846.158	0.028	-	0.001	-1.741	-	-	-	-	-	-	-	PAVEMENT_GENERAL	Urban	F	1011101000011101	0000000000000000	-	-	-	-	-	-	-	-	-	-	Terminate	
"Student21Mode1"	"Seema_Shokoufeh_Track2"	"Feb 14, 2017 10:32:38 AM"	Unknown	37.98409	01/14/0117 10:33.19	00002279	8.948	Inter612t1-0	0.842	1	2	0.000	11.111	-2.5	0.242	0.096	D	F	1906.4	0.135	0.220	0.010	1504.435	855.536	0.023	-	-0.062	0.339	-	-	-	-	-	-	-	PAVEMENT_GENERAL	Urban	F	1011101000011101	0000000000000000	-	-	-	-	-	-	-	-	-	-	Terminate	
"Student21Mode1"	"Seema_Shokoufeh_Track2"	"Feb 14, 2017 10:32:38 AM"	Unknown	38.98411	01/14/0117 10:33.20	00002339	10.222	Inter612t1-0	0.829	1	2	0.000	11.111	-1.6	0.291	0.000	D	F	2052.7	359.783	0.214	0.005	1504.422	865.070	0.020	-	-0.050	1.396	-	-	-	-	-	-	-	PAVEMENT_GENERAL	Urban	F	1011101000011101	0000000000000000	-	-	-	-	-	-	-	-	-	-	Terminate	
"Student21Mode1"	"Seema_Shokoufeh_Track2"	"Feb 14, 2017 10:32:38 AM"	Unknown	39.98413	01/14/0117 10:33.21	00002399	11.670	Inter612t1-0	0.754	1	2	0.000	11.111	-2.0	0.321	0.000	D	F	2211.0	359.438	0.212	0.010	1504.347	876.016	0.020	-	-0.079	1.413	-	-	-	-	-	-	-	PAVEMENT_GENERAL	Urban	F	1011101000011101	0000000000000000	-	-	-	-	-	-	-	-	-	-	Terminate	
"Student21Mode1"	"Seema_Shokoufeh_Track2"	"Feb 14, 2017 10:32:38 AM"	Unknown	40.98415	01/14/0117 10:33.22	00002459	13.000	Inter612t1-0	0.600	1	2	0.000	11.111	-1.3	0.312	0.000	D	F	2348.2	359.160	0.209	0.007	1504.194	888.361	0.020	-	-0.055	1.277	-	-	-	-	-	-	-	PAVEMENT_GENERAL	Urban	F	1011101000011101	0000000000000000	-	-	-	-	-	-	-	-	-	-	Terminate	
"Student21Mode1"	"Seema_Shokoufeh_Track2"	"Feb 14, 2017 10:32:38 AM"	Unknown	41.98417	01/14/0117 10:33.23	00002519	14.257	Inter612t1-0	0.365	1	2	0.000	11.111	1.4	0.307	0.000	D	F	2495.8	358.863	0.208	-0.004	1503.958	901.992	0.021	-	0.007	1.227	-	-	-	-	-	-	-	PAVEMENT_GENERAL	Urban	F	1011101000011101	0000000000000000	-	-	-	-	-	-	-	-	-	-	Terminate	
"Student21Mode1"	"Seema_Shokoufeh_Track2"	"Feb 14, 2017 10:32:38 AM"	Unknown	42.98419	01/14/0117 10:33.24	00002579	15.455	Inter612t1-0	0.129	1	2	0.000	11.111	1.3	0.309	0.000	D	F	2663.9	359.376	0.206	-0.013	1503.722	916.850	0.021	-	0.108	1.178	-	-	-	-	-	-	-	PAVEMENT_GENERAL	Urban	F	1011101000011101	0000000000000000	-	-	-	-	-	-	-	-	-	-	Terminate	
"Student21Mode1"	"Seema_Shokoufeh_Track2"	"Feb 14, 2017 10:32:38 AM"	Unknown	43.98421	01/14/0117 10:33.25	00002639	16.493	Inter612t1-0	-0.030	1	2	0.000	11.111	-0.2	0.192	0.000	D	F	2144.9	359.457	0.183	0.001	1503.564	932.869	0.023	-	-0.007	0.496	-	-	-	-	-	-	-	PAVEMENT_GENERAL	Urban	F	1011101000011101	0000000000000000	-	-	-	-	-	-	-	-	-	-	Terminate	
"Student21Mode1"	"Seema_Shokoufeh_Track2"	"Feb 14, 2017 10:32:38 AM"	Unknown	44.98423	01/14/0117 10:33.26	00002699	16.943	Inter612t1-0	-0.210	1	2	0.000	11.111	-0.7	0.220	0.000	D	F	2038.4	359.273	0.198	0.005	1503.383	949.580	0.024	-	-0.049	0.497	-	-	-	-	-	-	-	PAVEMENT_GENERAL	Urban	F	1011101000011101	0000000000000000	-	-	-	-	-	-	-	-	-	-	Terminate	
"Student21Mode1"	"Seema_Shokoufeh_Track2"	"Feb 14, 2017 10:32:38 AM"	Unknown	45.98425	01/14/0117 10:33.27	00002759	17.447	Inter612t1-0	-0.442	1	2	0.000	11.111	6.4	0.263	0.000	D	F	2099.8	359.239	0.197	-0.028	1503.151	966.770	0.024	-	0.193	0.536	-	-	-	-	-	-	-	PAVEMENT_GENERAL	Urban	F	1011101000011101	0000000000000000	-	-	-	-	-	-	-	-	-	-	Terminate	
"Student21Mode1"	"Seema_Shokoufeh_Track2"	"Feb 14, 2017 10:32:38 AM"	Unknown	46.98427	01/14/0117 10:33.28	00002819	18.002	Inter612t1-0	-0.436	1	2	0.000	11.111	1.2	0.261	0.000	D	F	2128.0	0.901	0.195	-0.025	1503.157	984.499	0.024	-	0.268	0.527	-	-	-	-	-	-	-	PAVEMENT_GENERAL	Urban	F	1011101000011101	0000000000000000	-	-	-	-	-	-	-	-	-	-	Terminate	
"Student21Mode1"	"Seema_Shokoufeh_Track2"	"Feb 14, 2017 10:32:38 AM"	Unknown	47.98429	01/14/0117 10:33.29	00002879	18.518	Inter613t1-0	-0.158	1	2	0.000	11.111	-3.0	0.261	0.000	D	F	2166.5	0.828	0.195	0.016	1503.435	1002.758	0.024	-	-0.109	0.504	-	-	-	-	-	-	-	PAVEMENT_GENERAL	Urban	F	1011101000011101	0000000000000000	-	-	-	-	-	-	-	-	-	-	Terminate	
"Student21Mode1"	"Seema_Shokoufeh_Track2"	"Feb 14, 2017 10:32:38 AM"	Unknown	48.98431	01/14/0117 10:33.30	00002939	19.012	Inter613t1-0	0.032	1	2	0.000	11.111	-0.4	0.257	0.000	D	F	2203.4	0.295	0.194	0.010	1503.625	1021.524	0.024	-	-0.095	0.484	-	-	-	-	-	-	-	PAVEMENT_GENERAL	Urban	F	1011101000011101	0000000000000000	-	-	-	-	-	-	-	-	-	-	Terminate	
"Student21Mode1"	"Seema_Shokoufeh_Track2"	"Feb 14, 2017 10:32:38 AM"	Unknown	49.98433	01/14/0117 10:33.31	00002999	19.488	Inter613t1-0	0.144	1	2	0.000	11.111	0.5	0.261	0.000	D	F	2239.7	0.389	0.193	-0.005	1503.737	1040.775	0.025	-	0.037	0.471	-	-	-	-	-	-	-	PAVEMENT_GENERAL	Urban	F	1011101000011101	0000000000000000	-	-	-	-	-	-	-	-	-	-	Terminate	
"Student21Mode1"	"Seema_Shokoufeh_Track2"	"Feb 14, 2017 10:32:38 AM"	Unknown	50.98435	01/14/0117 10:33.32	00003059	19.948	Inter613t1-0	0.290	1	2	0.000	11.111	0.5	0.259	0.000	D	F	2275.4	0.490	0.192	-0.005	1503.883	1060.493	0.025	-	0.036	0.454	-	-	-	-	-	-	-	PAVEMENT_GENERAL	Urban	F	1011101000011101	0000000000000000	-	-	-	-	-	-	-	-	-	-	Terminate	
"Student21Mode1"	"Seema_Shokoufeh_Track2"	"Feb 14, 2017 10:32:38 AM"	Unknown	51.98437	01/14/0117 10:33.33	00003119	20.081	Inter613t1-0	0.461	1	2	0.000	11.111	-0.6	0.101	0.060	D	F	1641.3	0.419	0.183	0.008	1504.054	1080.589	0.027	-	-0.054	-0.380	-	-	-	-	-	-	-	PAVEMENT_GENERAL	Urban	F	1011101000011101	0000000000000000	-	-	-	-	-	-	-	-	-	-	Terminate	
"Student21Mode1"	"Seema_Shokoufeh_Track2"	"Feb 14, 2017 10:32:38 AM"	Unknown	52.98439	01/14/0117 10:33.34	00003179	17.486	Inter613t1-0	0.587	1	2	0.000	11.111	-0.4	0.138	0.206	D	F	1573.3	0.327	0.145	0.003	1504.180	1099.412	0.032	-	-0.026	-2.566	-	-	-	-	-	-	-	PAVEMENT_GENERAL	Urban	F	1011101000011101	0000000000000000	-	-	-	-	-	-	-	-	-	-	Terminate	
"Student21Mode1"	"Seema_Shokoufeh_Track2"	"Feb 14, 2017 10:32:38 AM"	Unknown	53.98441	01/14/0117 10:33.35	00003239	15.650	Inter613t1-0	0.657	1	2	0.000	11.111	-1.1	0.176	0.113	D	F	1729.6	0.091	0.171	0.010	1504.250	1115.839	0.028	-	-0.078	-1.122	-	-	-	-	-	-	-	PAVEMENT_GENERAL	Urban	F	1011101000011101	0000000000000000	-	-	-	-	-	-	-	-	-	-	Terminate	
"Student21Mode1"	"Seema_Shokoufeh_Track2"	"Feb 14, 2017 10:32:38 AM"	Unknown	54.98443	01/14/0117 10:33.36	00003299	15.258	Inter613t1-0	0.649	1	2	0.000	11.111	-1.0	0.183	0.000	D	F	1859.1	359.823	0.201	0.007	1504.242	1131.146	0.025	-	-0.060	0.379	-	-	-	-	-	-	-	PAVEMENT_GENERAL	Urban	F	1011101000011101	0000000000000000	-	-	-	-	-	-	-	-	-	-	Terminate	
"Student21Mode1"	"Seema_Shokoufeh_Track2"	"Feb 14, 2017 10:32:38 AM"	Unknown	55.98445	01/14/0117 10:33.37	00003359	15.775	Inter613t1-0	0.591	1	2	0.000	11.111	2.3	0.261	0.000	D	F	2012.6	359.862	0.200	-0.015	1504.185	1146.632	0.023	-	0.106	0.649	-	-	-	-	-	-	-	PAVEMENT_GENERAL	Urban	F	1011101000011101	0000000000000000	-	-	-	-	-	-	-	-	-	-	Terminate	
"Student21Mode1"	"Seema_Shokoufeh_Track2"	"Feb 14, 2017 10:32:38 AM"	Unknown	56.98447	01/14/0117 10:33.38	00003419	16.405	Inter613t1-0	0.609	1	2	0.000	11.111	1.3	0.254	0.000	D	F	2040.1	0.273	0.199	-0.011	1504.202	1162.727	0.024	-	0.088	0.603	-	-	-	-	-	-	-	PAVEMENT_GENERAL	Urban	F	1011101000011101	0000000000000000	-	-	-	-	-	-	-	-	-	-	Terminate	
"Student21Mode1"	"Seema_Shokoufeh_Track2"	"Feb 14, 2017 10:32:38 AM"	Unknown	57.98449	01/14/0117 10:33.39	00003479	16.985	Inter613t1-0	0.715	1	2	0.000	11.111	1.1	0.249	0.000	D	F	2065.3	0.485	0.198	-0.008	1504.308	1179.426	0.024	-	0.064	0.559	-	-	-	-	-	-	-	PAVEMENT_GENERAL	Urban	F	1011101000011101	0000000000000000	-	-	-	-	-	-	-	-	-	-	Terminate	
"Student21Mode1"	"Seema_Shokoufeh_Track2"	"Feb 14, 2017 10:32:38 AM"	Unknown	58.98451	01/14/0117 10:33.40	00003539	17.514	Inter613t1-0	0.888	1	2	0.000	11.111	-2.0	0.157	0.000	D	F	1936.5	0.652	0.189	0.006	1504.481	1196.686	0.024	-	-0.038	0.255	-	-	-	-	-	-	-	PAVEMENT_GENERAL	Urban	F	1011101000011101	0000000000000000	-	-	-	-	-	-	-	-	-	-	Terminate	
"Student21Mode1"	"Seema_Shokoufeh_Track2"	"Feb 14, 2017 10:32:38 AM"	Unknown	59.98453	01/14/0117 10:33.41	00003599	15.586	Inter746t1-0	0.954	1	2	0.000	11.111	-0.4	0.168	0.146	D	F	1820.5	359.422	0.165	0.035	1504.547	1213.379	0.031	-	-0.280	-1.781	-	-	-	-	-	-	-	PAVEMENT_GENERAL	Urban	F	1011101000011101	0000000000000000	-	-	-	-	-	-	-	-	-	-	Terminate	
"Student21Mode1"	"Seema_Shokoufeh_Track2"	"Feb 14, 2017 10:32:38 AM"	Unknown	60.98455	01/14/0117 10:33.42	00003659	15.216	Inter746t1-0	0.842	1	2	0.000	11.111	3.3	0.183	0.015	D	F	1853.3	359.842	0.194	-0.024	1504.435	1228.635	0.025	-	0.175	0.254	-	-	-	-	-	-	-	PAVEMENT_GENERAL	Urban	F	1011101000011101	0000000000000000	-	-	-	-	-	-	-	-	-	-	Terminate	
"Student21Mode1"	"Seema_Shokoufeh_Track2"	"Feb 14, 2017 10:32:38 AM"	Unknown	61.98457	01/14/0117 10:33.43	00003719	15.559	Inter746t1-0	0.871	1	2	0.000	11.111	2.3	0.183	0.000	D	F	1872.6	0.388	0.198	-0.016	1504.464	1244.013	0.025	-	0.128	0.363	-	-	-	-	-	-	-	PAVEMENT_GENERAL	Urban	F	1011101000011101	0000000000000000	-	-	-	-	-	-	-	-	-	-	Terminate	
"Student21Mode1"	"Seema_Shokoufeh_Track2"	"Feb 14, 2017 10:32:38 AM"	Unknown	62.98459	01/14/0117 10:33.44	00003779	15.923	Inter746t1-0	0.994	1	2	0.000	11.111	-5.6	0.187	0.000	D	F	1895.6	0.239	0.197	0.038	1504.587	1259.753	0.025	-	-0.258	0.355	-	-	-	-	-	-	-	PAVEMENT_GENERAL	Urban	F	1011101000011101	0000000000000000	-	-	-	-	-	-	-	-	-	-	Terminate	
"Student21Mode1"	"Seema_Shokoufeh_Track2"	"Feb 14, 2017 10:32:38 AM"	Unknown	63.98461	01/14/0117 10:33.45	00003839	16.271	Inter746t1-0	0.920	1	2	0.000	11.111	-5.2	0.189	0.000	D	F	1915.9	359.170	0.196	0.038	1504.513	1275.852	0.025	-	-0.292	0.342	-	-	-	-	-	-	-	PAVEMENT_GENERAL	Urban	F	1011101000011101	0000000000000000	-	-	-	-	-	-	-	-	-	-	Terminate	
"Student21Mode1"	"Seema_Shokoufeh_Track2"	"Feb 14, 2017 10:32:38 AM"	Unknown	64.98463	01/14/0117 10:33.46	00003899	16.583	Inter746t1-0	0.600	1	2	0.000	11.111	4.8	0.180	0.000	D	F	1926.1	358.917	0.196	-0.032	1504.193	1292.280	0.025	-	0.214	0.294	-	-	-	-	-	-	-	PAVEMENT_GENERAL	Urban	F	1011101000011101	0000000000000000	-	-	-	-	-	-	-	-	-	-	Terminate	
"Student21Mode1"	"Seema_Shokoufeh_Track2"	"Feb 14, 2017 10:32:38 AM"	Unknown	65.98465	01/14/0117 10:33.47	00003959	16.896	Inter746t1-0	0.417	1	2	0.000	11.111	5.7	0.194	0.000	D	F	1972.4	359.897	0.196	-0.036	1504.010	1309.015	0.025	-	0.295	0.340	Person36	15.0	15.896	-	-	-	-	PAVEMENT_GENERAL	Urban	F	1011101000011101	0000000000000000	-	-	-	-	-	-	-	-	-	-	Terminate	
"Student21Mode1"	"Seema_Shokoufeh_Track2"	"Feb 14, 2017 10:32:38 AM"	Unknown	66.98467	01/14/0117 10:33.48	00004019	17.248	Inter746t1-0	0.529	1	2	0.000	11.111	2.6	0.196	0.000	D	F	2000.5	0.792	0.195	-0.021	1504.122	1326.088	0.025	-	0.154	0.340	-	-	-	-	-	-	-	PAVEMENT_GENERAL	Urban	F	1011101000011101	0000000000000000	-	-	-	-	-	-	-	-	-	-	Terminate	
"Student21Mode1"	"Seema_Shokoufeh_Track2"	"Feb 14, 2017 10:32:38 AM"	Unknown	67.98470	01/14/0117 10:33.49	00004079	17.574	Inter746t1-0	0.842	1	2	0.000	11.111	2.8	0.196	0.000	D	F	2021.9	1.342	0.194	-0.022	1504.435	1343.498	0.025	-	0.172	0.318	-	-	-	-	-	-	-	PAVEMENT_GENERAL	Urban	F	1011101000011101	0000000000000000	-	-	-	-	-	-	-	-	-	-	Terminate	
"Student21Mode1"	"Seema_Shokoufeh_Track2"	"Feb 14, 2017 10:32:38 AM"	Unknown	68.98471	01/14/0117 10:33.50	00004139	17.883	Inter746t1-0	1.325	1	2	0.000	11.111	0.5	0.190	0.000	D	F	2038.9	1.800	0.193	-0.011	1504.918	1361.221	0.025	-	0.081	0.293	-	-	-	-	-	-	-	PAVEMENT_GENERAL	Urban	F	1011101000011101	0000000000000000	-	-	-	-	-	-	-	-	-	-	Terminate	
"Student21Mode1"	"Seema_Shokoufeh_Track2"	"Feb 14, 2017 10:32:38 AM"	Unknown	69.98473	01/14/0117 10:33.51	00004199	16.175	Inter746t1-1	-1.774	2	2	0.000	11.111	-12.9	0.187	0.212	D	F	1879.3	1.044	0.148	0.088	1505.419	1378.507	0.031	-	-0.623	-2.393	-	-	-	-	-	-	-	PAVEMENT_GENERAL	Urban	F	1011101000011101	0000000000000000	-	-	-	-	-	-	-	-	-	-	Terminate	
"Student21Mode1"	"Seema_Shokoufeh_Track2"	"Feb 14, 2017 10:32:38 AM"	Unknown	70.98476	01/14/0117 10:33.52	00004259	13.599	Inter746t1-0	1.752	1	2	0.000	11.111	-10.0	0.189	0.301	D	F	1774.4	357.958	0.139	0.084	1505.345	1393.460	0.032	-	-0.654	-3.013	-	-	-	-	-	-	-	PAVEMENT_GENERAL	Urban	F	1011101000011101	0000000000000000	-	-	-	-	-	-	-	-	-	-	Terminate	
"Student21Mode1"	"Seema_Shokoufeh_Track2"	"Feb 14, 2017 10:32:38 AM"	Unknown	71.98477	01/14/0117 10:33.53	00004319	10.108	Inter749t9-0	1.237	1	2	0.000	11.111	5.1	0.189	0.343	D	F	1643.3	357.416	0.142	-0.022	1504.831	1405.278	0.033	-	0.142	-3.227	-	-	-	-	-	-	-	PAVEMENT_GENERAL	Urban	F	1011101000011101	0000000000000000	-	-	-	-	-	-	-	-	-	-	Terminate	
"Student21Mode1"	"Seema_Shokoufeh_Track2"	"Feb 14, 2017 10:32:38 AM"	Unknown	72.98479	01/14/0117 10:33.54	00004379	9.227	Inter749t9-0	0.843	1	2	0.000	11.111	-10.1	0.201	0.000	D	F	1666.7	357.360	0.205	0.034	1504.436	1414.516	0.022	-	-0.246	0.939	-	-	-	-	-	-	-	PAVEMENT_GENERAL	Urban	F	1111101000011101	0000000000000000	-	-	-	-	-	-	-	-	-	-	Terminate	
"Student21Mode1"	"Seema_Shokoufeh_Track2"	"Feb 14, 2017 10:32:38 AM"	Unknown	73.98481	01/14/0117 10:33.55	00004439	10.254	Inter749t31-0	0.578	1	1	355.748	11.111	-13.6	0.222	0.000	D	F	1937.7	354.999	0.209	0.051	1503.771	1424.210	0.021	-	-0.417	1.096	-	-	-	-	-	-	-	PAVEMENT_GENERAL	Urban	F	1011101000011101	0000000000000000	-	-	-	-	-	-	-	-	-	-	Terminate	
"Student21Mode1"	"Seema_Shokoufeh_Track2"	"Feb 14, 2017 10:32:38 AM"	Unknown	74.98483	01/14/0117 10:33.56	00004499	11.243	Inter749t31-0	0.055	1	1	354.442	11.111	-2.8	0.176	0.000	D	F	1979.2	353.048	0.201	0.016	1502.612	1434.926	0.022	-	-0.157	0.720	-	-	-	-	-	-	-	PAVEMENT_GENERAL	Urban	F	1111101000011101	0000000000000000	-	-	-	-	-	-	-	-	-	-	Terminate	
"Student21Mode1"	"Seema_Shokoufeh_Track2"	"Feb 14, 2017 10:32:38 AM"	Unknown	75.98486	01/14/0117 10:33.57	00004559	11.945	Inter749t31-0	-0.029	1	1	356.251	11.111	27.8	0.180	0.000	D	F	1865.5	355.605	0.207	-0.135	1501.368	1446.452	0.023	-	1.076	0.718	-	-	-	-	-	-	-	PAVEMENT_GENERAL	Urban	F	1011101000011101	0000000000000000	-	-	-	-	-	-	-	-	-	-	Terminate	
"Student21Mode1"	"Seema_Shokoufeh_Track2"	"Feb 14, 2017 10:32:38 AM"	Unknown	76.98487	01/14/0117 10:33.58	00004619	9.420	Inter749t31-0	0.365	1	1	356.903	11.111	9.7	0.173	0.522	D	F	1590.9	359.800	0.110	-0.043	1500.968	1457.557	0.035	-	0.382	-4.580	-	-	-	-	-	-	-	PAVEMENT_GENERAL	Urban	F	1011101000011101	0000000000000000	-	-	-	-	-	-	-	-	-	-	Terminate	
"Student21Mode1"	"Seema_Shokoufeh_Track2"	"Feb 14, 2017 10:32:38 AM"	Unknown	77.98489	01/14/0117 10:33.59	00004679	5.145	Inter749t31-0	0.773	1	1	356.903	11.111	-1.3	0.164	0.281	D	F	1485.6	0.413	0.187	0.001	1501.001	1464.499	0.030	-	-0.012	-1.981	-	-	-	-	-	-	-	PAVEMENT_GENERAL	Urban	F	1011101000011101	0000000000000000	-	-	-	-	-	-	-	-	-	-	Terminate	
"Student21Mode1"	"Seema_Shokoufeh_Track2"	"Feb 14, 2017 10:32:38 AM"	Unknown	78.98492	01/14/0117 10:34.00	00004739	3.560	Inter749t11-0	0.963	LT1	2	0.000	11.111	-1.5	0.088	0.122	D	F	1179.1	0.308	0.192	0.002	1501.025	1468.723	0.027	-	-0.007	-0.845	-	-	-	-	-	-	-	PAVEMENT_GENERAL	Urban	F	1011101000011101	0000000000000000	-	-	-	-	-	-	-	-	-	-	Terminate	
"Student21Mode1"	"Seema_Shokoufeh_Track2"	"Feb 14, 2017 10:32:38 AM"	Unknown	79.98493	01/14/0117 10:34.01	00004799	2.807	Inter749t11-0	0.975	LT1	2	0.000	11.111	-1.8	0.139	0.436	D	F	1406.9	0.195	0.119	0.000	1501.038	1472.165	0.026	-	-0.004	-2.448	-	-	-	-	-	-	-	PAVEMENT_GENERAL	Urban	F	1011101000011101	0000000000000000	-	-	-	-	-	-	-	-	-	-	Terminate	
"Student21Mode1"	"Seema_Shokoufeh_Track2"	"Feb 14, 2017 10:32:38 AM"	Unknown	80.98495	01/14/0117 10:34.02	00004859	0.569	Inter749t11-0	0.978	LT1	2	0.000	11.111	-1.6	0.148	0.516	D	F	1325.1	0.137	0.183	-0.000	1501.041	1473.759	0.027	-	0.001	-1.530	-	-	-	-	-	-	-	PAVEMENT_GENERAL	Urban	F	1011101000011101	0000000000000000	-	-	-	-	-	-	-	-	-	-	Terminate	
"Student21Mode1"	"Seema_Shokoufeh_Track2"	"Feb 14, 2017 10:32:38 AM"	Unknown	81.98497	01/14/0117 10:34.03	00004919	0.016	Inter749t11-0	0.979	LT1	2	0.000	11.111	-1.5	0.153	0.493	D	F	1301.3	0.131	0.203	0.000	1501.041	1473.927	0.023	-	0.000	-0.055	-	-	-	-	-	-	-	PAVEMENT_GENERAL	Urban	F	1011101000011101	0000000000000000	-	-	-	-	-	-	-	-	-	-	Terminate	
"Student21Mode1"	"Seema_Shokoufeh_Track2"	"Feb 14, 2017 10:32:38 AM"	Unknown	82.98499	01/14/0117 10:34.04	00004979	0.006	Inter749t11-0	0.979	LT1	2	0.000	11.111	-1.6	0.159	0.490	D	F	1306.1	0.130	0.197	0.000	1501.041	1473.935	0.023	-	-0.000	0.000	-	-	-	-	-	-	-	PAVEMENT_GENERAL	Urban	F	1011101000011101	0000000000000000	-	-	-	-	-	-	-	-	-	-	Terminate	
"Student21Mode1"	"Seema_Shokoufeh_Track2"	"Feb 14, 2017 10:32:38 AM"	Unknown	83.98502	01/14/0117 10:34.05	00005039	0.010	Inter749t11-0	0.979	LT1	2	0.000	11.111	-1.6	0.160	0.466	D	F	1315.8	0.130	0.192	0.000	1501.041	1473.943	0.023	-	-0.000	0.006	-	-	-	-	-	-	-	PAVEMENT_GENERAL	Urban	F	1011101000011101	0000000000000000	-	-	-	-	-	-	-	-	-	-	Terminate	
"Student21Mode1"	"Seema_Shokoufeh_Track2"	"Feb 14, 2017 10:32:38 AM"	Unknown	84.98503	01/14/0117 10:34.06	00005099	0.019	Inter749t11-0	0.979	LT1	2	0.000	11.111	-2.8	0.160	0.400	D	F	1317.8	0.128	0.177	0.000	1501.041	1473.960	0.018	-	-0.000	-0.001	-	-	-	-	-	-	-	PAVEMENT_GENERAL	Urban	F	1011101000011101	0000000000000000	-	-	-	-	-	-	-	-	-	-	Terminate	
"Student21Mode1"	"Seema_Shokoufeh_Track2"	"Feb 14, 2017 10:32:38 AM"	Unknown	85.98505	01/14/0117 10:34.07	00005159	0.022	Inter749t11-0	0.979	LT1	2	0.000	11.111	-2.2	0.162	0.394	D	F	1325.5	0.126	0.173	-0.000	1501.041	1473.980	0.017	-	-0.000	0.007	-	-	-	-	-	-	-	PAVEMENT_GENERAL	Urban	F	1011101000011101	0000000000000000	-	-	-	-	-	-	-	-	-	-	Terminate	
"Student21Mode1"	"Seema_Shokoufeh_Track2"	"Feb 14, 2017 10:32:38 AM"	Unknown	86.98507	01/14/0117 10:34.08	00005219	0.053	Inter749t11-0	0.979	LT1	2	0.000	11.111	-2.2	0.164	0.397	D	F	1327.4	0.122	0.175	-0.000	1501.041	1474.013	0.017	-	-0.000	0.058	-	-	-	Ambient263	780.227	41.327	-	PAVEMENT_GENERAL	Urban	F	1111101000011101	0000000000000000	-	-	-	-	-	-	-	-	-	-	Terminate	
"Student21Mode1"	"Seema_Shokoufeh_Track2"	"Feb 14, 2017 10:32:38 AM"	Unknown	87.98509	01/14/0117 10:34.09	00005279	0.130	Inter749t11-0	0.979	LT1	2	0.000	11.111	-2.2	0.166	0.394	D	F	1332.7	0.116	0.178	0.000	1501.041	1474.102	0.018	-	-0.000	0.090	-	-	-	Ambient263	409.333	53.109	-	PAVEMENT_GENERAL	Urban	F	1011101000011101	0000000000000000	-	-	-	-	-	-	-	-	-	-	Terminate	
"Student21Mode1"	"Seema_Shokoufeh_Track2"	"Feb 14, 2017 10:32:38 AM"	Unknown	88.98512	01/14/0117 10:34.10	00005339	0.200	Inter749t11-0	0.979	LT1	2	0.000	11.111	-2.2	0.164	0.394	D	F	1336.7	0.107	0.178	0.000	1501.041	1474.270	0.018	-	-0.000	0.054	-	-	-	Ambient281	192.137	38.455	-	PAVEMENT_GENERAL	Urban	F	1011101000011101	0000000000000000	-	-	-	-	-	-	-	-	-	-	Terminate	
"Student21Mode1"	"Seema_Shokoufeh_Track2"	"Feb 14, 2017 10:32:38 AM"	Unknown	89.98513	01/14/0117 10:34.11	00005399	0.296	Inter749t11-0	0.979	LT1	2	0.000	11.111	-1.4	0.169	0.403	D	F	1345.6	0.094	0.176	-0.000	1501.041	1474.512	0.018	-	0.000	-0.007	-	-	-	Ambient281	167.563	49.654	-	PAVEMENT_GENERAL	Urban	F	1011101000011101	0000000000000000	-	-	-	-	-	-	-	-	-	-	Terminate	
"Student21Mode1"	"Seema_Shokoufeh_Track2"	"Feb 14, 2017 10:32:38 AM"	Unknown	90.98515	01/14/0117 10:34.12	00005459	0.090	Inter749t11-0	0.979	LT1	2	0.000	11.111	-1.3	0.160	0.457	D	F	1325.3	0.088	0.180	0.000	1501.041	1474.708	0.020	-	0.000	-0.149	-	-	-	Ambient281	681.566	61.023	-	PAVEMENT_GENERAL	Urban	F	1011101000011101	0000000000000000	-	-	-	-	-	-	-	-	-	-	Terminate	
"Student21Mode1"	"Seema_Shokoufeh_Track2"	"Feb 14, 2017 10:32:38 AM"	Unknown	91.98518	01/14/0117 10:34.13	00005519	0.001	Inter749t11-0	0.979	LT1	2	0.000	11.111	-1.6	0.153	0.594	D	F	1302.1	0.087	0.193	-0.000	1501.041	1474.740	0.023	-	0.000	-0.005	-	-	-	Ambient281	-	72.556	-	PAVEMENT_GENERAL	Urban	F	1011101000011101	0000000000000000	-	-	-	-	-	-	-	-	-	-	Terminate	
"Student21Mode1"	"Seema_Shokoufeh_Track2"	"Feb 14, 2017 10:32:38 AM"	Unknown	92.98519	01/14/0117 10:34.14	00005579	0.001	Inter749t11-0	0.979	LT1	2	0.000	11.111	-1.9	0.153	0.490	D	F	1287.2	0.087	0.201	-0.000	1501.041	1474.741	0.026	-	0.000	-0.000	-	-	-	Ambient281	-	84.120	-	PAVEMENT_GENERAL	Urban	F	1011101000011101	0000000000000000	-	-	-	-	-	-	-	-	-	-	Terminate	
"Student21Mode1"	"Seema_Shokoufeh_Track2"	"Feb 14, 2017 10:32:38 AM"	Unknown	93.98521	01/14/0117 10:34.15	00005639	0.000	Inter749t11-0	0.979	LT1	2	0.000	11.111	-1.9	0.002	0.433	D	F	477.5	0.086	0.205	0.000	1501.041	1474.743	0.026	-	0.000	0.009	-	-	-	Ambient281	-	95.683	-	PAVEMENT_GENERAL	Urban	F	1011101000011101	0000000000000000	-	-	-	-	-	-	-	-	-	-	Terminate	
"Student21Mode1"	"Seema_Shokoufeh_Track2"	"Feb 14, 2017 10:32:38 AM"	Unknown	94.98523	01/14/0117 10:34.16	00005699	0.000	Inter749t11-0	0.979	LT1	2	0.000	11.111	-2.0	0.000	0.397	D	F	477.5	0.086	0.206	0.000	1501.041	1474.743	0.027	-	-0.000	0.000	-	-	-	Ambient281	-	107.247	-	PAVEMENT_GENERAL	Urban	F	1011101000011101	0000000000000000	-	-	-	-	-	-	-	-	-	-	Terminate	
"Student21Mode1"	"Seema_Shokoufeh_Track2"	"Feb 14, 2017 10:32:38 AM"	Unknown	95.98525	01/14/0117 10:34.17	00005759	0.000	Inter749t11-0	0.979	LT1	2	0.000	11.111	-2.0	0.000	0.445	D	F	477.5	0.086	0.207	-0.000	1501.041	1474.744	0.027	-	0.000	-0.000	-	-	-	Ambient281	-	118.819	-	PAVEMENT_GENERAL	Urban	F	1011101000011101	0000000000000000	-	-	-	-	-	-	-	-	-	-	Terminate	
"Student21Mode1"	"Seema_Shokoufeh_Track2"	"Feb 14, 2017 10:32:38 AM"	Unknown	96.98528	01/14/0117 10:34.18	00005819	0.000	Inter749t11-0	0.979	LT1	2	0.000	11.111	-1.9	0.000	0.496	D	F	477.5	0.086	0.208	-0.000	1501.041	1474.744	0.028	-	0.000	-0.000	-	-	-	Ambient281	-	130.384	-	PAVEMENT_GENERAL	Urban	F	1011101000011101	0000000000000000	-	-	-	-	-	-	-	-	-	-	Terminate	
"Student21Mode1"	"Seema_Shokoufeh_Track2"	"Feb 14, 2017 10:32:38 AM"	Unknown	97.98529	01/14/0117 10:34.19	00005879	0.000	Inter749t11-0	0.979	LT1	2	0.000	11.111	-1.8	0.002	0.537	D	F	477.5	0.086	0.208	-0.000	1501.041	1474.744	0.028	-	-0.000	-0.000	-	-	-	Ambient281	-	141.949	-	PAVEMENT_GENERAL	Urban	F	1011101000011101	0000000000000000	-	-	-	-	-	-	-	-	-	-	Terminate	
"Student21Mode1"	"Seema_Shokoufeh_Track2"	"Feb 14, 2017 10:32:38 AM"	Unknown	98.98531	01/14/0117 10:34.20	00005939	0.000	Inter749t11-0	0.979	LT1	2	0.000	11.111	-1.8	0.002	0.501	D	F	477.5	0.086	0.208	-0.000	1501.041	1474.744	0.028	-	0.000	-0.000	-	-	-	Ambient281	-	153.514	-	PAVEMENT_GENERAL	Urban	F	1011101000011101	0000000000000000	-	-	-	-	-	-	-	-	-	-	Terminate	
"Student21Mode1"	"Seema_Shokoufeh_Track2"	"Feb 14, 2017 10:32:38 AM"	Unknown	99.98534	01/14/0117 10:34.21	00005999	0.000	Inter749t11-0	0.979	LT1	2	0.000	11.111	-1.8	0.012	0.481	D	F	477.5	0.086	0.208	-0.000	1501.041	1474.744	0.028	-	0.000	-0.000	-	-	-	Ambient281	-	165.079	-	PAVEMENT_GENERAL	Urban	F	1011101000011101	0000000000000000	-	-	-	-	-	-	-	-	-	-	Terminate	
"Student21Mode1"	"Seema_Shokoufeh_Track2"	"Feb 14, 2017 10:32:38 AM"	Unknown	100.98535	01/14/0117 10:34.22	00006059	0.000	Inter749t11-0	0.979	LT1	2	0.000	11.111	-1.9	0.021	0.161	D	F	493.8	0.086	0.209	-0.000	1501.041	1474.744	0.028	-	0.000	-0.000	-	-	-	Ambient281	-	176.643	-	PAVEMENT_GENERAL	Urban	F	1011101000011101	0000000000000000	-	-	-	-	-	-	-	-	-	-	Terminate	
"Student21Mode1"	"Seema_Shokoufeh_Track2"	"Feb 14, 2017 10:32:38 AM"	Unknown	101.98537	01/14/0117 10:34.23	00006119	0.695	Inter749t11-0	0.979	LT1	2	0.000	11.111	-1.7	0.116	0.000	D	F	1269.2	0.081	0.273	0.000	1501.041	1474.847	0.015	-	-0.003	2.978	-	-	-	Ambient281	270.477	188.105	-	PAVEMENT_GENERAL	Urban	F	1011101000011101	0000000000000000	-	-	-	-	-	-	-	-	-	-	Terminate	
"Student21Mode1"	"Seema_Shokoufeh_Track2"	"Feb 14, 2017 10:32:38 AM"	Unknown	102.98539	01/14/0117 10:34.24	00006179	3.023	Inter749t11-0	0.979	LT1	2	0.000	11.111	-1.0	0.150	0.000	D	F	1466.2	0.026	0.223	0.001	1501.042	1476.744	0.016	-	-0.003	2.250	-	-	-	Ambient281	65.417	197.774	-	PAVEMENT_GENERAL	Urban	F	1011101000011101	0000000000000000	-	-	-	-	-	-	-	-	-	-	Terminate	
"Student21Mode1"	"Seema_Shokoufeh_Track2"	"Feb 14, 2017 10:32:38 AM"	Unknown	103.98541	01/14/0117 10:34.25	00006239	4.999	Inter749t11-0	0.974	LT1	2	0.000	11.111	-5.2	0.134	0.000	D	F	1666.7	359.887	0.213	0.010	1501.036	1480.877	0.019	-	-0.067	1.435	-	-	-	Ambient281	40.586	202.872	-	PAVEMENT_GENERAL	Urban	F	1011101000011101	0000000000000000	-	-	-	-	-	-	-	-	-	-	Terminate	
"Student21Mode1"	"Seema_Shokoufeh_Track2"	"Feb 14, 2017 10:32:38 AM"	Unknown	104.98544	01/14/0117 10:34.26	00006299	5.956	Inter749t65-0	1.444	1	1	345.182	11.111	-60.8	0.055	0.000	D	F	1192.6	357.522	0.183	0.131	1500.898	1486.458	0.024	-	-0.901	0.088	-	-	-	Ambient281	35.510	211.502	-	PAVEMENT_GENERAL	Urban	F	1011101000011101	0000000000000000	-	-	-	-	-	-	-	-	-	-	Terminate	
"Student21Mode1"	"Seema_Shokoufeh_Track2"	"Feb 14, 2017 10:32:38 AM"	Unknown	105.98545	01/14/0117 10:34.27	00006359	6.483	-Inter749t61-0	0.281	-1	1	89.733	11.111	-131.7	0.109	0.000	D	F	1433.3	345.889	0.200	0.252	1499.846	1492.534	0.024	-	-1.949	0.602	-	-	-	Ambient281	33.849	219.449	-	PAVEMENT_GENERAL	Urban	F	1011101000011101	0000000000000000	-	-	-	-	-	-	-	-	-	-	Terminate	
"Student21Mode1"	"Seema_Shokoufeh_Track2"	"Feb 14, 2017 10:32:38 AM"	Unknown	106.98547	01/14/0117 10:34.28	00006419	7.073	-Inter749t83-0	-0.421	-1	1	179.883	11.111	-141.1	0.099	0.000	D	F	1433.8	327.765	0.188	0.314	1496.849	1498.613	0.025	-	-2.413	0.364	-	-	-	Ambient268	23.351	165.155	23.351	PAVEMENT_GENERAL	Urban	F	1011101000011101	0000000000000000	-	-	-	-	-	-	-	-	-	-	Terminate	
"Student21Mode1"	"Seema_Shokoufeh_Track2"	"Feb 14, 2017 10:32:38 AM"	Unknown	107.98550	01/14/0117 10:34.29	00006479	7.477	Inter749t75-0	-0.029	1	1	269.734	11.111	-203.9	0.102	0.000	D	F	1477.4	303.821	0.172	0.505	1491.554	1503.548	0.027	-	-3.822	0.146	-	-	-	Ambient270	30.230	226.024	-	PAVEMENT_GENERAL	Urban	F	1011101000011101	0000000000000000	-	-	-	-	-	-	-	-	-	-	Terminate	
"Student21Mode1"	"Seema_Shokoufeh_Track2"	"Feb 14, 2017 10:32:38 AM"	Unknown	108.98551	01/14/0117 10:34.30	00006539	7.859	Inter749t77-0	-1.566	1	1	269.734	11.111	-117.4	0.108	0.000	D	F	1501.1	275.959	0.168	0.268	1484.236	1505.578	0.026	-	-2.344	0.373	-	-	-	Ambient270	29.078	228.517	-	PAVEMENT_GENERAL	Urban	F	1011101000011101	0000000000000000	-	-	-	-	-	-	-	-	-	-	Terminate	
"Student21Mode1"	"Seema_Shokoufeh_Track2"	"Feb 14, 2017 10:32:38 AM"	Unknown	109.98553	01/14/0117 10:34.31	00006599	8.324	Inter749t3-4	-1.610	2	2	270.000	11.111	-5.0	0.122	0.000	D	F	1445.9	268.404	0.211	0.015	1476.146	1505.521	0.024	-	-0.110	0.542	-	-	-	Ambient270	28.025	233.288	-	PAVEMENT_GENERAL	Urban	F	1011101000011101	0000000000000000	-	-	-	-	-	-	-	-	-	-	Terminate	
"Student21Mode1"	"Seema_Shokoufeh_Track2"	"Feb 14, 2017 10:32:38 AM"	Unknown	110.98555	01/14/0117 10:34.32	00006659	8.857	Inter749t3-3	1.687	1	2	270.000	11.111	8.3	0.162	0.000	D	F	1532.2	267.859	0.206	-0.030	1467.590	1505.218	0.023	-	0.184	0.674	-	-	-	Ambient270	26.297	232.915	-	PAVEMENT_GENERAL	Urban	F	1011101000011101	0000000000000000	-	-	-	-	-	-	-	-	-	-	Terminate	
"Student21Mode1"	"Seema_Shokoufeh_Track2"	"Feb 14, 2017 10:32:38 AM"	Unknown	111.98557	01/14/0117 10:34.33	00006719	9.546	Inter749t19-0	1.464	1	1	270.089	11.111	-3.5	0.185	0.000	D	F	1629.5	269.027	0.209	0.019	1458.392	1505.004	0.023	-	-0.071	0.763	-	-	-	Ambient270	24.545	234.301	-	PAVEMENT_GENERAL	Urban	F	1011101000011101	0000000000000000	-	-	-	-	-	-	-	-	-	-	Terminate	
"Student21Mode1"	"Seema_Shokoufeh_Track2"	"Feb 14, 2017 10:32:38 AM"	Unknown	112.98560	01/14/0117 10:34.34	00006779	10.364	Inter749t19-0	1.225	1	1	270.107	11.111	7.1	0.194	0.000	D	F	1681.1	268.705	0.207	-0.030	1448.441	1504.778	0.023	-	0.188	0.788	-	-	-	Ambient270	22.667	234.916	-	PAVEMENT_GENERAL	Urban	F	1011101000011101	0000000000000000	-	-	-	-	-	-	-	-	-	-	Terminate	
"Student21Mode1"	"Seema_Shokoufeh_Track2"	"Feb 14, 2017 10:32:38 AM"	Unknown	113.98561	01/14/0117 10:34.35	00006839	11.132	Inter749t19-0	1.065	1	1	270.073	11.111	-0.4	0.189	0.000	D	F	1697.1	269.525	0.206	0.003	1437.686	1504.639	0.023	-	0.007	0.714	-	-	-	Ambient270	21.087	234.742	416.848	PAVEMENT_GENERAL	Urban	F	1011101000011101	0000000000000000	-	-	-	-	-	-	-	-	-	-	Terminate	
"Student21Mode1"	"Seema_Shokoufeh_Track2"	"Feb 14, 2017 10:32:38 AM"	Unknown	114.98563	01/14/0117 10:34.36	00006899	11.738	Inter749t19-0	0.944	1	1	270.061	11.111	-1.0	0.171	0.000	D	F	1665.8	269.401	0.204	0.005	1426.233	1504.534	0.024	-	-0.037	0.546	-	-	-	Ambient281	20.884	245.141	1398.342	PAVEMENT_GENERAL	Urban	F	1011101000011101	0000000000000000	-	-	-	-	-	-	-	-	-	-	Terminate	
"Student21Mode1"	"Seema_Shokoufeh_Track2"	"Feb 14, 2017 10:32:38 AM"	Unknown	115.98566	01/14/0117 10:34.37	00006959	12.270	Inter749t1-2	0.800	1	2	270.000	11.111	-0.8	0.176	0.000	D	F	1702.7	269.333	0.203	0.005	1414.229	1504.400	0.024	-	-0.026	0.536	-	-	-	Ambient281	19.943	244.703	345.974	PAVEMENT_GENERAL	Urban	F	1011101000011101	0000000000000000	-	-	-	-	-	-	-	-	-	-	Terminate	
"Student21Mode1"	"Seema_Shokoufeh_Track2"	"Feb 14, 2017 10:32:38 AM"	Unknown	116.98567	01/14/0117 10:34.38	00007019	12.807	Inter749t1-2	0.628	1	2	270.000	11.111	-1.7	0.182	0.000	D	F	1737.4	269.058	0.203	0.010	1401.690	1504.228	0.024	-	-0.075	0.525	-	-	-	Ambient281	18.846	241.350	194.057	PAVEMENT_GENERAL	Urban	F	1011101000011101	0000000000000000	-	-	-	-	-	-	-	-	-	-	Terminate	
"Student21Mode1"	"Seema_Shokoufeh_Track2"	"Feb 14, 2017 10:32:38 AM"	Unknown	117.98569	01/14/0117 10:34.39	00007079	13.334	Inter747t1-2	0.463	1	2	270.000	11.111	6.5	0.183	0.000	D	F	1772.4	269.905	0.201	-0.041	1388.621	1504.070	0.024	-	0.316	0.514	-	-	-	Ambient281	18.165	242.217	136.752	PAVEMENT_GENERAL	Urban	F	1011101000011101	0000000000000000	-	-	-	-	-	-	-	-	-	-	Terminate	
"Student21Mode1"	"Seema_Shokoufeh_Track2"	"Feb 14, 2017 10:32:38 AM"	Unknown	118.98571	01/14/0117 10:34.40	00007139	13.818	Inter747t1-2	0.565	1	2	270.000	11.111	2.4	0.182	0.000	D	F	1786.4	270.850	0.201	-0.017	1375.041	1504.172	0.024	-	0.141	0.461	-	-	-	Ambient281	17.384	240.202	106.531	PAVEMENT_GENERAL	Urban	F	1011101000011101	0000000000000000	-	-	-	-	-	-	-	-	-	-	Terminate	
"Student21Mode1"	"Seema_Shokoufeh_Track2"	"Feb 14, 2017 10:32:38 AM"	Unknown	119.98573	01/14/0117 10:34.41	00007199	14.258	Inter747t1-2	0.819	1	2	270.000	11.111	1.6	0.180	0.000	D	F	1805.7	271.225	0.200	-0.011	1361.003	1504.426	0.024	-	0.083	0.436	-	-	-	Ambient281	16.673	237.730	88.212	PAVEMENT_GENERAL	Urban	F	1011101000011101	0000000000000000	-	-	-	-	-	-	-	-	-	-	Terminate	
"Student21Mode1"	"Seema_Shokoufeh_Track2"	"Feb 14, 2017 10:32:38 AM"	Unknown	120.98576	01/14/0117 10:34.42	00007259	14.684	Inter747t1-2	1.159	1	2	270.000	11.111	-4.9	0.190	0.000	D	F	1853.3	271.368	0.200	0.020	1346.538	1504.766	0.024	-	-0.139	0.460	-	-	-	Ambient270	14.818	217.590	52.872	PAVEMENT_GENERAL	Urban	F	1011101000011101	0000000000000000	-	-	-	-	-	-	-	-	-	-	Terminate	
"Student21Mode1"	"Seema_Shokoufeh_Track2"	"Feb 14, 2017 10:32:38 AM"	Unknown	121.98577	01/14/0117 10:34.43	00007319	15.195	Inter747t1-2	1.326	1	2	270.000	11.111	-7.2	0.199	0.000	D	F	1905.8	269.693	0.199	0.058	1331.607	1504.932	0.024	-	-0.445	0.532	-	-	-	Ambient270	14.031	213.205	46.086	PAVEMENT_GENERAL	Urban	F	1011101000011101	0000000000000000	-	-	-	-	-	-	-	-	-	-	Terminate	
"Student21Mode1"	"Seema_Shokoufeh_Track2"	"Feb 14, 2017 10:32:38 AM"	Unknown	122.98579	01/14/0117 10:34.44	00007379	15.592	Inter747t1-2	1.196	1	2	270.000	11.111	3.2	0.198	0.000	D	F	1908.1	269.685	0.199	-0.019	1316.211	1504.803	0.025	-	0.170	0.414	-	-	-	Ambient270	13.364	208.377	41.211	PAVEMENT_GENERAL	Urban	F	1011101000011101	0000000000000000	-	-	-	-	-	-	-	-	-	-	Terminate	
"Student21Mode1"	"Seema_Shokoufeh_Track2"	"Feb 14, 2017 10:32:38 AM"	Unknown	123.98581	01/14/0117 10:34.45	00007439	16.026	Inter747t1-2	1.183	1	2	270.000	11.111	2.1	0.203	0.000	D	F	1943.6	270.219	0.198	-0.017	1300.402	1504.789	0.024	-	0.121	0.445	-	-	-	Ambient270	12.658	202.865	33.864	PAVEMENT_GENERAL	Urban	F	1011101000011101	0000000000000000	-	-	-	-	-	-	-	-	-	-	Terminate	
"Student21Mode1"	"Seema_Shokoufeh_Track2"	"Feb 14, 2017 10:32:38 AM"	Unknown	124.98583	01/14/0117 10:34.46	00007499	16.464	Inter747t1-2	1.269	1	2	270.000	11.111	0.3	0.210	0.000	D	F	1980.2	270.367	0.197	-0.003	1284.158	1504.876	0.024	-	0.019	0.448	-	-	-	Ambient270	11.930	196.413	28.347	PAVEMENT_GENERAL	Urban	F	1011101000011101	0000000000000000	-	-	-	-	-	-	-	-	-	-	Terminate	
"Student21Mode1"	"Seema_Shokoufeh_Track2"	"Feb 14, 2017 10:32:38 AM"	Unknown	125.98586	01/14/0117 10:34.47	00007559	16.905	Inter747t1-2	1.373	1	2	270.000	11.111	-1.6	0.189	0.000	D	F	1964.1	270.277	0.195	0.012	1267.470	1504.980	0.025	-	-0.080	0.376	-	-	-	Ambient270	11.181	189.014	24.020	PAVEMENT_GENERAL	Urban	F	1011101000011101	0000000000000000	-	-	-	-	-	-	-	-	-	-	Terminate	
"Student21Mode1"	"Seema_Shokoufeh_Track2"	"Feb 14, 2017 10:32:38 AM"	Unknown	126.98587	01/14/0117 10:34.48	00007619	17.251	Inter747t1-2	1.419	1	2	270.000	11.111	-1.8	0.201	0.000	D	F	2010.9	270.009	0.194	0.011	1250.403	1505.026	0.025	-	-0.089	0.362	-	-	-	Ambient270	10.478	180.765	21.543	PAVEMENT_GENERAL	Urban	F	1011101000011101	0000000000000000	-	-	-	-	-	-	-	-	-	-	Terminate	
"Student21Mode1"	"Seema_Shokoufeh_Track2"	"Feb 14, 2017 10:32:38 AM"	Unknown	127.98589	01/14/0117 10:34.49	00007679	17.635	Inter747t1-2	1.375	1	2	270.000	11.111	-1.4	0.210	0.000	D	F	2054.6	269.670	0.195	0.011	1232.965	1504.981	0.025	-	-0.092	0.404	-	-	-	Ambient270	9.790	172.657	21.810	PAVEMENT_GENERAL	Urban	F	1011101000011101	0000000000000000	-	-	-	-	-	-	-	-	-	-	Terminate	
"Student21Mode1"	"Seema_Shokoufeh_Track2"	"Feb 14, 2017 10:32:38 AM"	Unknown	128.98592	01/14/0117 10:34.50	00007739	18.032	Inter747t1-2	1.240	1	2	270.000	11.111	0.9	0.208	0.000	D	F	2082.5	269.479	0.194	-0.000	1215.133	1504.847	0.025	-	0.006	0.386	-	-	-	Ambient270	9.139	164.787	21.092	PAVEMENT_GENERAL	Urban	F	1011101000011101	0000000000000000	-	-	-	-	-	-	-	-	-	-	Terminate	
"Student21Mode1"	"Seema_Shokoufeh_Track2"	"Feb 14, 2017 10:32:38 AM"	Unknown	129.98593	01/14/0117 10:34.51	00007799	18.385	Inter748t1-2	1.186	1	2	270.000	11.111	4.7	0.203	0.000	D	F	2095.9	270.554	0.193	-0.056	1196.921	1504.792	0.025	-	0.420	0.332	-	-	-	Ambient270	8.542	157.034	20.092	PAVEMENT_GENERAL	Urban	F	1011101000011101	0000000000000000	-	-	-	-	-	-	-	-	-	-	Terminate	
"Student21Mode1"	"Seema_Shokoufeh_Track2"	"Feb 14, 2017 10:32:38 AM"	Unknown	130.98595	01/14/0117 10:34.52	00007859	18.689	Inter748t1-2	1.454	1	2	270.000	11.111	-2.4	0.201	0.000	D	F	2113.8	271.100	0.192	0.003	1178.385	1505.060	0.025	-	-0.007	0.304	-	-	-	Ambient270	7.976	149.074	18.358	PAVEMENT_GENERAL	Urban	F	1011101000011101	0000000000000000	-	-	-	-	-	-	-	-	-	-	Terminate	
"Student21Mode1"	"Seema_Shokoufeh_Track2"	"Feb 14, 2017 10:32:38 AM"	Unknown	131.98598	01/14/0117 10:34.53	00007919	18.982	Inter748t1-2	1.679	1	2	270.000	11.111	-1.2	0.199	0.000	D	F	2131.0	270.223	0.192	0.014	1159.548	1505.286	0.025	-	-0.143	0.283	-	-	-	Ambient270	7.417	140.793	16.734	PAVEMENT_GENERAL	Urban	F	1011101000011101	0000000000000000	-	-	-	-	-	-	-	-	-	-	Terminate	
"Student21Mode1"	"Seema_Shokoufeh_Track2"	"Feb 14, 2017 10:32:38 AM"	Unknown	132.98599	01/14/0117 10:34.54	00007979	19.258	Inter748t1-2	1.687	1	2	270.000	11.111	-3.1	0.196	0.000	D	F	2142.2	269.572	0.191	0.036	1140.426	1505.294	0.025	-	-0.267	0.264	-	-	-	Ambient270	6.866	132.232	15.219	PAVEMENT_GENERAL	Urban	F	1011101000011101	0000000000000000	-	-	-	-	-	-	-	-	-	-	Terminate	
"Student21Mode1"	"Seema_Shokoufeh_Track2"	"Feb 14, 2017 10:32:38 AM"	Unknown	133.98601	01/14/0117 10:34.55	00008039	19.515	Inter748t1-2	1.529	1	2	270.000	11.111	-0.0	0.196	0.000	D	F	2160.7	269.593	0.191	-0.003	1121.039	1505.135	0.026	-	0.040	0.249	-	-	-	-	-	-	-	PAVEMENT_GENERAL	Urban	F	1011101000011101	0000000000000000	-	-	-	-	-	-	-	-	-	-	Terminate	
"Student21Mode1"	"Seema_Shokoufeh_Track2"	"Feb 14, 2017 10:32:38 AM"	Unknown	134.98604	01/14/0117 10:34.56	00008099	19.753	Inter748t1-2	1.373	1	2	270.000	11.111	5.3	0.187	0.000	D	F	2174.4	269.594	0.190	-0.030	1101.402	1504.980	0.026	-	0.202	0.208	-	-	-	-	-	-	-	PAVEMENT_GENERAL	Urban	F	1011101000011101	0000000000000000	-	-	-	-	-	-	-	-	-	-	Terminate	
"Student21Mode1"	"Seema_Shokoufeh_Track2"	"Feb 14, 2017 10:32:38 AM"	Unknown	135.98605	01/14/0117 10:34.57	00008159	19.876	Inter748t1-2	1.410	1	2	270.000	11.111	-3.8	0.053	0.000	D	F	1674.8	270.528	0.174	0.014	1081.557	1505.016	0.027	-	-0.043	-0.313	-	-	-	-	-	-	-	PAVEMENT_GENERAL	Urban	F	1111101000011101	0000000000000000	-	-	-	-	-	-	-	-	-	-	Terminate	
"Student21Mode1"	"Seema_Shokoufeh_Track2"	"Feb 14, 2017 10:32:38 AM"	Unknown	136.98607	01/14/0117 10:34.58	00008219	19.669	Inter748t1-2	1.450	1	2	270.000	11.111	-0.1	0.118	0.000	D	F	1601.6	269.780	0.187	0.007	1061.801	1505.057	0.027	-	-0.071	-0.141	-	-	-	-	-	-	-	PAVEMENT_GENERAL	Urban	F	1011101000011101	0000000000000000	-	-	-	-	-	-	-	-	-	-	Terminate	
"Student21Mode1"	"Seema_Shokoufeh_Track2"	"Feb 14, 2017 10:32:38 AM"	Unknown	137.98610	01/14/0117 10:34.59	00008279	19.561	Inter748t1-2	1.395	1	2	270.000	11.111	1.5	0.131	0.000	D	F	1638.6	269.893	0.187	-0.007	1042.192	1505.002	0.027	-	0.057	-0.079	-	-	-	-	-	-	-	PAVEMENT_GENERAL	Urban	F	1011101000011101	0000000000000000	-	-	-	-	-	-	-	-	-	-	Terminate	
"Student21Mode1"	"Seema_Shokoufeh_Track2"	"Feb 14, 2017 10:32:38 AM"	Unknown	138.98611	01/14/0117 10:35.00	00008339	19.561	Inter748t1-2	1.424	1	2	270.000	11.111	-0.4	0.183	0.000	D	F	1771.0	270.350	0.190	-0.007	1022.649	1505.031	0.026	-	0.074	0.108	-	-	-	-	-	-	-	PAVEMENT_GENERAL	Urban	F	1011101000011101	0000000000000000	-	-	-	-	-	-	-	-	-	-	Terminate	
"Student21Mode1"	"Seema_Shokoufeh_Track2"	"Feb 14, 2017 10:32:38 AM"	Unknown	139.98613	01/14/0117 10:35.01	00008399	19.679	Inter748t1-2	1.517	1	2	270.000	11.111	-2.2	0.180	0.000	D	F	1770.5	270.140	0.189	0.018	1003.028	1505.124	0.026	-	-0.123	0.108	-	-	-	-	-	-	-	PAVEMENT_GENERAL	Urban	F	1011101000011101	0000000000000000	-	-	-	-	-	-	-	-	-	-	Terminate	
"Student21Mode1"	"Seema_Shokoufeh_Track2"	"Feb 14, 2017 10:32:38 AM"	Unknown	140.98616	01/14/0117 10:35.02	00008459	19.639	Inter752t1-2	0.811	1	2	269.808	24.444	-5.0	0.079	0.000	D	F	1513.9	269.434	0.332	-0.326	983.329	1505.093	0.052	-	-0.398	-0.205	-	-	-	-	-	-	-	FREEWAY_SMOOTH	Urban	F	1011101000011101	0000000000000000	-	-	-	-	-	-	-	-	-	-	Terminate	
"Student21Mode1"	"Seema_Shokoufeh_Track2"	"Feb 14, 2017 10:32:38 AM"	Unknown	141.98618	01/14/0117 10:35.03	00008519	19.484	Inter752t1-2	0.629	1	2	268.950	24.444	-2.4	0.136	0.000	D	F	1647.6	268.258	0.297	-0.826	963.786	1504.710	0.098	-	-0.313	-0.056	-	-	-	-	-	-	-	FREEWAY_SMOOTH	Urban	F	1011101000011101	0000000000000000	-	-	-	-	-	-	-	-	-	-	Terminate	
"Student21Mode1"	"Seema_Shokoufeh_Track2"	"Feb 14, 2017 10:32:38 AM"	Unknown	142.98619	01/14/0117 10:35.04	00008579	19.512	Inter752t1-2	0.521	1	2	267.411	24.444	-5.0	0.150	0.000	D	F	1684.6	267.390	0.310	-1.292	944.306	1503.988	0.136	-	-0.424	0.045	-	-	-	-	-	-	-	FREEWAY_SMOOTH	Urban	F	1011101000011101	0000000000000000	-	-	-	-	-	-	-	-	-	-	Terminate	
"Student21Mode1"	"Seema_Shokoufeh_Track2"	"Feb 14, 2017 10:32:38 AM"	Unknown	143.98621	01/14/0117 10:35.05	00008639	19.556	Inter752t1-2	0.622	1	2	265.209	24.444	-11.3	0.153	0.000	D	F	1691.7	265.613	0.319	-1.722	924.807	1502.828	0.179	-	-0.830	0.040	-	-	-	-	-	-	-	FREEWAY_SMOOTH	Urban	F	1011101000011101	0000000000000000	-	-	-	-	-	-	-	-	-	-	Terminate	
"Student21Mode1"	"Seema_Shokoufeh_Track2"	"Feb 14, 2017 10:32:38 AM"	Unknown	144.98624	01/14/0117 10:35.06	00008699	19.605	Inter752t1-2	0.687	1	2	262.304	24.444	-12.6	0.153	0.000	D	F	1699.8	261.771	0.293	-2.152	905.339	1500.752	0.222	-	-1.312	0.063	-	-	-	-	-	-	-	FREEWAY_SMOOTH	Urban	F	1011101000011101	0000000000000000	-	-	-	-	-	-	-	-	-	-	Terminate	
"Student21Mode1"	"Seema_Shokoufeh_Track2"	"Feb 14, 2017 10:32:38 AM"	Unknown	145.98625	01/14/0117 10:35.07	00008759	19.659	Inter752t1-2	0.555	1	2	258.727	24.444	-16.6	0.155	0.000	D	F	1701.3	257.909	0.267	-2.606	886.003	1497.372	0.258	-	-1.516	0.059	-	-	-	-	-	-	-	FREEWAY_SMOOTH	Urban	F	1011101000011101	0000000000000000	-	-	-	-	-	-	-	-	-	-	Terminate	
"Student21Mode1"	"Seema_Shokoufeh_Track2"	"Feb 14, 2017 10:32:38 AM"	Unknown	146.98627	01/14/0117 10:35.08	00008819	19.715	Inter752t1-2	0.316	1	2	254.473	24.444	-12.2	0.155	0.000	D	F	1706.9	253.653	0.257	-3.123	866.918	1492.557	0.285	-	-1.298	0.058	-	-	-	-	-	-	-	FREEWAY_SMOOTH	Urban	F	1111101000011101	0000000000000000	-	-	-	-	-	-	-	-	-	-	Terminate	
"Student21Mode1"	"Seema_Shokoufeh_Track2"	"Feb 14, 2017 10:32:38 AM"	Unknown	147.98630	01/14/0117 10:35.09	00008879	19.745	Inter752t1-2	0.292	1	2	249.631	24.444	-14.2	0.157	0.000	D	F	1713.4	249.798	0.211	-3.325	848.163	1486.416	0.303	-	-1.419	0.006	-	-	-	-	-	-	-	FREEWAY_SMOOTH	Urban	F	1011101000011101	0000000000000000	-	-	-	-	-	-	-	-	-	-	Terminate	
"Student21Mode1"	"Seema_Shokoufeh_Track2"	"Feb 14, 2017 10:32:38 AM"	Unknown	148.98631	01/14/0117 10:35.10	00008939	19.739	Inter752t1-2	0.574	1	2	244.698	24.444	-13.8	0.157	0.000	D	F	1708.9	245.705	0.248	-3.330	829.879	1478.971	0.320	-	-1.387	-0.003	-	-	-	-	-	-	-	FREEWAY_SMOOTH	Urban	F	1011101000011101	0000000000000000	-	-	-	-	-	-	-	-	-	-	Terminate	
"Student21Mode1"	"Seema_Shokoufeh_Track2"	"Feb 14, 2017 10:32:38 AM"	Unknown	149.98633	01/14/0117 10:35.11	00008999	19.725	Inter752t1-2	1.152	1	2	239.819	24.444	-14.5	0.157	0.000	D	F	1704.9	241.635	0.300	-3.320	812.178	1470.254	0.355	-	-1.429	-0.015	-	-	-	-	-	-	-	FREEWAY_SMOOTH	Urban	F	1011101000011101	0000000000000000	-	-	-	-	-	-	-	-	-	-	Terminate	
"Student21Mode1"	"Seema_Shokoufeh_Track2"	"Feb 14, 2017 10:32:38 AM"	Unknown	150.98636	01/14/0117 10:35.12	00009059	19.670	Inter752t1-2	1.735	1	2	234.912	24.444	-44.6	0.157	0.000	D	F	1710.6	233.942	0.120	-2.985	795.312	1460.081	0.392	-	-3.815	-0.021	-	-	-	-	-	-	-	FREEWAY_SMOOTH	Urban	F	1011101000011101	0000000000000000	-	-	-	-	-	-	-	-	-	-	Terminate	
"Student21Mode1"	"Seema_Shokoufeh_Track2"	"Feb 14, 2017 10:32:38 AM"	Unknown	151.98637	01/14/0117 10:35.13	00009119	19.671	Inter752t1-2	1.136	1	2	230.056	24.444	-2.5	0.159	0.000	D	F	1713.8	228.568	0.106	-3.453	780.130	1447.600	0.354	-	-0.494	0.033	-	-	-	-	-	-	-	FREEWAY_SMOOTH	Urban	F	1011101000011101	0000000000000000	-	-	-	-	-	-	-	-	-	-	Terminate	
"Student21Mode1"	"Seema_Shokoufeh_Track2"	"Feb 14, 2017 10:32:38 AM"	Unknown	152.98639	01/14/0117 10:35.14	00009179	19.691	Inter752t1-2	1.026	1	2	225.132	24.444	-17.5	0.159	0.000	D	F	1714.4	224.862	0.176	-3.281	765.709	1434.204	0.347	-	-1.737	0.016	-	-	-	-	-	-	-	FREEWAY_SMOOTH	Urban	F	1011101000011101	0000000000000000	-	-	-	-	-	-	-	-	-	-	Terminate	
"Student21Mode1"	"Seema_Shokoufeh_Track2"	"Feb 14, 2017 10:32:38 AM"	Unknown	153.98642	01/14/0117 10:35.15	00009239	19.698	Inter752t1-2	1.004	1	2	220.288	24.444	-17.4	0.159	0.000	D	F	1716.1	219.587	0.147	-3.281	752.413	1419.681	0.346	-	-1.811	0.024	-	-	-	-	-	-	-	FREEWAY_SMOOTH	Urban	F	1011101000011101	0000000000000000	-	-	-	-	-	-	-	-	-	-	Terminate	
"Student21Mode1"	"Seema_Shokoufeh_Track2"	"Feb 14, 2017 10:32:38 AM"	Unknown	154.98643	01/14/0117 10:35.16	00009299	19.710	Inter752t1-2	0.801	1	2	215.334	24.444	-20.5	0.159	0.000	D	F	1720.6	213.811	0.088	-3.236	740.548	1403.958	0.334	-	-2.061	0.029	-	-	-	-	-	-	-	FREEWAY_SMOOTH	Urban	F	1011101000011101	0000000000000000	-	-	-	-	-	-	-	-	-	-	Terminate	
"Student21Mode1"	"Seema_Shokoufeh_Track2"	"Feb 14, 2017 10:32:38 AM"	Unknown	155.98645	01/14/0117 10:35.17	00009359	19.735	Inter752t1-2	0.390	1	2	210.407	24.444	-10.9	0.162	0.000	D	F	1722.9	209.281	0.125	-3.351	730.235	1387.150	0.309	-	-1.243	0.034	-	-	-	-	-	-	-	FREEWAY_SMOOTH	Urban	F	1011101000011101	0000000000000000	-	-	-	-	-	-	-	-	-	-	Terminate	
"Student21Mode1"	"Seema_Shokoufeh_Track2"	"Feb 14, 2017 10:32:38 AM"	Unknown	156.98647	01/14/0117 10:35.18	00009419	19.764	Inter752t1-2	0.342	1	2	205.528	24.444	-16.5	0.162	0.000	D	F	1727.7	205.718	0.211	-3.311	721.066	1369.658	0.306	-	-1.486	0.031	-	-	-	-	-	-	-	FREEWAY_SMOOTH	Urban	F	1011101000011101	0000000000000000	-	-	-	-	-	-	-	-	-	-	Terminate	
"Student21Mode1"	"Seema_Shokoufeh_Track2"	"Feb 14, 2017 10:32:38 AM"	Unknown	157.98650	01/14/0117 10:35.19	00009479	19.783	Inter752t1-2	0.539	1	2	200.563	24.444	-17.5	0.160	0.000	D	F	1728.2	200.826	0.210	-3.282	713.201	1351.519	0.318	-	-1.712	0.023	-	-	-	-	-	-	-	FREEWAY_SMOOTH	Urban	F	1011101000011101	0000000000000000	-	-	-	-	-	-	-	-	-	-	Terminate	
"Student21Mode1"	"Seema_Shokoufeh_Track2"	"Feb 14, 2017 10:32:38 AM"	Unknown	158.98651	01/14/0117 10:35.20	00009539	19.774	Inter752t1-2	0.742	1	2	195.710	24.444	-15.4	0.162	0.000	D	F	1725.6	196.020	0.087	-3.076	706.912	1332.764	0.312	-	-1.537	-0.033	-	-	-	-	-	-	-	FREEWAY_SMOOTH	Urban	F	1011101000011101	0000000000000000	-	-	-	-	-	-	-	-	-	-	Terminate	
"Student21Mode1"	"Seema_Shokoufeh_Track2"	"Feb 14, 2017 10:32:38 AM"	Unknown	159.98653	01/14/0117 10:35.21	00009599	19.736	Inter752t1-2	0.956	1	2	191.400	24.444	-15.5	0.159	0.000	D	F	1723.2	191.605	0.067	-2.599	702.139	1313.597	0.281	-	-1.502	-0.031	-	-	-	-	-	-	-	FREEWAY_SMOOTH	Urban	F	1011101000011101	0000000000000000	-	-	-	-	-	-	-	-	-	-	Terminate	
"Student21Mode1"	"Seema_Shokoufeh_Track2"	"Feb 14, 2017 10:32:38 AM"	Unknown	160.98656	01/14/0117 10:35.22	00009659	19.688	Inter752t1-2	1.139	1	2	187.789	24.444	-15.0	0.159	0.000	D	F	1713.6	188.299	0.068	-2.148	698.727	1294.185	0.244	-	-1.170	-0.044	-	-	-	-	-	-	-	FREEWAY_SMOOTH	Urban	F	1011101000011101	0000000000000000	-	-	-	-	-	-	-	-	-	-	Terminate	
"Student21Mode1"	"Seema_Shokoufeh_Track2"	"Feb 14, 2017 10:32:38 AM"	Unknown	161.98657	01/14/0117 10:35.23	00009719	19.650	Inter752t1-2	1.238	1	2	184.862	24.444	-13.3	0.157	0.000	D	F	1710.3	184.387	0.038	-1.659	696.507	1274.645	0.202	-	-1.250	-0.021	-	-	-	-	-	-	-	FREEWAY_SMOOTH	Urban	F	1011101000011101	0000000000000000	-	-	-	-	-	-	-	-	-	-	Terminate	
"Student21Mode1"	"Seema_Shokoufeh_Track2"	"Feb 14, 2017 10:32:38 AM"	Unknown	162.98659	01/14/0117 10:35.24	00009779	19.620	Inter752t1-2	0.964	1	2	182.628	24.444	-8.2	0.160	0.000	D	F	1714.2	180.982	0.022	-1.209	695.538	1255.037	0.149	-	-0.954	-0.022	-	-	-	-	-	-	-	FREEWAY_SMOOTH	Urban	F	1011101000011101	0000000000000000	-	-	-	-	-	-	-	-	-	-	Terminate	
"Student21Mode1"	"Seema_Shokoufeh_Track2"	"Feb 14, 2017 10:32:38 AM"	Unknown	163.98662	01/14/0117 10:35.25	00009839	19.588	Inter752t1-2	0.515	1	2	181.067	24.444	7.7	0.150	0.000	D	F	1690.0	180.353	0.057	-0.895	695.389	1235.430	0.099	-	0.302	-0.060	-	-	-	-	-	-	-	FREEWAY_SMOOTH	Urban	F	1011101000011101	0000000000000000	-	-	-	-	-	-	-	-	-	-	Terminate	
"Student21Mode1"	"Seema_Shokoufeh_Track2"	"Feb 14, 2017 10:32:38 AM"	Unknown	164.98663	01/14/0117 10:35.26	00009899	19.544	Inter752t1-2	0.578	1	2	180.199	24.444	4.2	0.157	0.000	D	F	1704.8	181.281	0.072	-0.398	695.137	1215.868	0.059	-	0.288	-0.037	-	-	-	-	-	-	-	FREEWAY_SMOOTH	Urban	F	1011101000011101	0000000000000000	-	-	-	-	-	-	-	-	-	-	Terminate	
"Student21Mode1"	"Seema_Shokoufeh_Track2"	"Feb 14, 2017 10:32:38 AM"	Unknown	165.98665	01/14/0117 10:35.27	00009959	19.526	Inter754t3-2	1.791	1	2	180.000	11.111	-10.4	0.157	0.000	D	F	1710.6	181.848	0.220	0.046	694.602	1196.344	0.025	-	-0.267	0.032	-	-	-	Ambient405	2.807	54.818	6.128	PAVEMENT_GENERAL	Urban	F	1011101000011101	0000000000000000	-	-	-	-	-	-	-	-	-	-	Terminate	
