ZoneName	Time	SystemTime	Frame	Velocity	LaneName	LanePos	LaneIndex	LaneCount	LaneHeading	SpeedLimit	Steer	Accel	Brake	Gear	Horn	SubjectEngineRPM	SubjectHeading	SubjectPitch	SubjectRoll	SubjectX	SubjectY	SubjectZ	Signal	LatAccel	LongAccel	Collision	CollisionAngle	CollisionVelocity	VehAhead	HeadwayTime	HeadwayDist	TTC	TerrainType	CultureType	Slip	DigitalInputs	DigitalInputs2	ActiveTrigger	EntityName	DistToEntity	TimeToEntity	EntityVelocity	EntityAccel	EntityHeading	EntityX	EntityY	EntityZ	GrabData	
Unknown	0.98335	10/22/0116 08:28.12	00000059	0.002	Inter625t13-0	-0.088	1	2	0.000	11.111	5.4	0.000	0.000	P	F	0.0	0.002	0.153	-0.002	1503.500	523.206	0.019	-	-0.000	0.000	-	-	-	-	-	-	-	PAVEMENT_GENERAL	Urban	F	1011101000001001	0000000000000000	-	car	928.855	774705.688	0.000	0.000	180.000	696.000	987.000	-0.000	Terminate	
Unknown	1.98337	10/22/0116 08:28.13	00000119	0.001	Inter625t13-0	-0.088	1	2	0.000	11.111	5.4	0.000	0.866	P	F	166.7	0.002	0.191	0.000	1503.500	523.208	0.025	-	0.000	-0.000	-	-	-	-	-	-	-	PAVEMENT_GENERAL	Urban	F	1111101000001011	0000000000000000	-	car	928.854	2185534.000	0.000	0.000	180.000	696.000	987.000	-0.000	Terminate	
Unknown	2.98339	10/22/0116 08:28.14	00000179	0.000	Inter625t13-0	-0.088	1	2	0.000	11.111	5.4	0.000	0.854	P	F	500.0	0.002	0.202	0.000	1503.500	523.209	0.026	-	-0.000	-0.000	-	-	-	-	-	-	-	PAVEMENT_GENERAL	Urban	F	1111101000001001	0000000000000000	-	car	928.854	5838418.500	0.000	0.000	180.000	696.000	987.000	-0.000	Terminate	
Unknown	3.98341	10/22/0116 08:28.15	00000239	0.000	Inter625t13-0	-0.088	1	2	0.000	11.111	5.4	0.000	0.839	D	F	477.5	0.001	0.206	0.000	1503.500	523.209	0.027	-	-0.000	-0.000	-	-	-	-	-	-	-	PAVEMENT_GENERAL	Urban	F	1011101000001001	0000000000000000	-	car	928.854	14889168.000	0.000	0.000	180.000	696.000	987.000	-0.000	Terminate	
Unknown	4.98343	10/22/0116 08:28.16	00000299	0.001	Inter625t13-0	-0.088	1	2	0.000	11.111	6.1	0.000	0.000	D	F	477.5	0.001	0.208	-0.000	1503.500	523.209	0.027	-	0.000	0.004	-	-	-	-	-	-	-	PAVEMENT_GENERAL	Urban	F	1011101000001001	0000000000000000	-	car	928.854	2252715.500	0.000	0.000	180.000	696.000	987.000	-0.000	Terminate	
Unknown	5.98345	10/22/0116 08:28.17	00000359	2.138	Inter625t13-0	-0.083	1	2	0.000	11.111	7.0	0.215	0.000	D	F	1572.6	0.148	0.244	-0.001	1503.505	523.866	0.010	-	0.013	3.752	-	-	-	-	-	-	-	PAVEMENT_GENERAL	Urban	F	1011101000001001	0000000000000000	-	car	928.531	876.795	0.000	0.000	180.000	696.000	987.000	-0.000	Terminate	
Unknown	6.98347	10/22/0116 08:28.18	00000419	5.696	Inter625t13-0	-0.067	1	2	0.000	11.111	-1.5	0.321	0.000	D	F	2104.6	0.183	0.227	0.001	1503.521	527.887	0.011	-	-0.014	3.014	-	-	-	-	-	-	-	PAVEMENT_GENERAL	Urban	F	1011101000001001	0000000000000000	-	car	926.552	330.971	0.000	0.000	180.000	696.000	987.000	-0.000	Terminate	
Unknown	7.98349	10/22/0116 08:28.19	00000479	8.468	Inter625t49-0	-0.057	1	1	0.005	11.111	0.6	0.340	0.000	D	F	2707.8	0.043	0.226	-0.002	1503.531	534.993	0.014	-	0.013	2.681	-	-	-	-	-	-	-	PAVEMENT_GENERAL	Urban	F	1111101000001001	0000000000000000	-	car	923.068	223.472	0.000	0.000	180.000	696.000	987.000	-0.000	Terminate	
Unknown	8.98351	10/22/0116 08:28.20	00000539	10.857	Inter625t49-0	-0.051	1	1	0.007	11.111	-1.9	0.337	0.000	D	F	2244.7	359.921	0.210	0.009	1503.538	544.751	0.017	-	-0.069	1.694	-	-	-	-	-	-	-	PAVEMENT_GENERAL	Urban	F	1011101000001001	0000000000000000	-	car	918.347	175.656	0.000	0.000	180.000	696.000	987.000	-0.000	Terminate	
Unknown	9.98353	10/22/0116 08:28.21	00000599	12.381	Inter625t49-0	-0.082	1	1	0.007	11.111	1.0	0.363	0.000	D	F	2299.1	359.905	0.211	-0.008	1503.508	556.388	0.020	-	0.045	1.438	-	-	-	-	-	-	-	PAVEMENT_GENERAL	Urban	F	1011101000001001	0000000000000000	-	car	912.789	156.198	0.000	0.000	180.000	696.000	987.000	-0.000	Terminate	
Unknown	10.98355	10/22/0116 08:28.22	00000659	13.774	Inter625t49-0	-0.115	1	1	0.005	11.111	-1.7	0.354	0.000	D	F	2467.0	359.698	0.209	0.013	1503.477	569.470	0.020	-	-0.096	1.361	-	-	-	-	-	-	-	PAVEMENT_GENERAL	Urban	F	1111101000001001	0000000000000000	-	car	906.678	141.875	0.000	0.000	180.000	696.000	987.000	-0.000	Terminate	
Unknown	11.98357	10/22/0116 08:28.23	00000719	15.119	Inter625t15-0	-0.195	1	2	0.000	11.111	2.8	0.358	0.000	D	F	2633.9	359.867	0.208	-0.019	1503.398	583.919	0.020	-	0.146	1.327	-	-	-	-	-	-	-	PAVEMENT_GENERAL	Urban	F	1011101000001001	0000000000000000	-	car	900.062	132.666	0.000	0.000	180.000	696.000	987.000	-0.000	Terminate	
Unknown	12.98359	10/22/0116 08:28.24	00000779	16.431	Inter625t15-0	-0.193	1	2	0.000	11.111	0.2	0.353	0.000	D	F	2827.3	0.083	0.206	-0.003	1503.400	599.696	0.021	-	0.018	1.297	-	-	-	-	-	-	-	PAVEMENT_GENERAL	Urban	F	1011101000001001	0000000000000000	-	car	893.129	126.056	0.000	0.000	180.000	696.000	987.000	-0.000	Terminate	
Unknown	13.98361	10/22/0116 08:28.25	00000839	17.694	Inter614t1-0	-0.167	1	2	0.000	11.111	-0.0	0.353	0.000	D	F	3006.2	0.061	0.203	0.001	1503.426	616.763	0.021	-	-0.015	1.237	-	-	-	-	-	-	-	PAVEMENT_GENERAL	Urban	F	1011101000001001	0000000000000000	-	car	885.904	120.403	0.000	0.000	180.000	696.000	987.000	-0.000	Terminate	
Unknown	14.98363	10/22/0116 08:28.26	00000899	18.468	Inter614t1-0	-0.148	1	2	0.000	11.111	1.1	0.000	0.000	D	F	1653.9	0.083	0.166	-0.009	1503.445	635.006	0.027	-	0.053	-0.501	-	-	-	-	-	-	-	PAVEMENT_GENERAL	Urban	F	1111101000001001	0000000000000000	-	car	878.474	119.429	0.000	0.000	180.000	696.000	987.000	-0.000	Terminate	
Unknown	15.98365	10/22/0116 08:28.27	00000959	17.907	Inter614t1-0	-0.101	1	2	0.000	11.111	-2.7	0.000	0.000	D	F	1228.2	0.051	0.185	0.025	1503.493	653.197	0.029	-	-0.169	-0.571	-	-	-	-	-	-	-	PAVEMENT_GENERAL	Urban	F	1011101000001001	0000000000000000	-	car	871.407	127.658	0.000	0.000	180.000	696.000	987.000	-0.000	Terminate	
Unknown	16.98367	10/22/0116 08:28.28	00001019	17.376	Inter614t1-0	-0.149	1	2	0.000	11.111	-0.5	0.063	0.000	D	F	1371.6	359.736	0.189	0.001	1503.444	670.824	0.029	-	-0.014	-0.349	-	-	-	-	-	-	-	PAVEMENT_GENERAL	Urban	F	1011101000001001	0000000000000000	-	car	864.781	134.915	0.000	0.000	180.000	696.000	987.000	-0.000	Terminate	
Unknown	17.98369	10/22/0116 08:28.29	00001079	17.098	Inter614t1-0	-0.264	1	2	0.000	11.111	0.2	0.090	0.000	D	F	1438.1	359.468	0.190	-0.002	1503.329	688.049	0.027	-	-0.026	-0.172	-	-	-	-	-	-	-	PAVEMENT_GENERAL	Urban	F	1011101000001001	0000000000000000	-	car	858.542	141.064	0.000	0.000	180.000	696.000	987.000	-0.000	Terminate	
Unknown	18.98371	10/22/0116 08:28.30	00001139	16.989	Inter614t1-0	-0.407	1	2	0.000	11.111	1.2	0.108	0.000	D	F	1494.3	359.630	0.192	-0.010	1503.186	705.088	0.027	-	0.080	-0.074	-	-	-	-	-	-	-	PAVEMENT_GENERAL	Urban	F	1011101000001001	0000000000000000	-	car	852.640	149.460	0.000	0.000	180.000	696.000	987.000	-0.000	Terminate	
Unknown	19.98373	10/22/0116 08:28.31	00001199	17.052	Inter614t1-0	-0.501	1	2	0.000	11.111	0.8	0.166	0.000	D	F	1652.7	359.719	0.195	-0.003	1503.092	722.082	0.026	-	0.026	0.158	-	-	-	-	-	-	-	PAVEMENT_GENERAL	Urban	F	1111101000001001	0000000000000000	-	car	847.099	156.946	0.000	0.000	180.000	696.000	987.000	-0.000	Terminate	
Unknown	20.98375	10/22/0116 08:28.32	00001259	17.208	Inter614t1-0	-0.544	1	2	0.000	11.111	0.1	0.166	0.000	D	F	1655.2	0.040	0.193	-0.006	1503.050	739.214	0.026	-	0.055	0.146	-	-	-	-	-	-	-	PAVEMENT_GENERAL	Urban	F	1111101000001001	0000000000000000	-	car	841.872	167.067	0.000	0.000	180.000	696.000	987.000	-0.000	Terminate	
Unknown	21.98377	10/22/0116 08:28.33	00001319	17.351	Inter614t1-0	-0.528	1	2	0.000	11.111	0.3	0.162	0.000	D	F	1655.6	0.088	0.193	-0.002	1503.065	756.496	0.026	-	0.021	0.132	-	-	-	-	-	-	-	PAVEMENT_GENERAL	Urban	F	1011101000001001	0000000000000000	-	car	836.978	176.603	0.000	0.000	180.000	696.000	987.000	-0.000	Terminate	
Unknown	22.98379	10/22/0116 08:28.34	00001379	17.478	Inter614t1-0	-0.504	1	2	0.000	11.111	1.3	0.166	0.000	D	F	1662.0	0.053	0.193	-0.004	1503.089	773.911	0.026	-	0.028	0.133	-	-	-	-	-	-	-	PAVEMENT_GENERAL	Urban	F	1011101000001001	0000000000000000	-	car	832.386	187.212	0.000	0.000	180.000	696.000	987.000	-0.000	Terminate	
Unknown	23.98381	10/22/0116 08:28.35	00001439	17.572	Inter614t1-0	-0.473	1	2	0.000	11.111	-1.0	0.162	0.000	D	F	1655.9	0.074	0.193	0.008	1503.120	791.436	0.026	-	-0.049	0.112	-	-	-	-	-	-	-	PAVEMENT_GENERAL	Urban	F	1011101000001001	0000000000000000	-	car	828.115	201.203	0.000	0.000	180.000	696.000	987.000	-0.000	Terminate	
Unknown	24.98383	10/22/0116 08:28.36	00001499	17.703	Inter612t1-0	-0.467	1	2	0.000	11.111	-1.2	0.169	0.000	D	F	1678.0	359.928	0.193	0.009	1503.126	809.071	0.026	-	-0.069	0.140	-	-	-	-	-	-	-	PAVEMENT_GENERAL	Urban	F	1011101000001001	0000000000000000	-	car	824.146	215.020	0.000	0.000	180.000	696.000	987.000	-0.000	Terminate	
Unknown	25.98385	10/22/0116 08:28.37	00001559	17.830	Inter612t1-0	-0.514	1	2	0.000	11.111	1.9	0.162	0.000	D	F	1663.5	359.831	0.191	-0.013	1503.080	826.841	0.026	-	0.068	0.102	-	-	-	-	-	-	-	PAVEMENT_GENERAL	Urban	F	1011101000001001	0000000000000000	-	car	820.458	232.932	0.000	0.000	180.000	696.000	987.000	-0.000	Terminate	
Unknown	26.98387	10/22/0116 08:28.38	00001619	17.931	Inter612t1-0	-0.528	1	2	0.000	11.111	0.1	0.162	0.000	D	F	1669.5	0.061	0.192	-0.001	1503.065	844.721	0.026	-	0.031	0.105	-	-	-	-	-	-	-	PAVEMENT_GENERAL	Urban	F	1011101000001001	0000000000000000	-	car	817.151	264.100	0.000	0.000	180.000	696.000	987.000	-0.000	Terminate	
Unknown	27.98389	10/22/0116 08:28.39	00001679	17.767	Inter612t1-0	-0.500	1	2	0.000	11.111	0.8	0.000	0.000	D	F	1211.5	0.181	0.183	-0.009	1503.093	862.648	0.029	-	0.065	-0.569	-	-	-	-	-	-	-	PAVEMENT_GENERAL	Urban	F	1011101000001001	0000000000000000	-	car	814.257	307.247	0.000	0.000	180.000	696.000	987.000	-0.000	Terminate	
Unknown	28.98391	10/22/0116 08:28.40	00001739	17.205	Inter612t1-0	-0.417	1	2	0.000	11.111	-1.5	0.014	0.000	D	F	1178.0	0.336	0.187	0.010	1503.176	880.132	0.029	-	-0.043	-0.518	-	-	-	-	-	-	-	PAVEMENT_GENERAL	Urban	F	1111101000001001	0000000000000000	-	car	811.861	376.175	0.000	0.000	180.000	696.000	987.000	-0.000	Terminate	
Unknown	29.98393	10/22/0116 08:28.41	00001799	16.704	Inter612t1-0	-0.359	1	2	0.000	11.111	-0.9	0.019	0.000	D	F	1157.2	0.033	0.188	0.011	1503.234	897.090	0.029	-	-0.077	-0.485	-	-	-	-	-	-	-	PAVEMENT_GENERAL	Urban	F	1011101000001001	0000000000000000	-	car	809.866	440.254	0.000	0.000	180.000	696.000	987.000	-0.000	Terminate	
Unknown	30.98395	10/22/0116 08:28.42	00001859	16.298	Inter612t1-0	-0.361	1	2	0.000	11.111	0.6	0.048	0.000	D	F	1259.6	0.000	0.190	-0.002	1503.233	913.577	0.028	-	0.020	-0.318	-	-	-	-	-	-	-	PAVEMENT_GENERAL	Urban	F	1111101000001001	0000000000000000	-	car	808.205	546.416	0.000	0.000	180.000	696.000	987.000	-0.000	Terminate	
Unknown	31.98397	10/22/0116 08:28.43	00001919	16.175	Inter612t1-0	-0.355	1	2	0.000	11.111	-0.6	0.160	0.000	D	F	1609.4	0.023	0.198	0.004	1503.238	929.769	0.026	-	-0.021	0.166	-	-	-	-	-	-	-	PAVEMENT_GENERAL	Urban	F	1111101000001001	0000000000000000	-	car	806.905	709.491	0.000	0.000	180.000	696.000	987.000	-0.000	Terminate	
Unknown	32.98399	10/22/0116 08:28.44	00001979	16.253	Inter612t1-0	-0.367	1	2	0.000	11.111	0.7	0.115	0.000	D	F	1497.8	359.905	0.192	-0.002	1503.226	945.994	0.026	-	0.011	0.009	-	-	-	-	-	-	-	PAVEMENT_GENERAL	Urban	F	1011101000001001	0000000000000000	-	car	805.908	946.543	0.000	0.000	180.000	696.000	987.000	-0.000	Terminate	
Unknown	33.98401	10/22/0116 08:28.45	00002039	16.225	Inter612t1-0	-0.385	1	2	0.000	11.111	-0.9	0.115	0.000	D	F	1494.5	359.933	0.193	0.004	1503.208	962.232	0.027	-	-0.030	-0.017	-	-	-	-	-	-	-	PAVEMENT_GENERAL	Urban	F	1011101000001001	0000000000000000	-	car	805.228	1558.521	0.000	0.000	180.000	696.000	987.000	-0.000	Terminate	
Unknown	34.98403	10/22/0116 08:28.46	00002099	16.205	Inter612t1-0	-0.418	1	2	0.000	11.111	0.0	0.113	0.000	D	F	1488.8	359.871	0.193	-0.000	1503.175	978.448	0.027	-	0.002	-0.024	-	-	-	-	-	-	-	PAVEMENT_GENERAL	Urban	F	1011101000001001	0000000000000000	-	car	804.861	3866.933	0.000	0.000	180.000	696.000	987.000	-0.000	Terminate	
Unknown	35.98405	10/22/0116 08:28.47	00002159	16.184	Inter612t1-0	-0.452	1	2	0.000	11.111	1.2	0.111	0.000	D	F	1484.2	359.894	0.193	-0.003	1503.141	994.643	0.027	-	0.035	-0.025	-	-	-	-	-	-	-	PAVEMENT_GENERAL	Urban	F	1011101000001001	0000000000000000	-	car	804.817	-6521.746	0.000	0.000	180.000	696.000	987.000	-0.000	Terminate	
Unknown	36.98407	10/22/0116 08:28.48	00002219	16.171	Inter613t1-0	-0.435	1	2	0.000	11.111	0.5	0.111	0.000	D	F	1496.5	0.245	0.193	-0.004	1503.159	1010.818	0.027	-	0.050	-0.003	-	-	-	-	-	-	-	PAVEMENT_GENERAL	Urban	F	1011101000001001	0000000000000000	-	car	805.151	-1474.252	0.000	0.000	180.000	696.000	987.000	-0.000	Terminate	
Unknown	37.98409	10/22/0116 08:28.49	00002279	16.085	Inter613t1-0	-0.358	1	2	0.000	11.111	-0.4	0.000	0.000	D	F	1082.7	0.295	0.176	-0.000	1503.235	1026.976	0.027	-	-0.010	-0.543	-	-	-	-	-	-	-	PAVEMENT_GENERAL	Urban	F	1011101000001001	0000000000000000	-	car	805.865	-917.648	0.000	0.000	180.000	696.000	987.000	-0.000	Terminate	
Unknown	38.98411	10/22/0116 08:28.50	00002339	15.833	Inter613t1-0	-0.288	1	2	0.000	11.111	-1.3	0.104	0.000	D	F	1458.7	0.154	0.192	0.010	1503.305	1042.875	0.027	-	-0.068	-0.038	-	-	-	-	-	-	-	PAVEMENT_GENERAL	Urban	F	1011101000001001	0000000000000000	-	car	806.877	-710.435	0.000	0.000	180.000	696.000	987.000	-0.000	Terminate	
Unknown	39.98413	10/22/0116 08:28.51	00002399	15.832	Inter613t1-0	-0.277	1	2	0.000	11.111	-1.6	0.131	0.000	D	F	1524.1	359.912	0.195	0.010	1503.316	1058.700	0.026	-	-0.077	0.064	-	-	-	-	-	-	-	PAVEMENT_GENERAL	Urban	F	1011101000001001	0000000000000000	-	car	808.135	-587.148	0.000	0.000	180.000	696.000	987.000	-0.000	Terminate	
Unknown	40.98415	10/22/0116 08:28.52	00002459	15.893	Inter613t1-0	-0.339	1	2	0.000	11.111	0.6	0.132	0.000	D	F	1535.8	359.647	0.195	0.004	1503.254	1074.562	0.026	-	-0.014	0.074	-	-	-	-	-	-	-	PAVEMENT_GENERAL	Urban	F	1111101000001001	0000000000000000	-	car	809.629	-500.884	0.000	0.000	180.000	696.000	987.000	-0.000	Terminate	
Unknown	41.98417	10/22/0116 08:28.53	00002519	15.979	Inter613t1-0	-0.419	1	2	0.000	11.111	0.8	0.141	0.000	D	F	1554.8	359.798	0.194	-0.006	1503.174	1090.498	0.026	-	0.047	0.092	-	-	-	-	-	-	-	PAVEMENT_GENERAL	Urban	F	1011101000001001	0000000000000000	-	car	811.423	-410.546	0.000	0.000	180.000	696.000	987.000	-0.000	Terminate	
Unknown	42.98419	10/22/0116 08:28.54	00002579	16.068	Inter613t1-0	-0.449	1	2	0.000	11.111	1.9	0.141	0.000	D	F	1554.1	0.053	0.194	-0.013	1503.144	1106.522	0.026	-	0.104	0.087	-	-	-	-	-	-	-	PAVEMENT_GENERAL	Urban	F	1011101000001001	0000000000000000	-	car	813.586	-343.530	0.000	0.000	180.000	696.000	987.000	-0.000	Terminate	
Unknown	43.98421	10/22/0116 08:28.55	00002639	16.153	Inter613t1-0	-0.396	1	2	0.000	11.111	1.1	0.138	0.000	D	F	1555.4	0.328	0.194	-0.007	1503.198	1122.632	0.026	-	0.064	0.084	-	-	-	-	-	-	-	PAVEMENT_GENERAL	Urban	F	1011101000001001	0000000000000000	-	car	816.154	-294.872	0.000	0.000	180.000	696.000	987.000	-0.000	Terminate	
Unknown	44.98423	10/22/0116 08:28.56	00002699	16.002	Inter613t1-0	-0.280	1	2	0.000	11.111	0.4	0.019	0.000	D	F	1119.1	0.463	0.189	-0.001	1503.314	1138.776	0.029	-	0.013	-0.466	-	-	-	-	-	-	-	PAVEMENT_GENERAL	Urban	F	1011101000001001	0000000000000000	-	car	819.097	-265.629	0.000	0.000	180.000	696.000	987.000	-0.000	Terminate	
Unknown	45.98425	10/22/0116 08:28.57	00002759	15.750	Inter613t1-0	-0.136	1	2	0.000	11.111	-4.2	0.115	0.000	D	F	1479.4	0.511	0.196	0.021	1503.457	1154.620	0.027	L	-0.137	-0.003	-	-	-	-	-	-	-	PAVEMENT_GENERAL	Urban	F	1011101000101001	0000000000000000	-	car	822.312	-246.297	0.000	0.000	180.000	696.000	987.000	-0.000	Terminate	
Unknown	46.98427	10/22/0116 08:28.58	00002819	15.663	Inter613t1-0	-0.172	1	2	0.000	11.111	-12.4	0.028	0.000	D	F	1129.9	358.805	0.181	0.098	1503.421	1170.355	0.027	L	-0.732	-0.427	-	-	-	-	-	-	-	PAVEMENT_GENERAL	Urban	F	1011101000101001	0000000000000000	-	car	825.619	-262.157	0.000	0.000	180.000	696.000	987.000	-0.000	Terminate	
Unknown	47.98429	10/22/0116 08:28.59	00002879	15.162	Inter613t1-0	-0.879	1	2	0.000	11.111	-6.5	0.000	0.000	D	F	1033.9	355.790	0.186	0.076	1502.715	1185.761	0.029	L	-0.608	-0.536	-	-	-	-	-	-	-	PAVEMENT_GENERAL	Urban	F	1011101000101001	0000000000000000	-	car	828.480	-326.616	0.000	0.000	180.000	696.000	987.000	-0.000	Terminate	
Unknown	48.98431	10/22/0116 08:29.00	00002939	14.630	-	-	CL	0	-	-	3.1	0.000	0.000	D	F	997.8	355.830	0.190	-0.026	1501.578	1200.613	0.029	-	0.196	-0.528	-	-	-	-	-	-	-	PAVEMENT_GENERAL	Urban	F	1011101000001001	0000000000000000	-	car	831.059	-306.476	0.000	0.000	180.000	696.000	987.000	-0.000	Terminate	
Unknown	49.98433	10/22/0116 08:29.01	00002999	13.268	-	-	CL	0	-	-	10.3	0.000	0.107	D	F	892.1	357.292	0.165	-0.066	1500.692	1214.690	0.032	L	0.487	-1.873	-	-	-	-	-	-	-	PAVEMENT_GENERAL	Urban	F	1011101000101001	0000000000000000	-	car	833.925	-277.501	0.000	0.000	180.000	696.000	987.000	-0.000	Terminate	
Unknown	50.98435	10/22/0116 08:29.02	00003059	10.650	-	-	SH	1	-	-	7.3	0.000	0.236	D	F	1005.6	358.807	0.143	-0.037	1500.276	1226.823	0.035	L	0.278	-3.457	-	-	-	-	-	-	-	PAVEMENT_GENERAL	Urban	F	1011101000101001	0000000000000000	-	car	836.911	-295.727	0.000	0.000	180.000	696.000	987.000	-0.000	Terminate	
Unknown	51.98437	10/22/0116 08:29.03	00003119	8.735	-	-	SH	1	-	-	4.0	0.000	0.000	D	F	858.6	359.736	0.209	-0.017	1500.170	1236.226	0.029	L	0.108	-0.483	-	-	-	-	-	-	-	PAVEMENT_GENERAL	Urban	F	1111101000101001	0000000000000000	-	car	839.545	-329.595	0.000	0.000	180.000	696.000	987.000	-0.000	Terminate	
Unknown	52.98439	10/22/0116 08:29.04	00003179	8.127	Inter615t31-0	-1.395	1	1	355.998	11.111	-1.7	0.000	0.045	D	F	793.8	0.027	0.182	0.004	1500.171	1244.704	0.029	L	-0.034	-0.991	-	-	-	22	3.659	29.737	3.659	PAVEMENT_GENERAL	Urban	F	1111101000101001	0000000000000000	-	car	842.094	-339.013	0.000	0.000	180.000	696.000	987.000	-0.000	Terminate	
Unknown	53.98441	10/22/0116 08:29.05	00003239	6.986	Inter615t31-0	-0.718	1	1	356.903	11.111	0.5	0.000	0.069	D	F	680.0	0.021	0.183	-0.001	1500.169	1252.278	0.030	L	0.008	-1.271	-	-	-	22	3.182	22.232	3.182	PAVEMENT_GENERAL	Urban	F	1111101000101001	0000000000000000	-	car	844.435	-385.427	0.000	0.000	180.000	696.000	987.000	-0.000	Terminate	
Unknown	54.98443	10/22/0116 08:29.06	00003299	5.069	Inter615t31-0	-0.395	1	1	356.903	11.111	-3.2	0.000	0.090	D	F	492.7	359.867	0.196	0.001	1500.165	1258.344	0.032	L	-0.026	-1.469	-	-	-	22	3.191	16.175	3.191	PAVEMENT_GENERAL	Urban	F	1011101000101001	0000000000000000	-	car	846.350	-525.871	0.000	0.000	180.000	696.000	987.000	-0.000	Terminate	
Unknown	55.98445	10/22/0116 08:29.07	00003359	3.547	Inter615t31-0	-0.188	1	1	356.903	11.111	-1.6	0.000	0.081	D	F	518.5	359.614	0.185	0.001	1500.139	1262.638	0.031	L	0.001	-1.417	-	-	-	22	3.351	11.886	3.351	PAVEMENT_GENERAL	Urban	F	1111101000101001	0000000000000000	-	car	847.708	-751.798	0.000	0.000	180.000	696.000	987.000	-0.000	Terminate	
Unknown	56.98447	10/22/0116 08:29.08	00003419	2.203	Inter615t31-0	-0.050	1	1	356.903	11.111	1.9	0.000	0.069	D	F	477.5	359.685	0.186	0.000	1500.122	1265.495	0.030	L	0.002	-1.295	-	-	-	22	3.026	6.667	3.026	PAVEMENT_GENERAL	Urban	F	1011101000101001	0000000000000000	-	car	848.624	-1195.826	0.000	0.000	180.000	696.000	987.000	-0.000	Terminate	
Unknown	57.98449	10/22/0116 08:29.09	00003479	1.145	Inter615t31-0	0.032	1	1	356.903	11.111	1.9	0.000	0.066	D	F	477.5	359.751	0.194	0.000	1500.116	1267.127	0.029	L	0.000	-0.876	-	-	-	22	4.398	5.037	4.398	PAVEMENT_GENERAL	Urban	F	1011101000101001	0000000000000000	-	car	849.153	-2282.159	0.000	0.000	180.000	696.000	987.000	-0.000	Terminate	
Unknown	58.98451	10/22/0116 08:29.10	00003539	0.414	Inter615t11-0	0.052	LT1	2	0.000	11.111	1.9	0.000	0.063	D	F	477.5	359.781	0.205	0.000	1500.114	1267.868	0.028	L	-0.000	-0.457	-	-	-	22	16.083	6.658	16.083	PAVEMENT_GENERAL	Urban	F	1011101000101001	0000000000000000	-	car	849.395	-6291.534	0.000	0.000	180.000	696.000	987.000	-0.000	Terminate	
Unknown	59.98453	10/22/0116 08:29.11	00003599	0.276	Inter615t11-0	0.051	LT1	2	0.000	11.111	2.0	0.000	0.000	D	F	477.5	359.793	0.211	-0.000	1500.113	1268.152	0.026	L	0.000	0.191	-	-	-	22	26.193	7.229	-	PAVEMENT_GENERAL	Urban	F	1011101000101001	0000000000000000	-	car	849.488	-9422.800	0.000	0.000	180.000	696.000	987.000	-0.000	Terminate	
Unknown	60.98455	10/22/0116 08:29.12	00003659	0.897	Inter615t11-0	0.050	LT1	2	0.000	11.111	2.0	0.067	0.000	D	F	1091.5	359.812	0.205	-0.000	1500.112	1268.593	0.022	L	0.002	1.724	-	-	-	22	10.748	9.639	-	PAVEMENT_GENERAL	Urban	F	1011101000101001	0000000000000000	-	car	849.633	-2893.495	0.000	0.000	180.000	696.000	987.000	-0.000	Terminate	
Unknown	61.98457	10/22/0116 08:29.13	00003719	3.310	Inter615t11-0	0.047	LT1	2	0.000	11.111	1.7	0.171	0.000	D	F	1582.9	359.888	0.229	-0.002	1500.109	1270.627	0.015	L	0.012	2.635	-	-	-	22	3.777	12.505	-	PAVEMENT_GENERAL	Urban	F	1111101000101001	0000000000000000	-	car	850.304	-776.489	0.000	0.000	180.000	696.000	987.000	-0.000	Terminate	
Unknown	62.98459	10/22/0116 08:29.14	00003779	4.848	Inter615t11-0	0.051	LT1	2	0.000	11.111	2.1	0.120	0.000	D	F	1412.2	0.109	0.205	-0.002	1500.114	1274.926	0.022	L	0.013	0.695	-	-	-	22	3.107	15.062	-	PAVEMENT_GENERAL	Urban	F	1111101000101001	0000000000000000	-	car	851.748	-518.448	0.000	0.000	180.000	696.000	987.000	-0.000	Terminate	
Unknown	63.98461	10/22/0116 08:29.15	00003839	6.763	Inter615t11-0	0.042	LT1	2	0.000	11.111	-11.6	0.270	0.000	D	F	1795.0	359.649	0.220	0.025	1500.104	1280.705	0.017	L	-0.193	1.901	-	-	-	22	2.335	15.788	-	PAVEMENT_GENERAL	Urban	F	1011101000101001	0000000000000000	-	car	853.705	-374.230	0.000	0.000	180.000	696.000	987.000	-0.000	Terminate	
Unknown	64.98463	10/22/0116 08:29.16	00003899	8.206	Inter615t65-0	0.746	1	1	340.183	11.111	-129.0	0.169	0.000	D	F	1691.2	352.519	0.196	0.406	1499.631	1288.288	0.023	L	-2.841	0.651	-	-	-	22	2.610	21.422	-	PAVEMENT_GENERAL	Urban	F	1011101000101001	0000000000000000	-	car	855.892	-461.217	0.000	0.000	180.000	696.000	987.000	-0.000	Terminate	
Unknown	65.98465	10/22/0116 08:29.17	00003959	9.029	-Inter615t59-0	0.025	-1	1	89.733	11.111	-163.1	0.099	0.000	D	F	1474.7	329.989	0.157	0.549	1496.568	1296.376	0.027	L	-4.128	0.003	-	-	-	22	2.988	26.975	-	PAVEMENT_GENERAL	Urban	F	1011101000101001	0000000000000000	-	car	855.908	613.967	0.000	0.000	180.000	696.000	987.000	-0.000	Terminate	
Unknown	66.98467	10/22/0116 08:29.18	00004019	9.362	Inter615t65-0	1.702	1	1	301.524	11.111	-195.8	0.208	0.000	D	F	1670.6	300.086	0.167	0.677	1489.950	1302.568	0.031	L	-5.206	0.379	-	-	-	22	3.191	29.871	-	PAVEMENT_GENERAL	Urban	F	1011101000101001	0000000000000000	-	car	852.005	147.041	0.000	0.000	180.000	696.000	987.000	-0.000	Terminate	
Unknown	67.98470	10/22/0116 08:29.19	00004079	10.287	Inter615t3-3	1.072	1	2	270.000	11.111	-102.2	0.261	0.000	D	F	2015.0	269.587	0.149	0.449	1480.508	1304.603	0.025	L	-3.753	1.182	-	-	-	22	3.547	36.488	-	PAVEMENT_GENERAL	Urban	F	1111101000101001	0000000000000000	-	car	844.000	88.260	0.000	0.000	180.000	696.000	987.000	-0.000	Terminate	
Unknown	68.98471	10/22/0116 08:29.20	00004139	11.592	Inter615t3-3	0.205	1	2	270.000	11.111	37.3	0.295	0.000	D	F	2166.8	266.673	0.212	-0.182	1469.609	1303.735	0.021	-	1.367	1.275	-	-	-	22	3.516	40.754	-	PAVEMENT_GENERAL	Urban	F	1011101000001001	0000000000000000	-	car	833.578	76.028	0.000	0.000	180.000	696.000	987.000	-0.000	Terminate	
Unknown	69.98473	10/22/0116 08:29.21	00004199	12.857	Inter615t19-0	0.092	1	1	270.092	11.111	-1.6	0.312	0.000	D	F	2327.5	270.986	0.209	-0.014	1457.387	1303.633	0.021	-	0.109	1.268	-	-	-	22	3.872	49.787	-	PAVEMENT_GENERAL	Urban	F	1011101000001001	0000000000000000	-	car	822.242	69.773	0.000	0.000	180.000	696.000	987.000	-0.000	Terminate	
Unknown	70.98476	10/22/0116 08:29.22	00004259	14.111	Inter615t19-0	0.160	1	1	270.093	11.111	-3.4	0.316	0.000	D	F	2483.3	269.664	0.208	0.019	1443.901	1303.722	0.021	-	-0.219	1.240	-	-	-	22	3.955	55.804	-	PAVEMENT_GENERAL	Urban	F	1011101000001001	0000000000000000	-	car	809.841	62.171	0.000	0.000	180.000	696.000	987.000	-0.000	Terminate	
Unknown	71.98477	10/22/0116 08:29.23	00004319	15.337	Inter615t19-0	0.014	1	1	270.061	11.111	2.2	0.303	0.000	D	F	2641.7	269.596	0.205	-0.016	1429.172	1303.601	0.021	-	0.108	1.151	-	-	-	22	3.981	61.055	-	PAVEMENT_GENERAL	Urban	F	1011101000001001	0000000000000000	-	car	796.250	56.381	0.000	0.000	180.000	696.000	987.000	-0.000	Terminate	
Unknown	72.98479	10/22/0116 08:29.24	00004379	16.530	Inter615t1-2	-0.069	1	2	270.000	11.111	-1.3	0.319	0.000	D	F	2826.0	269.768	0.205	0.002	1413.241	1303.531	0.021	-	-0.052	1.191	-	-	-	22	3.947	65.244	-	PAVEMENT_GENERAL	Urban	F	1011101000001001	0000000000000000	-	car	781.622	51.595	0.000	0.000	180.000	696.000	987.000	-0.000	Terminate	
Unknown	73.98481	10/22/0116 08:29.25	00004439	17.693	Inter616t1-2	-0.163	1	2	270.000	11.111	2.5	0.316	0.000	D	F	2985.3	269.763	0.202	-0.013	1396.124	1303.443	0.021	-	0.108	1.120	-	-	-	22	3.857	68.240	-	PAVEMENT_GENERAL	Urban	F	1111101000001001	0000000000000000	-	car	765.957	47.421	0.000	0.000	180.000	696.000	987.000	-0.000	Terminate	
Unknown	74.98483	10/22/0116 08:29.26	00004499	18.812	Inter616t1-2	-0.212	1	2	270.000	11.111	0.0	0.286	0.000	D	F	2771.6	269.854	0.205	0.001	1377.874	1303.395	0.021	-	-0.014	1.190	-	-	-	22	3.727	70.110	-	PAVEMENT_GENERAL	Urban	F	1011101000001001	0000000000000000	-	car	749.344	43.860	0.000	0.000	180.000	696.000	987.000	-0.000	Terminate	
Unknown	75.98486	10/22/0116 08:29.27	00004559	18.779	Inter616t1-2	-0.241	1	2	270.000	11.111	-0.8	0.000	0.000	D	F	1339.9	269.883	0.180	0.010	1358.921	1303.365	0.029	-	-0.066	-0.576	-	-	-	22	3.795	71.276	-	PAVEMENT_GENERAL	Urban	F	1011101000001001	0000000000000000	-	car	732.182	43.159	0.000	0.000	180.000	696.000	987.000	-0.000	Terminate	
Unknown	76.98487	10/22/0116 08:29.28	00004619	18.220	Inter616t1-2	-0.286	1	2	270.000	11.111	0.1	0.028	0.000	D	F	1265.8	269.963	0.186	-0.008	1340.429	1303.321	0.029	-	0.066	-0.486	-	-	-	22	3.990	72.705	-	PAVEMENT_GENERAL	Urban	F	1011101000001001	0000000000000000	-	car	715.517	43.734	0.000	0.000	180.000	696.000	987.000	-0.000	Terminate	
Unknown	77.98489	10/22/0116 08:29.29	00004679	17.996	Inter616t1-2	-0.298	1	2	270.000	11.111	-0.9	0.099	0.000	D	F	1501.4	269.968	0.188	0.004	1322.349	1303.309	0.027	-	-0.028	-0.146	-	-	-	22	4.100	73.790	-	PAVEMENT_GENERAL	Urban	F	1011101000001001	0000000000000000	-	car	699.328	43.522	0.000	0.000	180.000	696.000	987.000	-0.000	Terminate	
Unknown	78.98492	10/22/0116 08:29.30	00004739	17.851	Inter616t1-2	-0.335	1	2	270.000	11.111	-0.7	0.093	0.000	D	F	1475.5	269.781	0.189	0.006	1304.423	1303.272	0.027	-	-0.048	-0.159	-	-	-	22	4.156	74.195	-	PAVEMENT_GENERAL	Urban	F	1011101000001001	0000000000000000	-	car	683.357	43.059	0.000	0.000	180.000	696.000	987.000	-0.000	Terminate	
Unknown	79.98493	10/22/0116 08:29.31	00004799	17.713	Inter616t1-2	-0.423	1	2	270.000	11.111	1.0	0.099	0.000	D	F	1490.6	269.640	0.190	-0.005	1286.645	1303.183	0.027	-	0.013	-0.133	-	-	-	22	4.178	74.012	156.593	PAVEMENT_GENERAL	Urban	F	1111101000001001	0000000000000000	-	car	667.591	42.607	0.000	0.000	180.000	696.000	987.000	-0.000	Terminate	
Unknown	80.98495	10/22/0116 08:29.32	00004859	17.578	Inter616t1-2	-0.473	1	2	270.000	11.111	1.5	0.101	0.000	D	F	1485.8	270.108	0.190	-0.016	1269.000	1303.134	0.027	-	0.125	-0.130	-	-	-	22	4.171	73.325	81.799	PAVEMENT_GENERAL	Urban	F	1111101000001001	0000000000000000	-	car	652.064	42.410	0.000	0.000	180.000	696.000	987.000	-0.000	Terminate	
Unknown	81.98497	10/22/0116 08:29.33	00004919	17.355	Inter616t1-2	-0.408	1	2	270.000	11.111	-1.8	0.000	0.000	D	F	1182.1	270.257	0.177	0.011	1251.494	1303.199	0.029	-	-0.068	-0.566	-	-	-	22	4.161	72.205	58.655	PAVEMENT_GENERAL	Urban	F	1111101000001001	0000000000000000	-	car	636.824	42.332	0.000	0.000	180.000	696.000	987.000	-0.000	Terminate	
Unknown	82.98499	10/22/0116 08:29.34	00004979	16.849	Inter616t1-2	-0.403	1	2	270.000	11.111	0.6	0.042	0.000	D	F	1265.7	269.869	0.191	-0.000	1234.412	1303.203	0.028	-	0.008	-0.348	-	-	-	22	4.214	71.001	57.928	PAVEMENT_GENERAL	Urban	F	1011101000001001	0000000000000000	-	car	622.038	42.756	0.000	0.000	180.000	696.000	987.000	-0.000	Terminate	
Unknown	83.98502	10/22/0116 08:29.35	00005039	16.655	Inter616t1-2	-0.425	1	2	270.000	11.111	0.8	0.108	0.000	D	F	1481.9	269.944	0.192	-0.005	1217.689	1303.182	0.027	-	0.019	-0.061	-	-	-	22	4.182	69.659	46.760	PAVEMENT_GENERAL	Urban	F	1011101000001001	0000000000000000	-	car	607.666	42.638	0.000	0.000	180.000	696.000	987.000	-0.000	Terminate	
Unknown	84.98503	10/22/0116 08:29.36	00005099	16.301	Inter616t1-2	-0.418	1	2	270.000	11.111	-1.9	0.025	0.000	D	F	1187.4	270.089	0.189	0.010	1201.166	1303.189	0.029	-	-0.045	-0.429	-	-	-	22	4.036	65.793	46.109	PAVEMENT_GENERAL	Urban	F	1111101000001001	0000000000000000	-	car	593.600	43.003	0.000	0.000	180.000	696.000	987.000	-0.000	Terminate	
Unknown	85.98505	10/22/0116 08:29.37	00005159	15.888	Inter617t1-2	-0.417	1	2	270.000	11.111	-0.3	0.042	0.000	D	F	1211.7	269.941	0.190	0.003	1185.078	1303.190	0.028	-	-0.022	-0.355	-	-	-	22	4.206	66.819	52.849	PAVEMENT_GENERAL	Urban	F	1011101000001001	0000000000000000	-	car	580.026	43.443	0.000	0.000	180.000	696.000	987.000	-0.000	Terminate	
Unknown	86.98507	10/22/0116 08:29.38	00005219	15.672	Inter617t1-2	-0.434	1	2	270.000	11.111	-0.6	0.092	0.000	D	F	1396.2	269.973	0.192	0.000	1169.322	1303.173	0.027	-	-0.003	-0.107	-	-	-	22	4.186	65.597	52.203	PAVEMENT_GENERAL	Urban	F	1011101000001001	0000000000000000	-	car	566.850	43.484	0.000	0.000	180.000	696.000	987.000	-0.000	Terminate	
Unknown	87.98509	10/22/0116 08:29.39	00005279	15.633	Inter617t1-2	-0.439	1	2	270.000	11.111	1.1	0.123	0.000	D	F	1494.4	270.043	0.195	-0.008	1153.685	1303.168	0.026	-	0.054	0.033	-	-	-	22	4.114	64.308	46.457	PAVEMENT_GENERAL	Urban	F	1011101000001001	0000000000000000	-	car	553.912	43.087	0.000	0.000	180.000	696.000	987.000	-0.000	Terminate	
Unknown	88.98512	10/22/0116 08:29.40	00005339	15.646	Inter617t1-2	-0.419	1	2	270.000	11.111	0.4	0.108	0.000	D	F	1471.6	270.050	0.194	0.002	1138.043	1303.188	0.027	-	-0.005	-0.003	-	-	-	22	4.017	62.857	41.285	PAVEMENT_GENERAL	Urban	F	1011101000001001	0000000000000000	-	car	541.126	42.549	0.000	0.000	180.000	696.000	987.000	-0.000	Terminate	
Unknown	89.98513	10/22/0116 08:29.41	00005399	15.626	Inter617t1-2	-0.384	1	2	270.000	11.111	-0.6	0.109	0.000	D	F	1465.2	270.216	0.194	0.000	1122.408	1303.223	0.027	-	0.005	-0.011	-	-	-	22	3.922	61.283	37.657	PAVEMENT_GENERAL	Urban	F	1011101000001001	0000000000000000	-	car	528.508	42.226	0.000	0.000	180.000	696.000	987.000	-0.000	Terminate	
Unknown	90.98515	10/22/0116 08:29.42	00005459	15.624	Inter617t1-2	-0.329	1	2	270.000	11.111	-0.4	0.111	0.000	D	F	1464.3	270.241	0.194	-0.003	1106.782	1303.278	0.027	-	0.012	-0.011	-	-	-	22	3.815	59.609	34.892	PAVEMENT_GENERAL	Urban	F	1111101000001001	0000000000000000	-	car	516.074	41.824	0.000	0.000	180.000	696.000	987.000	-0.000	Terminate	
Unknown	91.98518	10/22/0116 08:29.43	00005519	15.612	Inter617t1-2	-0.277	1	2	270.000	11.111	-1.6	0.108	0.000	D	F	1461.8	270.128	0.194	0.003	1091.164	1303.330	0.027	-	-0.056	-0.013	-	-	-	22	3.714	57.984	56.300	PAVEMENT_GENERAL	Urban	F	1111101000001001	0000000000000000	-	car	503.821	41.412	0.000	0.000	180.000	696.000	987.000	-0.000	Terminate	
Unknown	92.98519	10/22/0116 08:29.44	00005579	15.470	Inter617t1-2	-0.262	1	2	270.000	11.111	-0.2	0.049	0.000	D	F	1227.8	269.998	0.189	0.003	1075.599	1303.344	0.027	-	-0.019	-0.281	-	-	-	22	3.748	57.985	-	PAVEMENT_GENERAL	Urban	F	1111101000001001	0000000000000000	-	car	491.776	41.379	0.000	0.000	180.000	696.000	987.000	-0.000	Terminate	
Unknown	93.98521	10/22/0116 08:29.45	00005639	15.256	Inter617t1-2	-0.258	1	2	270.000	11.111	0.3	0.131	0.000	D	F	1523.6	270.050	0.195	-0.002	1060.276	1303.349	0.026	-	0.017	0.092	-	-	-	-	-	-	-	PAVEMENT_GENERAL	Urban	F	1111101000001001	0000000000000000	-	car	480.107	41.711	0.000	0.000	180.000	696.000	987.000	-0.000	Terminate	
Unknown	94.98523	10/22/0116 08:29.46	00005699	14.881	Inter617t1-2	-0.226	1	2	270.000	11.111	2.1	0.000	0.000	D	F	1014.8	270.296	0.189	-0.018	1045.151	1303.381	0.029	-	0.125	-0.531	-	-	-	-	-	-	-	PAVEMENT_GENERAL	Urban	F	1111101000001001	0000000000000000	-	car	468.813	42.716	0.000	0.000	180.000	696.000	987.000	-0.000	Terminate	
Unknown	95.98525	10/22/0116 08:29.47	00005759	14.527	Inter617t1-2	-0.117	1	2	270.000	11.111	-0.7	0.053	0.000	D	F	1204.0	270.433	0.188	0.005	1030.482	1303.490	0.027	-	-0.034	-0.298	-	-	-	-	-	-	-	PAVEMENT_GENERAL	Urban	F	1111101000001001	0000000000000000	-	car	458.123	43.728	0.000	0.000	180.000	696.000	987.000	-0.000	Terminate	
Unknown	96.98528	10/22/0116 08:29.48	00005819	12.276	Inter617t1-2	-0.013	1	2	270.000	11.111	0.8	0.000	0.594	D	F	948.3	270.488	-0.022	-0.006	1016.456	1303.594	0.042	-	0.037	-7.192	-	-	-	-	-	-	-	PAVEMENT_GENERAL	Urban	F	1111101000001001	0000000000000000	-	car	448.111	51.752	0.000	0.000	180.000	696.000	987.000	-0.000	Terminate	
Unknown	97.98529	10/22/0116 08:29.49	00005879	6.046	Inter617t1-2	0.069	1	2	270.000	11.111	0.3	0.000	0.260	D	F	573.1	270.566	0.056	-0.001	1007.518	1303.676	0.040	-	0.004	-4.190	-	-	-	-	-	-	-	PAVEMENT_GENERAL	Urban	F	1011101000001001	0000000000000000	-	car	441.856	105.278	0.000	0.000	180.000	696.000	987.000	-0.000	Terminate	
Unknown	98.98531	10/22/0116 08:29.50	00005939	5.267	Inter617t1-2	0.126	1	2	270.000	11.111	2.0	0.060	0.000	D	F	856.9	270.602	0.203	-0.004	1002.008	1303.732	0.028	-	0.034	-0.304	-	-	-	32	2.277	11.990	-	PAVEMENT_GENERAL	Urban	F	1111101000001001	0000000000000000	-	car	438.050	121.023	0.000	0.000	180.000	696.000	987.000	-0.000	Terminate	
Unknown	99.98534	10/22/0116 08:29.51	00005999	6.118	Inter618t1-0	-0.495	1	2	270.000	24.444	1.8	0.180	0.000	D	F	1636.9	270.802	0.222	-0.000	996.432	1303.805	0.020	-	0.021	1.540	-	-	-	32	2.818	17.239	-	FREEWAY_SMOOTH	Urban	F	1011101000001001	0000000000000000	-	car	434.246	104.715	0.000	0.000	180.000	696.000	987.000	-0.000	Terminate	
Unknown	100.98535	10/22/0116 08:29.52	00006059	7.616	Inter618t1-0	-0.387	1	2	269.966	24.444	-2.7	0.222	0.000	D	F	1814.7	270.852	0.273	-0.067	989.598	1303.912	0.023	-	-0.060	1.643	-	-	-	32	2.739	20.863	-	FREEWAY_SMOOTH	Urban	F	1011101000001001	0000000000000000	-	car	429.651	84.372	0.000	0.000	180.000	696.000	987.000	-0.000	Terminate	
Unknown	101.98537	10/22/0116 08:29.53	00006119	9.157	Inter618t1-0	-0.301	1	2	269.797	24.444	-3.5	0.254	0.000	D	F	1938.3	270.256	0.271	-0.183	981.198	1303.983	0.033	-	-0.099	1.472	-	-	-	32	2.716	24.871	-	FREEWAY_SMOOTH	Urban	F	1011101000001001	0000000000000000	-	car	424.040	69.583	0.000	0.000	180.000	696.000	987.000	-0.000	Terminate	
Unknown	102.98539	10/22/0116 08:29.54	00006179	10.561	Inter618t1-0	-0.268	1	2	269.419	24.444	-1.7	0.280	0.000	D	F	2064.7	269.623	0.269	-0.328	971.332	1303.954	0.043	-	-0.070	1.356	-	-	-	32	2.787	29.430	-	FREEWAY_SMOOTH	Urban	F	1111101000001001	0000000000000000	-	car	417.483	59.829	0.000	0.000	180.000	696.000	987.000	-0.000	Terminate	
Unknown	103.98541	10/22/0116 08:29.55	00006239	11.859	Inter618t1-0	-0.243	1	2	268.766	24.444	-4.9	0.287	0.000	D	F	2181.1	268.880	0.272	-0.464	960.113	1303.808	0.054	-	-0.216	1.237	-	-	-	32	2.920	34.623	-	FREEWAY_SMOOTH	Urban	F	1011101000001001	0000000000000000	-	car	410.100	52.778	0.000	0.000	180.000	696.000	987.000	-0.000	Terminate	
Unknown	104.98544	10/22/0116 08:29.56	00006299	13.056	Inter618t1-0	-0.259	1	2	267.743	24.444	-6.2	0.284	0.000	D	F	2328.2	267.700	0.266	-0.627	947.658	1303.422	0.066	-	-0.293	1.175	-	-	-	32	3.089	40.329	-	FREEWAY_SMOOTH	Urban	F	1011101000001001	0000000000000000	-	car	401.935	47.117	0.000	0.000	180.000	696.000	987.000	-0.000	Terminate	
Unknown	105.98545	10/22/0116 08:29.57	00006359	14.211	Inter618t1-0	-0.292	1	2	266.271	24.444	-8.3	0.282	0.000	D	F	2463.6	266.236	0.260	-0.799	934.040	1302.691	0.079	-	-0.428	1.114	-	-	-	32	3.221	45.779	-	FREEWAY_SMOOTH	Urban	F	1111101000001001	0000000000000000	-	car	393.019	42.341	0.000	0.000	180.000	696.000	987.000	-0.000	Terminate	
Unknown	106.98547	10/22/0116 08:29.58	00006419	15.293	Inter618t1-0	-0.326	1	2	264.279	24.444	-9.2	0.280	0.000	D	F	2617.6	264.242	0.256	-0.988	919.335	1301.460	0.093	-	-0.552	1.055	-	-	-	32	3.294	50.374	-	FREEWAY_SMOOTH	Urban	F	1111101000001001	0000000000000000	-	car	383.339	38.100	0.000	0.000	180.000	696.000	987.000	-0.000	Terminate	
Unknown	107.98550	10/22/0116 08:29.59	00006479	15.872	Inter618t1-0	-0.314	1	2	261.687	24.444	-10.6	0.118	0.000	D	F	1827.3	261.886	0.247	-1.185	903.742	1299.576	0.113	-	-0.721	0.038	-	-	-	32	3.443	54.644	-	FREEWAY_SMOOTH	Urban	F	1111101000001001	0000000000000000	-	car	372.955	35.306	0.000	0.000	180.000	696.000	987.000	-0.000	Terminate	
Unknown	108.98551	10/22/0116 08:30.00	00006539	16.067	Inter618t1-0	-0.225	1	2	258.584	24.444	-16.6	0.210	0.000	D	F	1967.0	259.099	0.267	-1.372	888.034	1296.963	0.129	-	-0.963	0.502	-	-	-	32	3.658	58.771	-	FREEWAY_SMOOTH	Urban	F	1111101000001001	0000000000000000	-	car	362.269	33.260	0.000	0.000	180.000	696.000	987.000	-0.000	Terminate	
Unknown	109.98553	10/22/0116 08:30.01	00006599	16.583	Inter618t1-0	-0.150	1	2	254.903	24.444	-16.3	0.226	0.000	D	F	2020.0	255.081	0.249	-1.582	872.127	1293.323	0.146	-	-1.120	0.533	-	-	-	32	3.771	62.540	-	FREEWAY_SMOOTH	Urban	F	1011101000001001	0000000000000000	-	car	350.988	30.029	0.000	0.000	180.000	696.000	987.000	-0.000	Terminate	
Unknown	110.98555	10/22/0116 08:30.02	00006659	17.085	Inter618t1-0	-0.089	1	2	250.785	24.444	-18.0	0.226	0.000	D	F	2044.2	250.942	0.195	-1.590	856.017	1288.436	0.151	-	-1.283	0.486	-	-	-	32	3.853	65.827	-	FREEWAY_SMOOTH	Urban	F	1111101000001001	0000000000000000	-	car	338.916	27.115	0.000	0.000	180.000	696.000	987.000	-0.000	Terminate	
Unknown	111.98557	10/22/0116 08:30.03	00006719	17.557	Inter618t1-0	-0.069	1	2	246.543	24.444	-20.2	0.229	0.000	D	F	2070.4	246.281	0.181	-1.562	839.869	1282.173	0.152	-	-1.497	0.471	-	-	-	32	3.894	68.367	-	FREEWAY_SMOOTH	Urban	F	1011101000001001	0000000000000000	-	car	326.009	24.345	0.000	0.000	180.000	696.000	987.000	-0.000	Terminate	
Unknown	112.98560	10/22/0116 08:30.04	00006779	18.013	Inter618t1-0	-0.155	1	2	242.190	24.444	-15.3	0.233	0.000	D	F	2103.5	241.786	0.175	-1.588	823.863	1274.424	0.149	-	-1.301	0.449	-	-	-	32	3.926	70.715	-	FREEWAY_SMOOTH	Urban	F	1111101000001001	0000000000000000	-	car	312.222	21.937	0.000	0.000	180.000	696.000	987.000	-0.000	Terminate	
Unknown	113.98561	10/22/0116 08:30.05	00006839	18.452	Inter618t1-0	-0.177	1	2	237.709	24.444	-15.4	0.229	0.000	D	F	2137.2	237.804	0.189	-1.591	808.079	1265.299	0.149	-	-1.268	0.436	-	-	-	32	3.932	72.548	-	FREEWAY_SMOOTH	Urban	F	1011101000001001	0000000000000000	-	car	297.660	19.906	0.000	0.000	180.000	696.000	987.000	-0.000	Terminate	
Unknown	114.98563	10/22/0116 08:30.06	00006899	18.872	Inter618t1-0	-0.047	1	2	233.167	24.444	-21.2	0.235	0.000	D	F	2167.6	233.439	0.192	-1.542	792.622	1254.842	0.153	-	-1.639	0.417	-	-	-	32	3.929	74.152	-	FREEWAY_SMOOTH	Urban	F	1011101000001001	0000000000000000	-	car	282.377	17.964	0.000	0.000	180.000	696.000	987.000	-0.000	Terminate	
Unknown	115.98566	10/22/0116 08:30.07	00006959	18.935	Inter618t1-0	0.018	1	2	228.517	24.444	-19.8	0.042	0.000	D	F	1499.4	228.153	0.161	-1.519	777.837	1242.916	0.158	-	-1.809	-0.404	-	-	-	32	3.979	75.336	-	FREEWAY_SMOOTH	Urban	F	1111101000001001	0000000000000000	-	car	266.323	16.311	0.000	0.000	180.000	696.000	987.000	-0.000	Terminate	
Unknown	116.98567	10/22/0116 08:30.08	00007019	18.621	Inter618t1-0	-0.151	1	2	223.933	24.444	-16.9	0.129	0.000	D	F	1604.2	222.960	0.148	-1.557	764.415	1229.856	0.152	-	-1.542	-0.053	-	-	-	32	4.107	76.474	-	FREEWAY_SMOOTH	Urban	F	1011101000001001	0000000000000000	-	car	249.949	15.095	0.000	0.000	180.000	696.000	987.000	-0.000	Terminate	
Unknown	117.98569	10/22/0116 08:30.09	00007079	18.584	Inter618t1-0	-0.379	1	2	219.389	24.444	-14.3	0.150	0.000	D	F	1646.8	218.788	0.165	-1.592	752.211	1215.830	0.145	-	-1.266	0.009	-	-	-	32	4.201	78.066	-	FREEWAY_SMOOTH	Urban	F	1011101000001001	0000000000000000	-	car	233.274	13.849	0.000	0.000	180.000	696.000	987.000	-0.000	Terminate	
Unknown	118.98571	10/22/0116 08:30.10	00007139	18.495	Inter618t1-0	-0.437	1	2	214.823	24.444	-15.8	0.009	0.000	D	F	1261.1	214.758	0.157	-1.574	741.032	1200.997	0.144	-	-1.399	-0.578	-	-	-	32	4.303	79.583	-	FREEWAY_SMOOTH	Urban	F	1011101000001001	0000000000000000	-	car	216.324	12.695	0.000	0.000	180.000	696.000	987.000	-0.000	Terminate	
Unknown	119.98573	10/22/0116 08:30.11	00007199	18.122	Inter618t1-0	-0.420	1	2	210.367	24.444	-17.3	0.139	0.000	D	F	1609.4	210.284	0.177	-1.567	731.169	1185.650	0.143	-	-1.427	-0.010	-	-	-	32	4.500	81.541	-	FREEWAY_SMOOTH	Urban	F	1011101000001001	0000000000000000	-	car	199.379	11.726	0.000	0.000	180.000	696.000	987.000	-0.000	Terminate	
Unknown	120.98576	10/22/0116 08:30.12	00007259	18.099	Inter618t1-0	-0.388	1	2	205.927	24.444	-15.2	0.136	0.000	D	F	1592.6	206.089	0.190	-1.590	722.576	1169.700	0.145	-	-1.281	-0.037	-	-	-	32	4.616	83.549	-	FREEWAY_SMOOTH	Urban	F	1011101000001001	0000000000000000	-	car	182.263	10.578	0.000	0.000	180.000	696.000	987.000	-0.000	Terminate	
Unknown	121.98577	10/22/0116 08:30.13	00007319	18.069	Inter618t1-0	-0.275	1	2	201.506	24.444	-18.7	0.136	0.000	D	F	1591.6	201.667	0.185	-1.556	715.181	1153.199	0.148	-	-1.529	-0.037	-	-	-	-	-	-	-	FREEWAY_SMOOTH	Urban	F	1011101000001001	0000000000000000	-	car	164.943	9.454	0.000	0.000	180.000	696.000	987.000	-0.000	Terminate	
Unknown	122.98579	10/22/0116 08:30.14	00007379	18.018	Inter618t1-0	-0.257	1	2	197.066	24.444	-16.2	0.000	0.000	D	F	1191.6	196.797	0.169	-1.572	709.182	1136.175	0.149	-	-1.449	-0.276	-	-	-	-	-	-	-	FREEWAY_SMOOTH	Urban	F	1111101000001001	0000000000000000	-	car	147.397	8.355	0.000	0.000	180.000	696.000	987.000	-0.000	Terminate	
Unknown	123.98581	10/22/0116 08:30.15	00007439	17.490	Inter618t1-0	-0.327	1	2	192.849	24.444	-12.1	0.063	0.000	D	F	1376.2	192.496	0.111	-1.452	704.660	1119.031	0.138	-	-1.146	-0.289	-	-	-	-	-	-	-	FREEWAY_SMOOTH	Urban	F	1011101000001001	0000000000000000	-	car	129.955	7.518	0.000	0.000	180.000	696.000	987.000	-0.000	Terminate	
Unknown	124.98583	10/22/0116 08:30.16	00007499	17.169	Inter618t1-0	-0.321	1	2	189.276	24.444	-10.6	0.000	0.000	D	F	1170.6	189.591	0.134	-1.248	701.318	1101.993	0.122	-	-0.869	-0.574	-	-	-	-	-	-	-	FREEWAY_SMOOTH	Urban	F	1111101000001001	0000000000000000	-	car	112.756	6.616	0.000	0.000	180.000	696.000	987.000	-0.000	Terminate	
Unknown	125.98586	10/22/0116 08:30.17	00007559	16.595	Inter618t1-0	-0.209	1	2	186.354	24.444	-9.4	0.000	0.000	D	F	1131.7	186.687	0.134	-1.023	698.911	1085.286	0.108	-	-0.786	-0.569	-	-	-	-	-	-	-	FREEWAY_SMOOTH	Urban	F	1011101000001001	0000000000000000	-	car	95.969	5.805	0.000	0.000	180.000	696.000	987.000	-0.000	Terminate	
Unknown	126.98587	10/22/0116 08:30.18	00007619	16.031	Inter618t1-0	-0.121	1	2	184.044	24.444	-8.7	0.000	0.000	D	F	1093.2	184.315	0.132	-0.823	697.348	1069.049	0.094	-	-0.608	-0.556	-	-	-	-	-	-	-	FREEWAY_SMOOTH	Urban	F	1111101000001001	0000000000000000	-	car	79.701	4.980	0.000	0.000	180.000	696.000	987.000	-0.000	Terminate	
Unknown	127.98589	10/22/0116 08:30.19	00007679	15.475	Inter618t1-0	-0.169	1	2	182.304	24.444	-7.2	0.000	0.000	D	F	1055.5	181.531	0.121	-0.600	696.526	1053.319	0.078	-	-0.630	-0.550	-	-	-	-	-	-	-	FREEWAY_SMOOTH	Urban	F	1011101000001001	0000000000000000	-	car	63.962	4.134	0.000	0.000	180.000	696.000	987.000	-0.000	Terminate	
Unknown	128.98592	10/22/0116 08:30.20	00007739	14.009	Inter618t1-0	-0.353	1	2	181.089	24.444	-2.3	0.000	0.304	D	F	915.2	180.746	0.032	-0.458	696.269	1038.261	0.067	-	-0.088	-4.179	-	-	-	-	-	-	-	FREEWAY_SMOOTH	Urban	F	1111101000001001	0000000000000000	-	car	48.903	3.491	0.000	0.000	180.000	696.000	987.000	-0.000	Terminate	
Unknown	129.98593	10/22/0116 08:30.21	00007799	9.519	Inter618t1-0	-0.433	1	2	180.452	24.444	-0.6	0.000	0.394	D	F	878.1	180.082	0.005	-0.293	696.191	1026.400	0.059	-	-0.053	-5.028	-	-	-	-	-	-	-	FREEWAY_SMOOTH	Urban	F	1011101000001001	0000000000000000	-	car	37.043	3.933	0.100	2.000	180.000	696.000	986.998	-0.000	Terminate	
Unknown	130.98595	10/22/0116 08:30.22	00007859	5.677	Inter618t1-0	-0.469	1	2	180.200	24.444	-0.1	0.000	0.000	D	F	559.5	180.063	0.169	-0.198	696.186	1019.204	0.044	-	-0.001	-0.474	-	-	-	-	-	-	-	FREEWAY_SMOOTH	Urban	F	1011101000001001	0000000000000000	-	car	30.928	8.638	2.100	2.000	176.998	696.054	985.916	-0.000	Terminate	
Unknown	131.98598	10/22/0116 08:30.23	00007919	5.210	Inter618t1-0	-0.471	1	2	180.076	24.444	-0.7	0.019	0.000	D	F	601.6	180.203	0.147	-0.119	696.175	1013.762	0.037	-	-0.023	-0.419	-	-	-	-	-	-	-	FREEWAY_SMOOTH	Urban	F	1011101000001001	0000000000000000	-	car	28.565	25.614	4.100	2.000	176.941	696.230	982.838	-0.000	Terminate	
Unknown	132.98599	10/22/0116 08:30.24	00007979	5.742	Inter618t1-0	-0.487	1	2	180.010	24.444	-4.1	0.187	0.000	D	F	1574.1	179.704	0.164	-0.045	696.188	1008.436	0.025	-	-0.038	1.250	-	-	-	-	-	-	-	FREEWAY_SMOOTH	Urban	F	1111101000001001	0000000000000000	-	car	28.320	-79.134	6.100	2.000	178.936	696.372	977.756	-0.000	Terminate	
Unknown	133.98601	10/22/0116 08:30.25	00008039	7.279	Inter618t1-0	-0.575	1	2	180.000	24.444	-11.7	0.243	0.000	D	F	1796.5	178.886	0.220	0.033	696.275	1001.927	0.019	-	-0.215	1.572	-	-	-	car	3.319	24.161	-	FREEWAY_SMOOTH	Urban	F	1011101000001001	0000000000000000	-	car	28.895	-35.169	8.100	2.000	179.986	696.400	970.673	-0.000	Terminate	
Unknown	134.98604	10/22/0116 08:30.26	00008099	8.753	Inter686t1-0	-0.115	1	1	180.000	11.111	8.3	0.228	0.000	D	F	1885.7	178.326	0.215	-0.033	696.511	993.896	0.020	-	0.187	1.428	-	-	-	car	3.152	27.588	-	PAVEMENT_GENERAL	Urban	F	1111101000001001	0000000000000000	-	car	29.947	-22.151	10.100	2.000	180.009	696.397	961.589	-0.000	Terminate	
Unknown	135.98605	10/22/0116 08:30.27	00008159	10.096	Inter686t1-0	-0.268	1	1	180.000	11.111	5.7	0.240	0.000	D	F	1990.2	179.435	0.212	-0.023	696.664	984.458	0.020	-	0.160	1.256	-	-	-	car	2.896	29.233	-	PAVEMENT_GENERAL	Urban	F	1011101000001001	0000000000000000	-	car	31.594	-15.751	12.100	2.000	180.003	696.397	950.505	-0.000	Terminate	
Unknown	136.98607	10/22/0116 08:30.28	00008219	11.281	Inter686t1-0	-0.312	1	1	180.000	11.111	-0.4	0.243	0.000	D	F	2084.3	179.908	0.209	0.001	696.708	973.758	0.021	-	0.004	1.116	-	-	-	car	2.803	31.617	-	PAVEMENT_GENERAL	Urban	F	1011101000001001	0000000000000000	-	car	33.978	-12.051	14.100	2.000	180.003	696.397	937.422	-0.000	Terminate	
Unknown	137.98610	10/22/0116 08:30.29	00008279	12.339	Inter686t1-0	-0.318	1	1	180.000	11.111	-2.5	0.243	0.000	D	F	2204.2	180.051	0.208	0.011	696.714	961.941	0.022	-	-0.050	1.030	-	-	-	car	2.827	34.884	-	PAVEMENT_GENERAL	Urban	F	1011101000001001	0000000000000000	-	car	37.245	-9.904	16.100	2.000	180.002	696.397	922.338	-0.000	Terminate	
Unknown	138.98611	10/22/0116 08:30.30	00008339	13.344	Inter686t1-0	-0.355	1	1	180.000	11.111	0.3	0.245	0.000	D	F	2321.5	179.727	0.207	-0.005	696.751	949.096	0.022	-	0.007	0.983	-	-	-	car	2.932	39.123	-	PAVEMENT_GENERAL	Urban	F	1011101000001001	0000000000000000	-	car	41.484	-8.720	18.100	2.000	180.002	696.397	905.254	-0.000	Terminate	
Unknown	139.98613	10/22/0116 08:30.31	00008399	14.289	Inter686t1-0	-0.424	1	1	180.000	11.111	1.5	0.238	0.000	D	F	2446.6	179.754	0.205	-0.009	696.820	935.273	0.022	-	0.062	0.912	-	-	-	car	3.073	43.909	-	PAVEMENT_GENERAL	Urban	F	1111101000001001	0000000000000000	-	car	46.271	-9.582	19.117	1.000	180.002	696.397	886.645	-0.000	Terminate	
Unknown	140.98616	10/22/0116 08:30.32	00008459	15.159	Inter686t1-0	-0.456	1	1	180.000	11.111	-2.2	0.235	0.000	D	F	2039.8	179.952	0.199	0.013	696.852	920.536	0.023	-	-0.052	0.698	-	-	-	car	3.202	48.535	-	PAVEMENT_GENERAL	Urban	F	1011101000001001	0000000000000000	-	car	50.896	-11.416	19.617	0.500	180.002	696.397	867.282	-0.000	Terminate	
Unknown	141.98618	10/22/0116 08:30.33	00008519	15.788	Inter686t1-0	-0.486	1	1	180.000	11.111	-0.2	0.233	0.000	D	F	1991.5	179.887	0.199	-0.000	696.882	905.056	0.024	-	-0.000	0.597	-	-	-	car	3.352	52.918	-	PAVEMENT_GENERAL	Urban	F	1011101000001001	0000000000000000	-	car	55.280	-12.771	20.116	0.000	180.002	696.397	847.419	-0.000	Terminate	
Unknown	142.98619	10/22/0116 08:30.34	00008579	16.359	Inter686t1-0	-0.502	1	1	180.000	11.111	0.3	0.229	0.000	D	F	2015.6	180.039	0.198	-0.005	696.899	888.979	0.024	-	0.038	0.553	-	-	-	car	3.482	56.957	-	PAVEMENT_GENERAL	Urban	F	1111101000001001	0000000000000000	-	car	59.319	-15.790	20.116	0.000	180.002	696.397	827.303	-0.000	Terminate	
Unknown	143.98621	10/22/0116 08:30.35	00008639	16.894	Inter686t1-0	-0.503	1	1	180.000	11.111	-1.2	0.231	0.000	D	F	2041.9	179.876	0.197	0.010	696.899	872.349	0.024	-	-0.081	0.519	-	-	-	car	3.578	60.444	-	PAVEMENT_GENERAL	Urban	F	1011101000001001	0000000000000000	-	car	62.805	-19.489	20.116	0.000	179.971	696.399	807.187	-0.000	Terminate	
Unknown	144.98624	10/22/0116 08:30.36	00008699	17.398	Inter686t1-0	-0.570	1	1	180.000	11.111	2.0	0.231	0.000	D	F	2067.6	179.685	0.196	-0.010	696.966	855.201	0.024	-	0.041	0.492	-	-	-	car	3.645	63.412	-	PAVEMENT_GENERAL	Urban	F	1011101000001001	0000000000000000	-	car	65.773	-24.189	20.116	0.000	179.996	696.403	787.071	-0.000	Terminate	
Unknown	145.98625	10/22/0116 08:30.37	00008759	17.867	Inter686t1-0	-0.612	1	1	180.000	11.111	2.3	0.224	0.000	D	F	2090.9	180.092	0.195	-0.018	697.008	837.565	0.025	-	0.139	0.449	-	-	-	car	3.688	65.891	-	PAVEMENT_GENERAL	Urban	F	1011101000001001	0000000000000000	-	car	68.253	-30.356	20.116	0.000	179.996	696.403	766.955	-0.000	Terminate	
Unknown	146.98627	10/22/0116 08:30.38	00008819	18.305	Inter686t1-0	-0.546	1	1	180.000	11.111	-0.2	0.226	0.000	D	F	2125.3	180.228	0.194	0.004	696.942	819.477	0.025	-	-0.025	0.432	-	-	-	car	3.710	67.919	-	PAVEMENT_GENERAL	Urban	F	1011101000001001	0000000000000000	-	car	70.281	-38.826	20.116	0.000	179.996	696.403	746.839	-0.000	Terminate	
Unknown	147.98630	10/22/0116 08:30.39	00008879	18.729	Inter686t1-0	-0.481	1	1	180.000	11.111	-0.2	0.229	0.000	D	F	2157.0	180.157	0.193	0.003	696.877	800.959	0.025	-	-0.019	0.413	-	-	-	car	3.586	67.160	-	PAVEMENT_GENERAL	Urban	F	1011101000001001	0000000000000000	-	car	71.878	-51.826	20.116	0.000	179.996	696.403	726.723	-0.000	Terminate	
Unknown	148.98631	10/22/0116 08:30.40	00008939	19.132	Inter682t1-1	-0.414	1	1	180.000	11.111	-3.5	0.228	0.000	D	F	2186.4	180.129	0.193	0.021	696.818	782.026	0.025	-	-0.142	0.397	-	-	-	car	3.695	70.701	-	PAVEMENT_GENERAL	Urban	F	1011101000001001	0000000000000000	-	car	73.061	-74.267	20.116	0.000	179.996	696.403	706.607	-0.000	Terminate	
Unknown	149.98633	10/22/0116 08:30.41	00008999	20.132	Inter682t1-1	-0.429	1	1	180.000	11.111	0.2	0.801	0.000	D	F	3368.3	179.858	0.202	0.001	696.833	762.508	0.020	-	-0.006	1.493	-	-	-	car	3.542	71.299	4485.895	PAVEMENT_GENERAL	Urban	F	1011101000001001	0000000000000000	-	car	73.659	4734.460	20.116	0.000	179.996	696.403	686.491	-0.000	Terminate	
Unknown	150.98636	10/22/0116 08:30.42	00009059	20.360	Inter682t1-1	-0.471	1	1	180.000	11.111	0.3	0.000	0.355	D	F	1463.8	179.919	0.132	-0.003	696.875	741.940	0.029	-	0.020	-3.222	-	-	-	car	3.480	70.846	290.109	PAVEMENT_GENERAL	Urban	F	1111101000001001	0000000000000000	-	car	73.207	300.020	20.116	0.000	179.996	696.403	666.375	-0.000	Terminate	
