ZoneName	Time	SystemTime	Frame	Velocity	LaneName	LanePos	LaneIndex	LaneCount	LaneHeading	SpeedLimit	Steer	Accel	Brake	Gear	Horn	SubjectEngineRPM	SubjectHeading	SubjectPitch	SubjectRoll	SubjectX	SubjectY	SubjectZ	Signal	LatAccel	LongAccel	Collision	CollisionAngle	CollisionVelocity	VehAhead	HeadwayTime	HeadwayDist	TTC	TerrainType	CultureType	Slip	DigitalInputs	DigitalInputs2	ActiveTrigger	EntityName	DistToEntity	TimeToEntity	EntityVelocity	EntityAccel	EntityHeading	EntityX	EntityY	EntityZ	GrabData	
Unknown	0.98335	01/16/0117 10:54.10	00000059	0.002	Inter625t13-0	-0.088	1	2	0.000	11.111	0.0	0.000	0.000	D	F	0.0	0.000	0.153	-0.000	1503.500	523.206	0.019	-	-0.000	0.000	-	-	-	-	-	-	-	PAVEMENT_GENERAL	Urban	F	1011101000011101	0000000000010000	-	-	-	-	-	-	-	-	-	-	Terminate	
Unknown	1.98337	01/16/0117 10:54.11	00000119	0.000	Inter625t13-0	-0.088	1	2	0.000	11.111	1.3	0.000	0.000	D	F	0.0	0.000	0.197	-0.000	1503.500	523.208	0.026	-	0.000	-0.001	-	-	-	-	-	-	-	PAVEMENT_GENERAL	Urban	F	1011101000011101	0000000000010000	-	-	-	-	-	-	-	-	-	-	Terminate	
Unknown	2.98339	01/16/0117 10:54.12	00000179	-0.000	Inter625t13-0	-0.088	1	2	0.000	11.111	2.2	0.000	0.000	D	F	0.0	0.000	0.207	-0.000	1503.500	523.208	0.028	-	-0.000	-0.000	-	-	-	-	-	-	-	PAVEMENT_GENERAL	Urban	F	1011101000011101	0000000000010000	-	-	-	-	-	-	-	-	-	-	Terminate	
Unknown	3.98341	01/16/0117 10:54.13	00000239	0.000	Inter625t13-0	-0.088	1	2	0.000	11.111	2.2	0.000	0.000	D	F	205.6	0.000	0.209	-0.000	1503.500	523.208	0.028	-	0.000	0.000	-	-	-	-	-	-	-	PAVEMENT_GENERAL	Urban	F	1011101000011111	0000000000010000	-	-	-	-	-	-	-	-	-	-	Terminate	
Unknown	4.98343	01/16/0117 10:54.14	00000299	0.006	Inter625t13-0	-0.088	1	2	0.000	11.111	2.7	0.000	0.000	D	F	477.5	0.000	0.207	-0.000	1503.500	523.209	0.027	-	0.000	0.021	-	-	-	-	-	-	-	PAVEMENT_GENERAL	Urban	F	1011101000011101	0000000000010000	-	-	-	-	-	-	-	-	-	-	Terminate	
Unknown	5.98345	01/16/0117 10:54.15	00000359	0.068	Inter625t13-0	-0.088	1	2	0.000	11.111	3.2	0.000	0.000	D	F	477.5	0.003	0.204	-0.000	1503.500	523.235	0.025	-	0.000	0.149	-	-	-	-	-	-	-	PAVEMENT_GENERAL	Urban	F	1011101000011101	0000000000010000	-	-	-	-	-	-	-	-	-	-	Terminate	
Unknown	6.98347	01/16/0117 10:54.16	00000419	0.271	Inter625t13-0	-0.088	1	2	0.000	11.111	4.0	0.000	0.000	D	F	477.5	0.016	0.206	-0.000	1503.500	523.401	0.025	-	0.001	0.199	-	-	-	-	-	-	-	PAVEMENT_GENERAL	Urban	F	1011101000011101	0000000000010000	-	-	-	-	-	-	-	-	-	-	Terminate	
Unknown	7.98349	01/16/0117 10:54.17	00000479	1.008	Inter625t13-0	-0.086	1	2	0.000	11.111	4.8	0.063	0.000	D	F	993.9	0.066	0.223	-0.001	1503.502	523.906	0.022	-	0.005	1.486	-	-	-	-	-	-	-	PAVEMENT_GENERAL	Urban	F	1011101000011101	0000000000010000	-	-	-	-	-	-	-	-	-	-	Terminate	
Unknown	8.98351	01/16/0117 10:54.18	00000539	2.888	Inter625t13-0	-0.076	1	2	0.000	11.111	4.1	0.120	0.000	D	F	1392.7	0.238	0.216	-0.002	1503.512	525.781	0.016	-	0.016	2.100	-	-	-	-	-	-	-	PAVEMENT_GENERAL	Urban	F	1011101000011101	0000000000010000	-	-	-	-	-	-	-	-	-	-	Terminate	
Unknown	9.98353	01/16/0117 10:54.19	00000599	5.015	Inter625t13-0	-0.042	1	2	0.000	11.111	1.5	0.183	0.000	D	F	1802.8	0.512	0.221	-0.001	1503.546	529.735	0.017	-	0.012	2.035	-	-	-	-	-	-	-	PAVEMENT_GENERAL	Urban	F	1011101000011101	0000000000010000	-	-	-	-	-	-	-	-	-	-	Terminate	
Unknown	10.98355	01/16/0117 10:54.20	00000659	7.219	Inter625t49-0	0.017	1	1	0.005	11.111	-1.1	0.243	0.000	D	F	2304.0	0.545	0.220	0.002	1503.605	535.832	0.016	-	-0.019	2.158	-	-	-	-	-	-	-	PAVEMENT_GENERAL	Urban	F	1011101000011101	0000000000010000	-	-	-	-	-	-	-	-	-	-	Terminate	
Unknown	11.98357	01/16/0117 10:54.21	00000719	9.054	Inter625t49-0	0.064	1	1	0.007	11.111	-0.7	0.247	0.000	D	F	1947.9	0.166	0.213	0.002	1503.653	544.040	0.019	-	-0.024	1.480	-	-	-	-	-	-	-	PAVEMENT_GENERAL	Urban	F	1011101000011101	0000000000010000	-	-	-	-	-	-	-	-	-	-	Terminate	
Unknown	12.98359	01/16/0117 10:54.22	00000779	10.511	Inter625t49-0	0.079	1	1	0.007	11.111	-1.2	0.286	0.000	D	F	2067.9	0.010	0.212	0.005	1503.669	553.833	0.020	-	-0.039	1.369	-	-	-	-	-	-	-	PAVEMENT_GENERAL	Urban	F	1011101000011101	0000000000010000	-	-	-	-	-	-	-	-	-	-	Terminate	
Unknown	13.98361	01/16/0117 10:54.23	00000839	11.844	Inter625t49-0	0.057	1	1	0.005	11.111	1.7	0.302	0.000	D	F	2199.0	359.827	0.211	-0.007	1503.649	565.014	0.020	-	0.033	1.298	-	-	-	-	-	-	-	PAVEMENT_GENERAL	Urban	F	1011101000011101	0000000000010000	-	-	-	-	-	-	-	-	-	-	Terminate	
Unknown	14.98363	01/16/0117 10:54.24	00000899	13.079	Inter625t49-0	0.074	1	1	0.005	11.111	-0.2	0.295	0.000	D	F	2342.0	0.318	0.209	0.002	1503.667	577.483	0.021	-	0.027	1.206	-	-	-	-	-	-	-	PAVEMENT_GENERAL	Urban	F	1011101000011101	0000000000010000	-	-	-	-	-	-	-	-	-	-	Terminate	
Unknown	15.98365	01/16/0117 10:54.25	00000959	14.217	Inter625t15-0	0.129	1	2	0.000	11.111	0.1	0.256	0.000	D	F	2449.1	0.139	0.204	0.001	1503.722	591.148	0.022	-	-0.018	1.016	-	-	-	-	-	-	-	PAVEMENT_GENERAL	Urban	F	1011101000011101	0000000000010000	-	-	-	-	-	-	-	-	-	-	Terminate	
Unknown	16.98367	01/16/0117 10:54.26	00001019	14.890	Inter614t1-0	0.167	1	2	0.000	11.111	-1.1	0.228	0.000	D	F	1958.9	0.164	0.204	0.001	1503.761	605.733	0.024	-	-0.019	0.660	-	-	-	-	-	-	-	PAVEMENT_GENERAL	Urban	F	1011101000011101	0000000000010000	-	-	-	-	-	-	-	-	-	-	Terminate	
Unknown	17.98369	01/16/0117 10:54.27	00001079	15.531	Inter614t1-0	0.153	1	2	0.000	11.111	-0.7	0.208	0.000	D	F	1951.1	359.633	0.200	0.010	1503.746	620.947	0.024	-	-0.100	0.601	-	-	-	-	-	-	-	PAVEMENT_GENERAL	Urban	F	1011101000011101	0000000000010000	-	-	-	-	-	-	-	-	-	-	Terminate	
Unknown	18.98371	01/16/0117 10:54.28	00001139	16.043	Inter614t1-0	0.075	1	2	0.000	11.111	0.7	0.217	0.000	D	F	1983.8	359.902	0.199	-0.012	1503.668	636.727	0.024	-	0.084	0.529	-	-	-	-	-	-	-	PAVEMENT_GENERAL	Urban	F	1011101000011101	0000000000010000	-	-	-	-	-	-	-	-	-	-	Terminate	
Unknown	19.98373	01/16/0117 10:54.29	00001199	16.445	Inter614t1-0	0.049	1	2	0.000	11.111	-0.5	0.192	0.000	D	F	1937.5	359.889	0.201	0.003	1503.642	653.003	0.025	-	-0.025	0.346	-	-	-	-	-	-	-	PAVEMENT_GENERAL	Urban	F	1011101000011101	0000000000010000	-	-	-	-	-	-	-	-	-	-	Terminate	
Unknown	20.98375	01/16/0117 10:54.30	00001259	16.919	Inter614t1-0	0.002	1	2	0.000	11.111	0.1	0.228	0.000	D	F	2035.8	359.823	0.197	-0.002	1503.596	669.673	0.024	-	0.007	0.501	-	-	-	-	-	-	-	PAVEMENT_GENERAL	Urban	F	1011101000011101	0000000000010000	-	-	-	-	-	-	-	-	-	-	Terminate	
Unknown	21.98377	01/16/0117 10:54.31	00001319	17.347	Inter614t1-0	-0.043	1	2	0.000	11.111	1.3	0.210	0.000	D	F	2028.5	359.926	0.195	-0.011	1503.550	686.817	0.025	-	0.073	0.394	-	-	-	-	-	-	-	PAVEMENT_GENERAL	Urban	F	1011101000011101	0000000000010000	-	-	-	-	-	-	-	-	-	-	Terminate	
Unknown	22.98379	01/16/0117 10:54.32	00001379	17.697	Inter614t1-0	-0.032	1	2	0.000	11.111	0.2	0.199	0.000	D	F	2042.2	0.129	0.195	-0.005	1503.561	704.348	0.025	-	0.023	0.341	-	-	-	-	-	-	-	PAVEMENT_GENERAL	Urban	F	1011101000011101	0000000000010000	-	-	-	-	-	-	-	-	-	-	Terminate	
Unknown	23.98381	01/16/0117 10:54.33	00001439	18.043	Inter614t1-0	0.004	1	2	0.000	11.111	-0.9	0.203	0.000	D	F	2070.3	0.068	0.194	0.007	1503.597	722.219	0.025	-	-0.050	0.339	-	-	-	-	-	-	-	PAVEMENT_GENERAL	Urban	F	1011101000011101	0000000000010000	-	-	-	-	-	-	-	-	-	-	Terminate	
Unknown	24.98383	01/16/0117 10:54.34	00001499	18.374	Inter614t1-0	0.013	1	2	0.000	11.111	-0.1	0.203	0.000	D	F	2094.2	0.015	0.193	0.000	1503.606	740.428	0.025	-	-0.001	0.327	-	-	-	12	5.371	98.691	200.365	PAVEMENT_GENERAL	Urban	F	1011101000011101	0000000000010000	-	-	-	-	-	-	-	-	-	-	Terminate	
Unknown	25.98385	01/16/0117 10:54.35	00001559	18.689	Inter614t1-0	0.005	1	2	0.000	11.111	-0.9	0.201	0.000	D	F	2113.9	359.898	0.193	0.008	1503.598	758.961	0.025	-	-0.052	0.307	-	-	-	12	5.288	98.823	-	PAVEMENT_GENERAL	Urban	F	1011101000011101	0000000000010000	-	-	-	-	-	-	-	-	-	-	Terminate	
Unknown	26.98387	01/16/0117 10:54.36	00001619	18.991	Inter614t1-0	-0.044	1	2	0.000	11.111	0.5	0.201	0.000	D	F	2135.8	359.829	0.192	-0.001	1503.549	777.802	0.025	-	0.011	0.299	-	-	-	12	5.293	100.524	-	PAVEMENT_GENERAL	Urban	F	1011101000011101	0000000000010000	-	-	-	-	-	-	-	-	-	-	Terminate	
Unknown	27.98389	01/16/0117 10:54.37	00001679	19.279	Inter614t1-0	-0.086	1	2	0.000	11.111	-0.6	0.201	0.000	D	F	2151.8	359.905	0.191	0.001	1503.507	796.939	0.025	-	-0.008	0.274	-	-	-	12	5.335	102.846	-	PAVEMENT_GENERAL	Urban	F	1011101000011101	0000000000010000	-	-	-	-	-	-	-	-	-	-	Terminate	
Unknown	28.98391	01/16/0117 10:54.38	00001739	19.547	Inter612t1-0	-0.151	1	2	0.000	11.111	0.2	0.199	0.000	D	F	2169.5	359.710	0.191	0.001	1503.442	816.353	0.025	-	-0.018	0.266	-	-	-	12	5.392	105.408	-	PAVEMENT_GENERAL	Urban	F	1011101000011101	0000000000010000	-	-	-	-	-	-	-	-	-	-	Terminate	
Unknown	29.98393	01/16/0117 10:54.39	00001799	19.801	Inter612t1-0	-0.243	1	2	0.000	11.111	0.3	0.194	0.000	D	F	2185.9	359.754	0.190	-0.002	1503.350	836.029	0.026	-	0.017	0.238	-	-	-	12	5.458	108.070	-	PAVEMENT_GENERAL	Urban	F	1011101000011101	0000000000010000	-	-	-	-	-	-	-	-	-	-	Terminate	
Unknown	30.98395	01/16/0117 10:54.40	00001859	20.030	Inter612t1-0	-0.318	1	2	0.000	11.111	2.9	0.198	0.000	D	F	2208.7	359.881	0.190	-0.023	1503.276	855.946	0.026	-	0.134	0.225	-	-	-	12	5.517	110.507	-	PAVEMENT_GENERAL	Urban	F	1011101000011101	0000000000010000	-	-	-	-	-	-	-	-	-	-	Terminate	
Unknown	31.98397	01/16/0117 10:54.41	00001919	20.254	Inter612t1-0	-0.283	1	2	0.000	11.111	2.1	0.196	0.000	D	F	2227.2	0.367	0.189	-0.019	1503.310	876.088	0.026	-	0.150	0.219	-	-	-	12	5.565	112.718	-	PAVEMENT_GENERAL	Urban	F	1011101000011101	0000000000010000	-	-	-	-	-	-	-	-	-	-	Terminate	
Unknown	32.98399	01/16/0117 10:54.42	00001979	20.471	Inter612t1-0	-0.104	1	2	0.000	11.111	-0.5	0.198	0.000	D	F	2247.5	0.603	0.189	0.002	1503.489	896.450	0.026	-	-0.008	0.214	-	-	-	12	5.603	114.709	-	PAVEMENT_GENERAL	Urban	F	1011101000011101	0000000000010000	-	-	-	-	-	-	-	-	-	-	Terminate	
Unknown	33.98401	01/16/0117 10:54.43	00002039	20.681	Inter612t1-0	0.088	1	2	0.000	11.111	-1.2	0.196	0.000	D	F	2267.6	0.437	0.188	0.008	1503.681	917.026	0.026	-	-0.065	0.207	-	-	-	12	5.633	116.487	-	PAVEMENT_GENERAL	Urban	F	1011101000011101	0000000000010000	-	-	-	-	-	-	-	-	-	-	Terminate	
Unknown	34.98403	01/16/0117 10:54.44	00002099	20.869	Inter612t1-0	0.150	1	2	0.000	11.111	-3.6	0.196	0.000	D	F	2279.1	359.657	0.187	0.041	1503.743	937.802	0.026	-	-0.315	0.187	-	-	-	12	5.657	118.065	-	PAVEMENT_GENERAL	Urban	F	1011101000011101	0000000000010000	-	-	-	-	-	-	-	-	-	-	Terminate	
Unknown	35.98405	01/16/0117 10:54.45	00002159	21.052	Inter612t1-0	-0.010	1	2	0.000	11.111	1.9	0.194	0.000	D	F	2295.5	359.616	0.187	-0.022	1503.583	958.762	0.026	-	0.130	0.183	-	-	-	12	5.674	119.458	-	PAVEMENT_GENERAL	Urban	F	1011101000011101	0000000000010000	-	-	-	-	-	-	-	-	-	-	Terminate	
Unknown	36.98407	01/16/0117 10:54.46	00002219	21.228	Inter612t1-0	-0.153	1	2	0.000	11.111	-1.0	0.194	0.000	D	F	2310.4	359.494	0.187	0.012	1503.440	979.902	0.026	-	-0.093	0.172	-	-	-	12	5.685	120.672	-	PAVEMENT_GENERAL	Urban	F	1011101000011101	0000000000010000	-	-	-	-	-	-	-	-	-	-	Terminate	
Unknown	37.98409	01/16/0117 10:54.47	00002279	21.398	Inter613t1-0	-0.343	1	2	0.000	11.111	2.9	0.194	0.000	D	F	2328.1	359.601	0.187	-0.023	1503.250	1001.214	0.026	-	0.165	0.165	-	-	-	12	5.688	121.713	-	PAVEMENT_GENERAL	Urban	F	1011101000011101	0000000000010000	-	-	-	-	-	-	-	-	-	-	Terminate	
Unknown	38.98411	01/16/0117 10:54.48	00002339	21.564	Inter613t1-0	-0.400	1	2	0.000	11.111	2.8	0.194	0.000	D	F	2341.2	0.209	0.186	-0.028	1503.193	1022.695	0.026	-	0.216	0.165	-	-	-	12	5.685	122.585	-	PAVEMENT_GENERAL	Urban	F	1011101000011101	0000000000010000	-	-	-	-	-	-	-	-	-	-	Terminate	
Unknown	39.98413	01/16/0117 10:54.49	00002399	21.651	Inter613t1-0	-0.288	1	2	0.000	11.111	-1.4	0.053	0.000	D	F	1707.8	0.292	0.171	0.012	1503.305	1044.332	0.027	-	-0.077	-0.321	-	-	-	12	5.695	123.302	-	PAVEMENT_GENERAL	Urban	F	1011101000011101	0000000000010000	-	-	-	-	-	-	-	-	-	-	Terminate	
Unknown	40.98415	01/16/0117 10:54.50	00002459	21.185	Inter613t1-0	-0.232	1	2	0.000	11.111	-1.9	0.048	0.000	D	F	1518.1	359.885	0.181	0.022	1503.361	1065.749	0.029	-	-0.170	-0.443	-	-	-	12	5.864	124.238	-	PAVEMENT_GENERAL	Urban	F	1011101000011101	0000000000010000	-	-	-	-	-	-	-	-	-	-	Terminate	
Unknown	41.98417	01/16/0117 10:54.51	00002519	20.789	Inter613t1-0	-0.306	1	2	0.000	11.111	2.8	0.069	0.000	D	F	1552.1	359.845	0.183	-0.021	1503.287	1086.729	0.028	-	0.150	-0.343	-	-	-	12	6.042	125.612	-	PAVEMENT_GENERAL	Urban	F	1011101000011101	0000000000010000	-	-	-	-	-	-	-	-	-	-	Terminate	
Unknown	42.98419	01/16/0117 10:54.52	00002579	20.507	Inter613t1-0	-0.299	1	2	0.000	11.111	-0.0	0.090	0.000	D	F	1575.1	0.132	0.184	-0.000	1503.294	1107.370	0.028	-	0.012	-0.259	-	-	-	12	6.209	127.325	-	PAVEMENT_GENERAL	Urban	F	1011101000011101	0000000000010000	-	-	-	-	-	-	-	-	-	-	Terminate	
Unknown	43.98421	01/16/0117 10:54.53	00002639	20.262	Inter613t1-0	-0.261	1	2	0.000	11.111	-0.5	0.097	0.000	D	F	1586.6	0.053	0.185	0.005	1503.332	1127.752	0.028	-	-0.038	-0.224	-	-	-	12	6.381	129.297	-	PAVEMENT_GENERAL	Urban	F	1011101000011101	0000000000010000	-	-	-	-	-	-	-	-	-	-	Terminate	
Unknown	44.98423	01/16/0117 10:54.54	00002699	19.855	Inter613t1-0	-0.247	1	2	0.000	11.111	-0.1	0.000	0.000	D	F	1353.9	0.017	0.180	0.001	1503.346	1147.856	0.029	-	-0.010	-0.602	-	-	-	12	6.625	131.546	-	PAVEMENT_GENERAL	Urban	F	1011101000011101	0000000000010000	-	-	-	-	-	-	-	-	-	-	Terminate	
Unknown	45.98425	01/16/0117 10:54.55	00002759	19.259	Inter613t1-0	-0.243	1	2	0.000	11.111	1.8	0.000	0.000	D	F	1313.1	0.031	0.182	-0.011	1503.350	1167.412	0.029	-	0.073	-0.591	-	-	-	12	6.976	134.343	-	PAVEMENT_GENERAL	Urban	F	1011101000011101	0000000000010000	-	-	-	-	-	-	-	-	-	-	Terminate	
Unknown	46.98427	01/16/0117 10:54.56	00002819	18.671	Inter613t1-0	-0.185	1	2	0.000	11.111	-0.3	0.000	0.000	D	F	1273.1	0.268	0.184	0.000	1503.408	1186.377	0.029	-	0.001	-0.583	-	-	-	12	7.377	137.732	-	PAVEMENT_GENERAL	Urban	F	1011101000011101	0000000000010000	-	-	-	-	-	-	-	-	-	-	Terminate	
Unknown	47.98429	01/16/0117 10:54.57	00002879	18.093	Inter746t1-0	-0.099	1	2	0.000	11.111	-0.3	0.000	0.000	D	F	1233.8	0.291	0.184	0.001	1503.494	1204.758	0.029	-	0.002	-0.575	-	-	-	12	7.832	141.704	-	PAVEMENT_GENERAL	Urban	F	1011101000011101	0000000000010000	-	-	-	-	-	-	-	-	-	-	Terminate	
Unknown	48.98431	01/16/0117 10:54.58	00002939	17.523	Inter746t1-0	-0.019	1	2	0.000	11.111	0.2	0.000	0.000	D	F	1194.9	0.242	0.185	-0.001	1503.574	1222.565	0.029	-	0.008	-0.566	-	-	-	12	8.346	146.251	-	PAVEMENT_GENERAL	Urban	F	1011101000011101	0000000000010000	-	-	-	-	-	-	-	-	-	-	Terminate	
Unknown	49.98433	01/16/0117 10:54.59	00002999	16.961	Inter746t1-0	0.063	1	2	0.000	11.111	-0.1	0.000	0.000	D	F	1156.7	0.298	0.186	-0.000	1503.656	1239.806	0.029	-	0.002	-0.558	-	-	-	12	8.924	151.364	-	PAVEMENT_GENERAL	Urban	F	1011101000011101	0000000000010000	-	-	-	-	-	-	-	-	-	-	Terminate	
Unknown	50.98435	01/16/0117 10:55.00	00003059	16.406	Inter746t1-0	0.144	1	2	0.000	11.111	-1.2	0.000	0.000	D	F	1118.8	0.240	0.187	0.006	1503.737	1256.489	0.029	-	-0.052	-0.550	-	-	-	12	9.510	156.027	-	PAVEMENT_GENERAL	Urban	F	1011101000011101	0000000000010000	-	-	-	-	-	-	-	-	-	-	Terminate	
Unknown	51.98437	01/16/0117 10:55.01	00003119	15.859	Inter746t1-0	0.144	1	2	0.000	11.111	-1.0	0.000	0.000	D	F	1081.5	359.659	0.188	0.017	1503.737	1272.621	0.029	-	-0.134	-0.543	-	-	-	12	9.925	157.412	420.639	PAVEMENT_GENERAL	Urban	F	1011101000011101	0000000000010000	-	-	-	-	-	-	-	-	-	-	Terminate	
Unknown	52.98439	01/16/0117 10:55.02	00003179	15.320	Inter746t1-0	0.067	1	2	0.000	11.111	0.5	0.000	0.000	D	F	1044.8	359.852	0.189	-0.009	1503.660	1288.210	0.029	-	0.061	-0.536	-	-	-	12	10.145	155.413	47.315	PAVEMENT_GENERAL	Urban	F	1011101000011101	0000000000010000	-	-	-	-	-	-	-	-	-	-	Terminate	
Unknown	53.98441	01/16/0117 10:55.03	00003239	14.787	Inter746t1-0	0.032	1	2	0.000	11.111	0.0	0.000	0.000	D	F	1008.5	359.869	0.190	-0.001	1503.625	1303.263	0.029	-	-0.002	-0.529	-	-	-	12	10.274	151.918	41.694	PAVEMENT_GENERAL	Urban	F	1011101000011101	0000000000010000	-	-	-	-	-	-	-	-	-	-	Terminate	
Unknown	54.98443	01/16/0117 10:55.04	00003299	14.261	Inter746t1-0	-0.025	1	2	0.000	11.111	-1.7	0.000	0.000	D	F	972.7	359.574	0.190	0.015	1503.568	1317.786	0.029	-	-0.110	-0.523	-	-	-	-	-	-	-	PAVEMENT_GENERAL	Urban	F	1011101000011101	0000000000010000	-	-	-	-	-	-	-	-	-	-	Terminate	
Unknown	55.98445	01/16/0117 10:55.05	00003359	13.867	Inter746t1-0	-0.154	1	2	0.000	11.111	2.0	0.063	0.000	D	F	1232.3	359.477	0.193	-0.008	1503.440	1331.808	0.027	-	0.066	-0.162	-	-	-	-	-	-	-	PAVEMENT_GENERAL	Urban	F	1011101000011101	0000000000010000	-	-	-	-	-	-	-	-	-	-	Terminate	
Unknown	56.98447	01/16/0117 10:55.06	00003419	13.690	Inter746t1-0	-0.242	1	2	0.000	11.111	-2.3	0.071	0.000	D	F	1256.1	359.650	0.195	0.013	1503.351	1345.582	0.027	-	-0.079	-0.152	-	-	-	-	-	-	-	PAVEMENT_GENERAL	Urban	F	1011101000011101	0000000000010000	-	-	-	-	-	-	-	-	-	-	Terminate	
Unknown	57.98449	01/16/0117 10:55.07	00003479	13.534	Inter746t1-0	-0.356	1	2	0.000	11.111	-1.0	0.069	0.000	D	F	1246.4	359.436	0.195	0.005	1503.238	1359.193	0.027	-	-0.042	-0.148	-	-	-	-	-	-	-	PAVEMENT_GENERAL	Urban	F	1011101000011101	0000000000010000	-	-	-	-	-	-	-	-	-	-	Terminate	
Unknown	58.98451	01/16/0117 10:55.08	00003539	13.451	Inter746t1-0	-0.505	1	2	0.000	11.111	-5.1	0.090	0.000	D	F	1330.3	359.251	0.197	0.026	1503.088	1372.675	0.027	L	-0.168	-0.034	-	-	-	-	-	-	-	PAVEMENT_GENERAL	Urban	F	1011101000111101	0000000000010000	-	-	-	-	-	-	-	-	-	-	Terminate	
Unknown	59.98453	01/16/0117 10:55.09	00003599	13.479	Inter746t1-0	-0.802	1	2	0.000	11.111	-2.4	0.111	0.000	D	F	1568.4	358.217	0.197	0.021	1502.791	1386.129	0.026	L	-0.165	0.065	-	-	-	-	-	-	-	PAVEMENT_GENERAL	Urban	F	1011101000111101	0000000000010000	-	-	-	-	-	-	-	-	-	-	Terminate	
Unknown	60.98455	01/16/0117 10:55.10	00003659	13.568	Inter746t1-0	-1.263	1	2	0.000	11.111	-1.7	0.099	0.000	D	F	1558.5	357.892	0.197	0.010	1502.330	1399.644	0.026	L	-0.072	0.062	-	-	-	-	-	-	-	PAVEMENT_GENERAL	Urban	F	1011101000111101	0000000000010000	-	-	-	-	-	-	-	-	-	-	Terminate	
Unknown	61.98457	01/16/0117 10:55.11	00003719	13.146	-	-	CL	0	-	-	-4.1	0.000	0.000	D	F	1291.3	357.212	0.191	0.027	1501.772	1413.037	0.029	L	-0.212	-0.546	-	-	-	-	-	-	-	PAVEMENT_GENERAL	Urban	F	1011101000111101	0000000000010000	-	-	-	-	-	-	-	-	-	-	Terminate	
Unknown	62.98459	01/16/0117 10:55.12	00003779	12.318	-	-	SH-	1	-	-	7.2	0.000	0.104	D	F	1193.0	357.345	0.152	-0.039	1501.112	1425.858	0.031	L	0.279	-1.824	-	-	-	-	-	-	-	PAVEMENT_GENERAL	Urban	F	1011101000111101	0000000000010000	-	-	-	-	-	-	-	-	-	-	Terminate	
Unknown	63.98461	01/16/0117 10:55.13	00003839	10.648	Inter749t31-0	-1.624	1	1	354.842	11.111	2.2	0.000	0.090	D	F	1033.6	358.291	0.176	-0.013	1500.685	1437.308	0.031	L	0.103	-1.586	-	-	-	12	3.451	36.750	3.451	PAVEMENT_GENERAL	Urban	F	1011101000111101	0000000000010000	-	-	-	-	-	-	-	-	-	-	Terminate	
Unknown	64.98463	01/16/0117 10:55.14	00003899	8.918	Inter749t31-0	-0.898	1	1	356.370	11.111	6.6	0.000	0.113	D	F	863.3	358.745	0.176	-0.024	1500.427	1447.125	0.032	L	0.160	-1.844	-	-	-	12	3.028	27.001	3.182	PAVEMENT_GENERAL	Urban	F	1011101000111101	0000000000010000	-	-	-	-	-	-	-	-	-	-	Terminate	
Unknown	65.98465	01/16/0117 10:55.15	00003959	7.736	Inter749t31-0	-0.423	1	1	356.903	11.111	0.2	0.000	0.000	D	F	760.3	359.228	0.197	0.001	1500.302	1455.272	0.028	L	0.005	-0.469	-	-	-	12	2.626	20.313	3.830	PAVEMENT_GENERAL	Urban	F	1011101000111101	0000000000010000	-	-	-	-	-	-	-	-	-	-	Terminate	
Unknown	66.98467	01/16/0117 10:55.16	00004019	7.496	Inter749t31-0	-0.114	1	1	356.903	11.111	2.4	0.046	0.000	D	F	1035.5	359.264	0.199	-0.008	1500.202	1462.833	0.026	L	0.048	-0.086	-	-	-	12	2.158	16.180	5.283	PAVEMENT_GENERAL	Urban	F	1011101000111101	0000000000010000	-	-	-	-	-	-	-	-	-	-	Terminate	
Unknown	67.98470	01/16/0117 10:55.17	00004079	7.600	Inter749t11-0	0.077	LT1	2	0.000	11.111	3.7	0.097	0.000	D	F	1314.8	359.689	0.207	-0.010	1500.139	1470.349	0.025	L	0.069	0.360	-	-	-	12	1.853	14.085	12.071	PAVEMENT_GENERAL	Urban	F	1011101000111101	0000000000010000	-	-	-	-	-	-	-	-	-	-	Terminate	
Unknown	68.98471	01/16/0117 10:55.18	00004139	8.180	Inter749t11-0	0.037	LT1	2	0.000	11.111	-17.8	0.194	0.000	D	F	1587.7	359.357	0.211	0.056	1500.099	1478.196	0.023	L	-0.380	0.858	-	-	-	12	1.670	13.656	-	PAVEMENT_GENERAL	Urban	F	1011101000111101	0000000000010000	-	-	-	-	-	-	-	-	-	-	Terminate	
Unknown	69.98473	01/16/0117 10:55.19	00004199	9.337	Inter749t65-0	0.279	1	1	343.250	11.111	-74.7	0.220	0.000	D	F	1905.4	353.740	0.209	0.264	1499.575	1486.907	0.021	L	-1.926	1.203	-	-	-	12	1.476	13.778	477.121	PAVEMENT_GENERAL	Urban	F	1011101000111101	0000000000010000	-	-	-	-	-	-	-	-	-	-	Terminate	
Unknown	70.98476	01/16/0117 10:55.20	00004259	10.434	-Inter749t59-0	-0.009	-1	1	89.733	11.111	-159.8	0.228	0.000	D	F	2007.5	335.836	0.211	0.625	1496.909	1496.411	0.025	L	-4.616	0.831	-	-	-	12	1.613	16.826	61.107	PAVEMENT_GENERAL	Urban	F	1011101000111101	0000000000010000	-	-	-	-	-	-	-	-	-	-	Terminate	
Unknown	71.98477	01/16/0117 10:55.21	00004319	11.024	Inter749t75-0	0.939	1	1	269.734	11.111	-235.5	0.219	0.000	D	F	2042.5	304.098	0.239	0.923	1489.991	1504.508	0.038	L	-6.646	0.343	-	-	-	12	1.608	17.727	-	PAVEMENT_GENERAL	Urban	F	1011101000111101	0000000000010000	-	-	-	-	-	-	-	-	-	-	Terminate	
Unknown	72.98479	01/16/0117 10:55.22	00004379	11.295	Inter749t3-4	0.404	2	2	270.000	11.111	-141.3	0.164	0.000	D	F	1907.7	268.969	0.122	0.733	1479.429	1507.535	0.038	L	-5.971	0.408	-	-	-	Ambient230	21.310	240.691	1050.943	PAVEMENT_GENERAL	Urban	F	1011101000111101	0000000000010000	-	-	-	-	-	-	-	-	-	-	Terminate	
Unknown	73.98481	01/16/0117 10:55.23	00004439	11.917	Inter749t3-4	-1.126	2	2	270.000	11.111	45.3	0.199	0.000	D	F	1753.0	262.401	0.205	-0.241	1467.959	1506.004	0.023	-	1.684	0.669	-	-	-	12	1.824	21.737	-	PAVEMENT_GENERAL	Urban	F	1011101000011101	0000000000010000	-	-	-	-	-	-	-	-	-	-	Terminate	
Unknown	74.98483	01/16/0117 10:55.24	00004499	12.597	Inter749t19-0	1.715	1	1	270.097	11.111	5.9	0.212	0.000	D	F	1805.9	269.045	0.203	-0.048	1455.732	1505.258	0.023	-	0.440	0.722	-	-	-	12	2.293	28.888	-	PAVEMENT_GENERAL	Urban	F	1011101000011101	0000000000010000	-	-	-	-	-	-	-	-	-	-	Terminate	
Unknown	75.98486	01/16/0117 10:55.25	00004559	13.348	Inter749t19-0	1.492	1	1	270.089	11.111	-6.0	0.229	0.000	D	F	1871.9	268.862	0.204	0.030	1442.760	1505.057	0.023	-	-0.229	0.753	-	-	-	12	2.626	35.057	-	PAVEMENT_GENERAL	Urban	F	1011101000011101	0000000000010000	-	-	-	-	-	-	-	-	-	-	Terminate	
Unknown	76.98487	01/16/0117 10:55.26	00004619	14.131	Inter749t19-0	1.072	1	1	270.061	11.111	4.2	0.261	0.000	D	F	1935.8	268.050	0.203	-0.013	1429.025	1504.659	0.023	-	0.082	0.769	-	-	-	12	2.977	42.076	-	PAVEMENT_GENERAL	Urban	F	1011101000011101	0000000000010000	-	-	-	-	-	-	-	-	-	-	Terminate	
Unknown	77.98489	01/16/0117 10:55.27	00004679	14.882	Inter749t1-2	0.687	1	2	270.000	11.111	1.4	0.279	0.000	D	F	1990.3	268.912	0.203	-0.010	1414.521	1504.287	0.023	-	0.095	0.763	-	-	-	12	3.301	49.125	-	PAVEMENT_GENERAL	Urban	F	1011101000011101	0000000000010000	-	-	-	-	-	-	-	-	-	-	Terminate	
Unknown	78.98492	01/16/0117 10:55.28	00004739	15.614	Inter747t1-2	0.399	1	2	270.000	11.111	2.4	0.277	0.000	D	F	2024.2	268.942	0.201	-0.010	1399.271	1504.005	0.023	-	0.059	0.709	-	-	-	12	3.582	55.923	-	PAVEMENT_GENERAL	Urban	F	1011101000011101	0000000000010000	-	-	-	-	-	-	-	-	-	-	Terminate	
Unknown	79.98493	01/16/0117 10:55.29	00004799	16.300	Inter747t1-2	0.194	1	2	270.000	11.111	0.2	0.275	0.000	D	F	2054.7	269.655	0.199	-0.015	1383.310	1503.801	0.023	-	0.112	0.661	-	-	-	12	3.823	62.314	-	PAVEMENT_GENERAL	Urban	F	1011101000011101	0000000000010000	-	-	-	-	-	-	-	-	-	-	Terminate	
Unknown	80.98495	01/16/0117 10:55.30	00004859	16.936	Inter747t1-2	0.057	1	2	270.000	11.111	-0.4	0.273	0.000	D	F	2085.0	269.338	0.198	0.006	1366.689	1503.663	0.024	-	-0.061	0.615	-	-	-	12	4.018	68.046	-	PAVEMENT_GENERAL	Urban	F	1011101000011101	0000000000010000	-	-	-	-	-	-	-	-	-	-	Terminate	
Unknown	81.98497	01/16/0117 10:55.31	00004919	17.535	Inter747t1-2	-0.085	1	2	270.000	11.111	1.7	0.273	0.000	D	F	2117.3	269.900	0.197	-0.018	1349.451	1503.522	0.024	-	0.168	0.584	-	-	-	12	4.172	73.162	-	PAVEMENT_GENERAL	Urban	F	1011101000011101	0000000000010000	-	-	-	-	-	-	-	-	-	-	Terminate	
Unknown	82.98499	01/16/0117 10:55.32	00004979	18.102	Inter747t1-2	-0.066	1	2	270.000	11.111	-0.7	0.273	0.000	D	F	2145.5	270.268	0.196	-0.000	1331.629	1503.541	0.024	-	0.031	0.550	-	-	-	12	4.292	77.693	-	PAVEMENT_GENERAL	Urban	F	1011101000011101	0000000000010000	-	-	-	-	-	-	-	-	-	-	Terminate	
Unknown	83.98502	01/16/0117 10:55.33	00005039	18.644	Inter747t1-2	0.001	1	2	270.000	11.111	-0.1	0.275	0.000	D	F	2188.6	270.228	0.195	-0.003	1313.255	1503.608	0.024	-	0.023	0.539	-	-	-	12	4.381	81.673	-	PAVEMENT_GENERAL	Urban	F	1011101000011101	0000000000010000	-	-	-	-	-	-	-	-	-	-	Terminate	
Unknown	84.98503	01/16/0117 10:55.34	00005099	19.175	Inter747t1-2	0.055	1	2	270.000	11.111	-1.6	0.277	0.000	D	F	2230.6	269.975	0.194	0.017	1294.344	1503.661	0.024	-	-0.128	0.523	-	-	-	12	4.439	85.116	-	PAVEMENT_GENERAL	Urban	F	1011101000011101	0000000000010000	-	-	-	-	-	-	-	-	-	-	Terminate	
Unknown	85.98505	01/16/0117 10:55.35	00005159	19.693	Inter747t1-2	0.009	1	2	270.000	11.111	-0.2	0.279	0.000	D	F	2272.9	269.720	0.193	0.008	1274.909	1503.616	0.024	-	-0.053	0.514	-	-	-	12	4.470	88.034	-	PAVEMENT_GENERAL	Urban	F	1011101000011101	0000000000010000	-	-	-	-	-	-	-	-	-	-	Terminate	
Unknown	86.98507	01/16/0117 10:55.36	00005219	20.200	Inter747t1-2	-0.079	1	2	270.000	11.111	0.2	0.279	0.000	D	F	2312.3	269.810	0.192	-0.004	1254.962	1503.527	0.024	-	0.037	0.501	-	-	-	12	4.477	90.440	-	PAVEMENT_GENERAL	Urban	F	1011101000011101	0000000000010000	-	-	-	-	-	-	-	-	-	-	Terminate	
Unknown	87.98509	01/16/0117 10:55.37	00005279	20.694	Inter747t1-2	-0.129	1	2	270.000	11.111	1.6	0.284	0.000	D	F	2351.3	270.003	0.191	-0.014	1234.514	1503.478	0.024	-	0.106	0.491	-	-	-	12	4.462	92.346	-	PAVEMENT_GENERAL	Urban	F	1011101000011101	0000000000010000	-	-	-	-	-	-	-	-	-	-	Terminate	
Unknown	88.98512	01/16/0117 10:55.38	00005339	21.177	Inter747t1-2	-0.103	1	2	270.000	11.111	0.4	0.280	0.000	D	F	2387.2	270.108	0.190	-0.001	1213.577	1503.504	0.025	-	0.013	0.476	-	-	-	12	4.428	93.763	-	PAVEMENT_GENERAL	Urban	F	1011101000011101	0000000000010000	-	-	-	-	-	-	-	-	-	-	Terminate	
Unknown	89.98513	01/16/0117 10:55.39	00005399	21.645	Inter748t1-2	-0.053	1	2	270.000	11.111	0.1	0.279	0.000	D	F	2422.3	270.158	0.189	-0.001	1192.165	1503.554	0.025	-	0.012	0.461	-	-	-	12	4.375	94.704	-	PAVEMENT_GENERAL	Urban	F	1011101000011101	0000000000010000	-	-	-	-	-	-	-	-	-	-	Terminate	
Unknown	90.98515	01/16/0117 10:55.40	00005459	22.077	Inter748t1-2	0.012	1	2	270.000	11.111	0.4	0.236	0.000	D	F	2431.0	270.198	0.185	-0.003	1170.294	1503.619	0.025	-	0.023	0.337	-	-	-	12	4.312	95.186	-	PAVEMENT_GENERAL	Urban	F	1011101000011101	0000000000010000	-	-	-	-	-	-	-	-	-	-	Terminate	
Unknown	91.98518	01/16/0117 10:55.41	00005519	22.175	Inter748t1-2	0.105	1	2	270.000	11.111	0.6	0.150	0.000	D	F	1803.1	270.318	0.179	-0.006	1148.134	1503.712	0.027	-	0.048	-0.102	-	-	-	12	4.301	95.380	-	PAVEMENT_GENERAL	Urban	F	1011101000011101	0000000000010000	-	-	-	-	-	-	-	-	-	-	Terminate	
Unknown	92.98519	01/16/0117 10:55.42	00005579	22.189	Inter748t1-2	0.242	1	2	270.000	11.111	-0.7	0.194	0.000	D	F	1887.0	270.407	0.184	-0.001	1125.964	1503.849	0.027	-	-0.001	0.064	-	-	-	12	4.307	95.563	-	PAVEMENT_GENERAL	Urban	F	1011101000011101	0000000000010000	-	-	-	-	-	-	-	-	-	-	Terminate	
Unknown	93.98521	01/16/0117 10:55.43	00005639	22.290	Inter748t1-2	0.378	1	2	270.000	11.111	-0.6	0.208	0.000	D	F	1929.7	270.310	0.185	0.002	1103.731	1503.985	0.026	-	-0.024	0.129	-	-	-	12	4.293	95.684	-	PAVEMENT_GENERAL	Urban	F	1011101000011101	0000000000010000	-	-	-	-	-	-	-	-	-	-	Terminate	
Unknown	94.98523	01/16/0117 10:55.44	00005699	22.408	Inter748t1-2	0.454	1	2	270.000	11.111	-1.2	0.069	0.000	D	F	1692.9	270.028	0.183	0.010	1081.379	1504.061	0.026	-	-0.086	0.033	-	-	-	-	-	-	-	PAVEMENT_GENERAL	Urban	F	1011101000011101	0000000000010000	-	-	-	-	-	-	-	-	-	-	Terminate	
Unknown	95.98525	01/16/0117 10:55.45	00005759	20.787	Inter748t1-2	0.435	1	2	270.000	11.111	-0.5	0.000	0.367	D	F	1346.4	269.777	0.078	0.011	1059.422	1504.042	0.036	-	-0.084	-4.640	-	-	-	-	-	-	-	PAVEMENT_GENERAL	Urban	F	1011101000011101	0000000000010000	-	-	-	-	-	-	-	-	-	-	Terminate	
Unknown	96.98528	01/16/0117 10:55.46	00005819	14.109	Inter748t1-2	0.366	1	2	270.000	11.111	0.1	0.000	0.806	D	F	887.4	269.758	-0.310	-0.001	1041.585	1503.973	0.044	-	0.003	-9.084	-	-	-	-	-	-	-	PAVEMENT_GENERAL	Urban	F	1011101000011101	0000000000010000	-	-	-	-	-	-	-	-	-	-	Terminate	
Unknown	97.98529	01/16/0117 10:55.47	00005879	6.340	Inter748t1-2	0.327	1	2	270.000	11.111	0.1	0.000	0.000	D	F	623.4	269.789	0.199	-0.001	1031.890	1503.934	0.038	-	0.004	-0.454	-	-	-	-	-	-	-	PAVEMENT_GENERAL	Urban	F	1011101000011101	0000000000010000	-	-	-	-	-	-	-	-	-	-	Terminate	
Unknown	98.98531	01/16/0117 10:55.48	00005939	6.513	Inter748t1-2	0.304	1	2	270.000	11.111	0.7	0.138	0.000	D	F	1484.8	269.795	0.210	-0.002	1025.630	1503.911	0.022	-	0.010	0.903	-	-	-	-	-	-	-	PAVEMENT_GENERAL	Urban	F	1011101000011101	0000000000010000	-	-	-	-	-	-	-	-	-	-	Terminate	
Unknown	99.98534	01/16/0117 10:55.49	00005999	7.706	Inter748t1-2	0.295	1	2	270.000	11.111	3.1	0.220	0.000	D	F	1805.5	270.067	0.217	-0.007	1018.575	1503.902	0.020	-	0.059	1.503	-	-	-	-	-	-	-	PAVEMENT_GENERAL	Urban	F	1111101000011101	0000000000010000	-	-	-	-	-	-	-	-	-	-	Terminate	
Unknown	100.98535	01/16/0117 10:55.50	00006059	9.164	Inter748t1-2	0.325	1	2	270.000	11.111	2.1	0.249	0.000	D	F	1935.1	270.180	0.215	-0.009	1010.122	1503.931	0.020	-	0.045	1.416	-	-	-	-	-	-	-	PAVEMENT_GENERAL	Urban	F	1011101000011101	0000000000010000	-	-	-	-	-	-	-	-	-	-	Terminate	
Unknown	101.98537	01/16/0117 10:55.51	00006119	10.507	Inter748t1-2	0.386	1	2	270.000	11.111	2.7	0.250	0.000	D	F	2034.5	270.492	0.216	-0.012	1000.269	1503.992	0.021	-	0.075	1.240	12	318.8	-8.900	-	-	-	-	PAVEMENT_GENERAL	Urban	F	1011101000011101	0000000000010000	-	-	-	-	-	-	-	-	-	-	Terminate	
Unknown	102.98539	01/16/0117 10:55.52	00006179	11.701	Inter752t1-2	-0.164	1	2	269.954	24.444	0.4	0.261	0.000	D	F	2140.8	270.801	-0.165	-0.237	989.164	1504.128	0.057	-	0.003	1.148	-	-	-	-	-	-	-	FREEWAY_SMOOTH	Urban	F	1011101000011101	0000000000010000	-	-	-	-	-	-	-	-	-	-	Terminate	
Unknown	103.98541	01/16/0117 10:55.53	00006239	12.918	Inter752t1-2	0.012	1	2	269.599	24.444	-5.2	0.298	0.000	D	F	2323.7	270.289	0.319	-0.502	976.865	1504.259	0.059	-	-0.248	1.271	-	-	-	-	-	-	-	FREEWAY_SMOOTH	Urban	F	1011101000011101	0000000000010000	-	-	-	-	-	-	-	-	-	-	Terminate	
Unknown	104.98544	01/16/0117 10:55.54	00006299	14.187	Inter752t1-2	0.173	1	2	268.918	24.444	-1.3	0.312	0.000	D	F	2488.4	269.909	0.331	-0.866	963.313	1504.245	0.086	-	-0.072	1.273	-	-	-	-	-	-	-	FREEWAY_SMOOTH	Urban	F	1011101000011101	0000000000010000	-	-	-	-	-	-	-	-	-	-	Terminate	
Unknown	105.98545	01/16/0117 10:55.55	00006359	15.494	Inter752t1-2	0.404	1	2	267.795	24.444	-13.7	0.330	0.000	D	F	2681.9	268.215	0.330	-1.139	948.479	1504.049	0.119	-	-0.784	1.323	-	-	-	-	-	-	-	FREEWAY_SMOOTH	Urban	F	1011101000011101	0000000000010000	-	-	-	-	-	-	-	-	-	-	Terminate	
Unknown	106.98547	01/16/0117 10:55.56	00006419	16.811	Inter752t1-2	0.372	1	2	266.130	24.444	-10.8	0.335	0.000	D	F	2876.5	265.584	0.302	-1.547	932.353	1503.157	0.150	-	-0.752	1.306	-	-	-	-	-	-	-	FREEWAY_SMOOTH	Urban	F	1011101000011101	0000000000010000	-	-	-	-	-	-	-	-	-	-	Terminate	
Unknown	107.98550	01/16/0117 10:55.57	00006479	18.087	Inter752t1-2	0.188	1	2	263.824	24.444	-9.5	0.337	0.000	D	F	3055.0	263.136	0.291	-1.980	914.985	1501.436	0.179	-	-0.773	1.250	-	-	-	-	-	-	-	FREEWAY_SMOOTH	Urban	F	1011101000011101	0000000000010000	-	-	-	-	-	-	-	-	-	-	Terminate	
Unknown	108.98551	01/16/0117 10:55.58	00006539	19.290	Inter752t1-2	0.054	1	2	260.738	24.444	-11.9	0.312	0.000	D	F	2820.0	260.367	0.291	-2.411	896.485	1498.779	0.209	-	-1.015	1.264	-	-	-	-	-	-	-	FREEWAY_SMOOTH	Urban	F	1011101000011101	0000000000010000	-	-	-	-	-	-	-	-	-	-	Terminate	
Unknown	109.98553	01/16/0117 10:55.59	00006599	20.052	Inter752t1-2	0.076	1	2	256.834	24.444	-16.9	0.316	0.000	D	F	2338.4	256.902	0.297	-2.839	877.156	1494.949	0.249	-	-1.417	0.651	-	-	-	-	-	-	-	FREEWAY_SMOOTH	Urban	F	1011101000011101	0000000000010000	-	-	-	-	-	-	-	-	-	-	Terminate	
Unknown	110.98555	01/16/0117 10:56.00	00006659	20.694	Inter752t1-2	0.196	1	2	252.124	24.444	-20.9	0.325	0.000	D	F	2387.4	252.011	0.292	-3.272	857.504	1489.582	0.294	-	-1.901	0.633	-	-	-	-	-	-	-	FREEWAY_SMOOTH	Urban	F	1011101000011101	0000000000010000	-	-	-	-	-	-	-	-	-	-	Terminate	
Unknown	111.98557	01/16/0117 10:56.01	00006719	21.282	Inter752t1-2	0.188	1	2	246.855	24.444	-21.0	0.328	0.000	D	F	2436.4	245.775	0.124	-3.219	837.875	1482.168	0.295	-	-2.256	0.607	-	-	-	-	-	-	-	FREEWAY_SMOOTH	Urban	F	1011101000011101	0000000000010000	-	-	-	-	-	-	-	-	-	-	Terminate	
Unknown	112.98560	01/16/0117 10:56.02	00006779	21.870	Inter752t1-2	-0.039	1	2	241.448	24.444	-21.7	0.332	0.000	D	F	2485.4	240.283	0.119	-3.226	818.585	1472.514	0.281	-	-2.166	0.601	-	-	-	-	-	-	-	FREEWAY_SMOOTH	Urban	F	1011101000011101	0000000000010000	-	-	-	-	-	-	-	-	-	-	Terminate	
Unknown	113.98561	01/16/0117 10:56.03	00006839	22.447	Inter752t1-2	-0.266	1	2	235.917	24.444	-18.6	0.328	0.000	D	F	2526.3	235.132	0.140	-3.265	799.804	1460.760	0.267	-	-1.895	0.575	-	-	-	-	-	-	-	FREEWAY_SMOOTH	Urban	F	1111101000011101	0000000000010000	-	-	-	-	-	-	-	-	-	-	Terminate	
Unknown	114.98563	01/16/0117 10:56.04	00006899	23.004	Inter752t1-2	-0.293	1	2	230.271	24.444	-20.9	0.330	0.000	D	F	2572.1	229.759	0.158	-3.219	781.690	1447.043	0.266	-	-2.208	0.571	-	-	-	-	-	-	-	FREEWAY_SMOOTH	Urban	F	1011101000011101	0000000000010000	-	-	-	-	-	-	-	-	-	-	Terminate	
Unknown	115.98566	01/16/0117 10:56.05	00006959	23.531	Inter752t1-2	-0.165	1	2	224.407	24.444	-18.8	0.325	0.000	D	F	2611.4	224.495	0.193	-3.242	764.539	1431.323	0.274	-	-2.062	0.536	-	-	-	-	-	-	-	FREEWAY_SMOOTH	Urban	F	1011101000011101	0000000000010000	-	-	-	-	-	-	-	-	-	-	Terminate	
Unknown	116.98567	01/16/0117 10:56.06	00007019	24.034	Inter752t1-2	0.202	1	2	218.448	24.444	-28.3	0.323	0.000	D	F	2656.2	218.510	0.181	-3.128	748.572	1413.702	0.296	-	-2.866	0.520	-	-	-	-	-	-	-	FREEWAY_SMOOTH	Urban	F	1011101000011101	0000000000010000	-	-	-	-	-	-	-	-	-	-	Terminate	
Unknown	117.98569	01/16/0117 10:56.07	00007079	24.033	Inter752t1-2	0.233	1	2	212.450	24.444	-25.4	0.190	0.000	D	F	1967.0	210.542	0.048	-3.086	734.627	1394.075	0.301	-	-3.260	-0.048	-	-	-	-	-	-	-	FREEWAY_SMOOTH	Urban	F	1011101000011101	0000000000010000	-	-	-	-	-	-	-	-	-	-	Terminate	
Unknown	118.98571	01/16/0117 10:56.08	00007139	24.073	Inter752t1-2	-0.296	1	2	206.444	24.444	-17.5	0.220	0.000	D	F	2014.3	204.534	0.062	-3.220	723.326	1372.864	0.268	-	-2.236	0.103	-	-	-	-	-	-	-	FREEWAY_SMOOTH	Urban	F	1011101000011101	0000000000010000	-	-	-	-	-	-	-	-	-	-	Terminate	
Unknown	119.98573	01/16/0117 10:56.09	00007199	24.168	Inter752t1-2	-0.641	1	2	200.399	24.444	-16.9	0.235	0.000	D	F	2033.1	199.419	0.121	-3.225	714.112	1350.581	0.247	-	-2.147	0.122	-	-	-	-	-	-	-	FREEWAY_SMOOTH	Urban	F	1011101000011101	0000000000010000	-	-	-	-	-	-	-	-	-	-	Terminate	
Unknown	120.98576	01/16/0117 10:56.10	00007259	24.242	Inter752t1-2	-0.484	1	2	194.529	24.444	-18.5	0.240	0.000	D	F	2041.6	195.200	0.128	-2.912	706.776	1327.510	0.236	-	-1.870	0.061	-	-	-	-	-	-	-	FREEWAY_SMOOTH	Urban	F	1011101000011101	0000000000010000	-	-	-	-	-	-	-	-	-	-	Terminate	
Unknown	121.98577	01/16/0117 10:56.11	00007319	24.274	Inter752t1-2	-0.075	1	2	189.527	24.444	-21.4	0.247	0.000	D	F	2048.3	188.789	0.034	-2.192	701.409	1303.859	0.215	-	-2.781	0.080	-	-	-	-	-	-	-	FREEWAY_SMOOTH	Urban	F	1011101000011101	0000000000010000	-	-	-	-	-	-	-	-	-	-	Terminate	
Unknown	122.98579	01/16/0117 10:56.12	00007379	24.341	Inter752t1-2	-0.284	1	2	185.584	24.444	-11.3	0.245	0.000	D	F	2049.4	184.220	0.029	-1.758	698.495	1279.736	0.163	-	-1.524	0.087	-	-	-	-	-	-	-	FREEWAY_SMOOTH	Urban	F	1011101000011101	0000000000010000	-	-	-	-	-	-	-	-	-	-	Terminate	
Unknown	123.98581	01/16/0117 10:56.13	00007439	24.417	Inter752t1-2	-0.552	1	2	182.668	24.444	-3.4	0.247	0.000	D	F	2055.6	182.498	0.087	-1.293	697.072	1255.399	0.115	-	-0.415	0.083	-	-	-	-	-	-	-	FREEWAY_SMOOTH	Urban	F	1011101000011101	0000000000010000	-	-	-	-	-	-	-	-	-	-	Terminate	
Unknown	124.98583	01/16/0117 10:56.14	00007499	24.499	Inter752t1-2	-0.376	1	2	180.804	24.444	-8.1	0.249	0.000	D	F	2059.6	181.262	0.089	-0.646	696.210	1230.956	0.079	-	-0.666	0.081	-	-	-	-	-	-	-	FREEWAY_SMOOTH	Urban	F	1011101000011101	0000000000010000	-	-	-	-	-	-	-	-	-	-	Terminate	
Unknown	125.98586	01/16/0117 10:56.15	00007559	24.577	Inter752t1-2	-0.216	1	2	180.028	24.444	2.0	0.249	0.000	D	F	2063.7	180.297	0.078	-0.134	695.917	1206.421	0.038	-	0.041	0.079	-	-	-	-	-	-	-	FREEWAY_SMOOTH	Urban	F	1011101000011101	0000000000010000	-	-	-	-	-	-	-	-	-	-	Terminate	
Unknown	126.98587	01/16/0117 10:56.16	00007619	24.685	Inter754t3-2	0.496	1	2	180.000	11.111	-1.5	0.242	0.000	D	F	2059.9	179.154	0.178	0.066	695.897	1181.791	0.027	-	-0.525	0.108	-	-	-	Ambient328	7.964	196.583	15.058	PAVEMENT_GENERAL	Urban	F	1011101000011101	0000000000010000	-	-	-	-	-	-	-	-	-	-	Terminate	
Unknown	127.98589	01/16/0117 10:56.17	00007679	24.800	Inter754t3-2	0.222	1	2	180.000	11.111	-2.0	0.249	0.000	D	F	2068.7	179.664	0.179	-0.013	696.172	1157.050	0.026	-	0.110	0.116	-	-	-	Ambient328	7.398	183.473	13.931	PAVEMENT_GENERAL	Urban	F	1011101000011101	0000000000010000	-	-	-	-	-	-	-	-	-	-	Terminate	
Unknown	128.98592	01/16/0117 10:56.18	00007739	24.917	Inter754t3-2	-0.084	1	2	180.000	11.111	-2.0	0.249	0.000	D	F	2076.3	178.609	0.178	0.057	696.477	1132.193	0.026	-	-0.415	0.114	-	-	-	Ambient328	6.833	170.247	12.813	PAVEMENT_GENERAL	Urban	F	1011101000011101	0000000000010000	-	-	-	-	-	-	-	-	-	-	Terminate	
Unknown	129.98593	01/16/0117 10:56.19	00007799	24.898	Inter754t3-2	-0.588	1	2	180.000	11.111	6.9	0.086	0.000	D	F	1813.0	179.524	0.162	-0.092	696.981	1107.243	0.028	-	0.683	-0.451	-	-	-	Ambient350	0.118	2.948	0.226	PAVEMENT_GENERAL	Urban	F	1011101000011101	0000000000010000	-	-	-	-	-	-	-	-	-	-	Terminate	
Unknown	130.98595	01/16/0117 10:56.20	00007859	24.634	Inter754t9-0	-0.519	1	1	179.990	11.111	3.8	0.182	0.000	D	F	1955.8	181.080	0.178	-0.061	696.913	1082.504	0.028	-	0.445	-0.096	-	-	-	Ambient328	5.838	143.819	11.060	PAVEMENT_GENERAL	Urban	F	1011101000011101	0000000000010000	-	-	-	-	-	-	-	-	-	-	Terminate	
Unknown	131.98598	01/16/0117 10:56.21	00007919	24.624	Inter754t9-0	-0.054	1	1	179.990	11.111	-6.9	0.208	0.000	D	F	2005.9	180.794	0.179	0.057	696.453	1057.889	0.027	-	-0.431	0.034	-	-	-	Ambient328	5.311	130.764	10.063	PAVEMENT_GENERAL	Urban	F	1011101000011101	0000000000010000	-	-	-	-	-	-	-	-	-	-	Terminate	
Unknown	132.98599	01/16/0117 10:56.22	00007979	24.710	Inter754t9-0	0.035	1	1	179.996	11.111	0.5	0.249	0.000	D	F	2068.4	179.399	0.179	0.026	696.368	1033.231	0.026	-	-0.259	0.120	-	-	-	Ambient328	4.768	117.805	9.006	PAVEMENT_GENERAL	Urban	F	1011101000011101	0000000000010000	-	-	-	-	-	-	-	-	-	-	Terminate	
Unknown	133.98601	01/16/0117 10:56.23	00008039	24.831	Inter754t1-1	-0.134	1	1	180.000	11.111	2.3	0.250	0.000	D	F	2072.9	179.836	0.180	-0.023	696.538	1008.460	0.026	-	0.183	0.121	-	-	-	Ambient328	4.215	104.669	7.928	PAVEMENT_GENERAL	Urban	F	1011101000011101	0000000000010000	-	-	-	-	-	-	-	-	-	-	Terminate	
Unknown	134.98604	01/16/0117 10:56.24	00008099	24.953	Inter686t1-0	-0.194	1	1	180.000	11.111	-1.0	0.249	0.000	D	F	2078.1	179.761	0.179	0.022	696.590	983.568	0.026	-	-0.142	0.119	-	-	-	Ambient328	3.663	91.407	6.860	PAVEMENT_GENERAL	Urban	F	1011101000011101	0000000000010000	-	-	-	-	-	-	-	-	-	-	Terminate	
Unknown	135.98605	01/16/0117 10:56.25	00008159	24.450	Inter686t1-0	-0.285	1	1	180.000	11.111	1.4	0.000	0.000	D	F	1666.6	179.924	0.172	-0.018	696.681	958.797	0.030	-	0.144	-0.680	-	-	-	Ambient328	3.201	78.267	6.105	PAVEMENT_GENERAL	Urban	F	1011101000011101	0000000000010000	-	-	-	-	-	-	-	-	-	-	Terminate	
Unknown	136.98607	01/16/0117 10:56.26	00008219	23.701	Inter686t1-0	-0.255	1	1	180.000	11.111	-0.9	0.000	0.075	D	F	1600.9	180.331	0.152	-0.008	696.651	934.690	0.030	-	0.074	-1.337	-	-	-	Ambient328	2.776	65.791	5.450	PAVEMENT_GENERAL	Urban	F	1011101000011101	0000000000010000	-	-	-	-	-	-	-	-	-	-	Terminate	
Unknown	137.98610	01/16/0117 10:56.27	00008279	21.189	Inter686t1-0	-0.205	1	1	180.000	11.111	-1.4	0.000	0.149	D	F	1415.5	179.611	0.147	0.040	696.601	912.235	0.034	-	-0.298	-2.455	-	-	-	Ambient328	2.594	54.966	5.750	PAVEMENT_GENERAL	Urban	F	1011101000011101	0000000000010000	-	-	-	-	-	-	-	-	-	-	Terminate	
Unknown	138.98611	01/16/0117 10:56.28	00008339	19.487	Inter686t1-0	-0.304	1	1	180.000	11.111	0.9	0.000	0.003	D	F	1328.9	180.013	0.186	-0.025	696.700	892.025	0.031	-	0.216	-0.730	-	-	-	Ambient328	2.380	46.388	5.904	PAVEMENT_GENERAL	Urban	F	1011101000011101	0000000000010000	-	-	-	-	-	-	-	-	-	-	Terminate	
Unknown	139.98613	01/16/0117 10:56.29	00008399	18.644	Inter686t1-0	-0.332	1	1	180.000	11.111	2.4	0.000	0.110	D	F	1252.2	179.795	0.137	-0.009	696.729	872.862	0.031	-	0.032	-1.915	-	-	-	Ambient328	2.084	38.855	5.539	PAVEMENT_GENERAL	Urban	F	1011101000011101	0000000000010000	-	-	-	-	-	-	-	-	-	-	Terminate	
Unknown	140.98616	01/16/0117 10:56.30	00008459	17.070	Inter686t1-0	-0.339	1	1	180.000	11.111	-0.7	0.000	0.042	D	F	1157.0	180.061	0.174	0.003	696.735	855.031	0.031	-	-0.019	-1.264	-	-	-	Ambient328	1.913	32.655	6.002	PAVEMENT_GENERAL	Urban	F	1011101000011101	0000000000010000	-	-	-	-	-	-	-	-	-	-	Terminate	
Unknown	141.98618	01/16/0117 10:56.31	00008519	15.643	Inter686t1-0	-0.336	1	1	180.000	11.111	1.9	0.000	0.096	D	F	1052.6	180.037	0.167	-0.011	696.732	838.597	0.032	-	0.072	-1.732	-	-	-	Ambient328	1.781	27.852	6.941	PAVEMENT_GENERAL	Urban	F	1011101000011101	0000000000010000	-	-	-	-	-	-	-	-	-	-	Terminate	
Unknown	142.98619	01/16/0117 10:56.32	00008579	14.419	Inter686t1-0	-0.310	1	1	180.000	11.111	-2.1	0.000	0.000	D	F	983.5	180.006	0.192	0.017	696.706	823.699	0.029	-	-0.114	-0.525	-	-	-	Ambient328	1.705	24.585	8.815	PAVEMENT_GENERAL	Urban	F	1011101000011101	0000000000010000	-	-	-	-	-	-	-	-	-	-	Terminate	
Unknown	143.98621	01/16/0117 10:56.33	00008639	13.897	Inter686t1-0	-0.335	1	1	180.000	11.111	2.8	0.000	0.000	D	F	947.8	179.997	0.191	-0.020	696.731	809.541	0.029	-	0.140	-0.519	-	-	-	Ambient328	1.587	22.058	9.728	PAVEMENT_GENERAL	Urban	F	1011101000011101	0000000000010000	-	-	-	-	-	-	-	-	-	-	Terminate	
Unknown	144.98624	01/16/0117 10:56.34	00008699	13.382	Inter682t1-1	-0.295	1	1	180.000	11.111	-1.9	0.000	0.000	D	F	912.7	180.126	0.191	0.012	696.699	795.902	0.029	-	-0.074	-0.512	-	-	-	Ambient328	1.498	20.050	11.443	PAVEMENT_GENERAL	Urban	F	1011101000011101	0000000000010000	-	-	-	-	-	-	-	-	-	-	Terminate	
Unknown	145.98625	01/16/0117 10:56.35	00008759	12.867	Inter682t1-1	-0.296	1	1	180.000	11.111	3.4	0.000	0.000	D	F	982.7	180.082	0.190	-0.021	696.700	782.776	0.029	-	0.145	-0.560	-	-	-	Ambient328	1.442	18.554	15.001	PAVEMENT_GENERAL	Urban	F	1011101000011101	0000000000010000	-	-	-	-	-	-	-	-	-	-	Terminate	
Unknown	146.98627	01/16/0117 10:56.36	00008819	12.318	Inter682t1-1	-0.250	1	1	180.000	11.111	-0.4	0.000	0.000	D	F	1206.6	180.126	0.192	0.008	696.654	770.188	0.029	-	-0.044	-0.533	-	-	-	Ambient328	1.429	17.597	25.577	PAVEMENT_GENERAL	Urban	F	1011101000011101	0000000000010000	-	-	-	-	-	-	-	-	-	-	Terminate	
Unknown	147.98630	01/16/0117 10:56.37	00008879	11.789	Inter682t1-1	-0.218	1	1	180.000	11.111	-0.7	0.000	0.000	D	F	1158.1	180.195	0.193	0.005	696.622	758.135	0.029	-	-0.015	-0.525	-	-	-	Ambient328	1.457	17.176	108.008	PAVEMENT_GENERAL	Urban	F	1011101000011101	0000000000010000	-	-	-	-	-	-	-	-	-	-	Terminate	
Unknown	148.98631	01/16/0117 10:56.38	00008939	11.268	Inter682t1-1	-0.200	1	1	180.000	11.111	-0.5	0.000	0.000	D	F	1107.0	179.899	0.194	0.004	696.604	746.608	0.029	-	-0.044	-0.517	-	-	-	Ambient328	1.533	17.279	-	PAVEMENT_GENERAL	Urban	F	1011101000011101	0000000000010000	-	-	-	-	-	-	-	-	-	-	Terminate	
Unknown	149.98633	01/16/0117 10:56.39	00008999	10.754	Inter682t1-1	-0.216	1	1	180.000	11.111	-0.9	0.000	0.000	D	F	1056.7	179.903	0.194	0.003	696.620	735.597	0.029	-	-0.029	-0.510	-	-	-	Ambient328	1.664	17.899	-	PAVEMENT_GENERAL	Urban	F	1011101000011101	0000000000010000	-	-	-	-	-	-	-	-	-	-	Terminate	
Unknown	150.98636	01/16/0117 10:56.40	00009059	10.248	Inter682t1-1	-0.245	1	1	180.000	11.111	0.8	0.000	0.000	D	F	1007.0	179.813	0.195	-0.003	696.649	725.097	0.029	-	0.019	-0.503	-	-	-	Ambient328	1.857	19.030	-	PAVEMENT_GENERAL	Urban	F	1011101000011101	0000000000010000	-	-	-	-	-	-	-	-	-	-	Terminate	
Unknown	151.98637	01/16/0117 10:56.41	00009119	10.107	Inter682t1-1	-0.266	1	1	180.000	11.111	-0.9	0.063	0.000	D	F	1250.5	179.919	0.199	0.004	696.670	714.958	0.026	-	-0.018	-0.001	-	-	-	Ambient328	2.030	20.521	-	PAVEMENT_GENERAL	Urban	F	1011101000011101	0000000000010000	-	-	-	-	-	-	-	-	-	-	Terminate	
Unknown	152.98639	01/16/0117 10:56.42	00009179	10.279	Inter682t1-1	-0.301	1	1	180.000	11.111	-1.0	0.111	0.000	D	F	1447.1	179.691	0.203	0.005	696.705	704.805	0.025	-	-0.037	0.299	-	-	-	Ambient328	2.140	21.999	-	PAVEMENT_GENERAL	Urban	F	1011101000011101	0000000000010000	-	-	-	-	-	-	-	-	-	-	Terminate	
Unknown	153.98642	01/16/0117 10:56.43	00009239	10.588	Inter682t1-1	-0.353	1	1	180.000	11.111	1.5	0.118	0.000	D	F	1469.6	179.812	0.202	-0.006	696.756	694.373	0.025	-	0.048	0.294	-	-	-	Ambient328	2.191	23.198	-	PAVEMENT_GENERAL	Urban	F	1011101000011101	0000000000010000	-	-	-	-	-	-	-	-	-	-	Terminate	
Unknown	154.98643	01/16/0117 10:56.44	00009299	10.902	Inter682t1-1	-0.380	1	1	180.000	11.111	0.3	0.125	0.000	D	F	1505.5	179.797	0.203	0.000	696.784	683.629	0.025	-	-0.004	0.319	-	-	-	Ambient328	2.209	24.085	-	PAVEMENT_GENERAL	Urban	F	1011101000011101	0000000000010000	-	-	-	-	-	-	-	-	-	-	Terminate	
Unknown	155.98645	01/16/0117 10:56.45	00009359	11.198	Inter682t1-1	-0.413	1	1	180.000	11.111	0.3	0.120	0.000	D	F	1506.5	179.867	0.202	-0.002	696.817	672.575	0.025	-	0.014	0.278	-	-	-	Ambient328	2.202	24.662	-	PAVEMENT_GENERAL	Urban	F	1011101000011101	0000000000010000	-	-	-	-	-	-	-	-	-	-	Terminate	
Unknown	156.98647	01/16/0117 10:56.46	00009419	11.140	Inter682t1-1	-0.434	1	1	180.000	11.111	-1.6	0.000	0.000	D	F	1093.8	179.884	0.186	0.009	696.838	661.324	0.028	-	-0.050	-0.517	-	-	-	Ambient328	2.248	25.042	-	PAVEMENT_GENERAL	Urban	F	1011101000011101	0000000000010000	-	-	-	-	-	-	-	-	-	-	Terminate	
Unknown	157.98650	01/16/0117 10:56.47	00009479	10.628	Inter682t1-1	-0.474	1	1	180.000	11.111	4.2	0.000	0.000	D	F	1044.3	179.853	0.194	-0.019	696.878	650.441	0.029	-	0.134	-0.509	-	-	-	Ambient328	2.427	25.790	-	PAVEMENT_GENERAL	Urban	F	1011101000011101	0000000000010000	-	-	-	-	-	-	-	-	-	-	Terminate	
Unknown	158.98651	01/16/0117 10:56.48	00009539	10.123	Inter682t1-1	-0.449	1	1	180.000	11.111	-3.9	0.000	0.000	D	F	994.7	180.088	0.195	0.022	696.853	640.066	0.029	-	-0.131	-0.502	-	-	-	Ambient328	2.672	27.046	-	PAVEMENT_GENERAL	Urban	F	1011101000011101	0000000000010000	-	-	-	-	-	-	-	-	-	-	Terminate	
Unknown	159.98653	01/16/0117 10:56.49	00009599	9.625	Inter682t1-1	-0.431	1	1	180.000	11.111	4.5	0.000	0.000	D	F	945.8	180.361	0.195	-0.017	696.835	630.193	0.029	-	0.137	-0.495	-	-	-	Ambient328	2.993	28.803	-	PAVEMENT_GENERAL	Urban	F	1011101000011101	0000000000010000	-	-	-	-	-	-	-	-	-	-	Terminate	
Unknown	160.98656	01/16/0117 10:56.50	00009659	9.424	Inter682t1-1	-0.320	1	1	180.000	11.111	-5.8	0.108	0.000	D	F	1397.0	180.689	0.194	0.020	696.724	620.762	0.024	-	-0.139	0.292	-	-	-	Ambient328	3.251	30.641	-	PAVEMENT_GENERAL	Urban	F	1011101000011101	0000000000010000	-	-	-	-	-	-	-	-	-	-	Terminate	
Unknown	161.98657	01/16/0117 10:56.51	00009719	9.744	Inter682t1-1	-0.285	1	1	180.000	11.111	-0.5	0.106	0.000	D	F	1397.3	180.033	0.199	0.002	696.689	611.161	0.025	-	-0.016	0.220	-	-	-	Ambient328	3.141	30.610	-	PAVEMENT_GENERAL	Urban	F	1011101000011101	0000000000010000	-	-	-	-	-	-	-	-	-	-	Terminate	
Unknown	162.98659	01/16/0117 10:56.52	00009779	10.342	Inter682t1-1	-0.299	1	1	180.000	11.111	1.0	0.178	0.000	D	F	1636.6	179.888	0.206	-0.002	696.703	601.161	0.023	-	0.024	0.702	-	-	-	Ambient328	2.782	28.769	-	PAVEMENT_GENERAL	Urban	F	1011101000011101	0000000000010000	-	-	-	-	-	-	-	-	-	-	Terminate	
Unknown	163.98662	01/16/0117 10:56.53	00009839	10.883	Inter688t25-1	-0.312	1	1	180.000	11.111	0.3	0.139	0.000	D	F	1544.7	180.015	0.203	-0.002	696.708	590.526	0.024	-	0.012	0.438	-	-	-	Ambient328	2.905	31.620	-	PAVEMENT_GENERAL	Urban	F	1011101000011101	0000000000010000	-	-	-	-	-	-	-	-	-	-	Terminate	
Unknown	164.98663	01/16/0117 10:56.54	00009899	11.059	Inter688t29-0	-0.349	1	1	180.080	11.111	-8.3	0.000	0.000	D	F	1061.7	179.395	0.175	0.041	696.741	579.499	0.026	-	-0.301	-0.554	-	-	-	Ambient328	2.905	32.127	-	PAVEMENT_GENERAL	Urban	F	1011101000011101	0000000000010000	-	-	-	-	-	-	-	-	-	-	Terminate	
Unknown	165.98665	01/16/0117 10:56.55	00009959	10.543	Inter688t33-0	0.331	1	1	172.981	11.111	-13.0	0.000	0.000	D	F	1036.0	176.475	0.193	0.062	697.118	568.707	0.029	-	-0.517	-0.510	-	-	-	Ambient328	3.070	32.368	27.113	PAVEMENT_GENERAL	Urban	F	1011101000011101	0000000000010000	-	-	-	-	-	-	-	-	-	-	Terminate	
Unknown	166.98668	01/16/0117 10:56.56	00010019	10.456	Inter688t33-0	0.874	1	1	175.527	11.111	-0.1	0.115	0.000	D	F	1461.6	175.535	0.201	-0.004	697.896	558.330	0.025	L	-0.001	0.292	-	-	-	Ambient328	2.806	29.343	5.706	PAVEMENT_GENERAL	Urban	F	1011101000111101	0000000000010000	-	-	-	-	-	-	-	-	-	-	Terminate	
Unknown	167.98669	01/16/0117 10:56.57	00010079	10.185	Inter688t33-0	0.953	1	1	176.027	11.111	10.2	0.000	0.000	D	F	1000.7	176.436	0.194	-0.045	698.653	547.955	0.029	L	0.340	-0.503	-	-	-	Ambient328	2.179	22.189	2.465	PAVEMENT_GENERAL	Urban	F	1011101000111101	0000000000010000	-	-	-	-	-	-	-	-	-	-	Terminate	
Unknown	168.98671	01/16/0117 10:56.58	00010139	9.243	Inter688t27-1	0.810	LT1	1	179.909	11.111	3.7	0.000	0.081	D	F	898.6	177.393	0.174	-0.014	699.150	538.151	0.030	L	0.099	-1.419	-	-	-	Ambient328	1.352	12.493	1.352	PAVEMENT_GENERAL	Urban	F	1011101000111101	0000000000010000	-	-	-	-	-	-	-	-	-	-	Terminate	
Unknown	169.98674	01/16/0117 10:56.59	00010199	7.165	Inter688t27-1	0.492	LT1	1	179.909	11.111	0.5	0.000	0.254	D	F	679.5	177.973	0.126	0.002	699.481	529.779	0.034	L	0.012	-3.536	-	-	-	Ambient328	0.575	4.120	0.575	PAVEMENT_GENERAL	Urban	F	1011101000111101	0000000000010000	-	-	-	-	-	-	-	-	-	-	Terminate	
Unknown	170.98676	01/16/0117 10:57.00	00010259	3.587	Inter688t27-1	0.316	LT1	1	179.909	11.111	0.8	0.000	0.248	D	F	477.5	178.048	0.148	-0.000	699.665	524.421	0.035	L	0.003	-3.511	Ambient328	5.2	3.581	Ambient328	-0.345	-1.238	-0.345	PAVEMENT_GENERAL	Urban	F	1011101000111101	0000000000010000	-	-	-	-	-	-	-	-	-	-	Terminate	
Unknown	171.98677	01/16/0117 10:57.01	00010319	1.697	Inter688t27-1	0.244	LT1	1	179.909	11.111	1.4	0.000	0.000	D	F	477.5	178.093	0.215	-0.000	699.741	522.150	0.030	L	-0.000	-0.379	Ambient328	3.8	1.676	Ambient328	-2.069	-3.510	-2.069	PAVEMENT_GENERAL	Urban	F	1011101000111101	0000000000010000	-	-	-	-	-	-	-	-	-	-	Terminate	
Unknown	172.98679	01/16/0117 10:57.02	00010379	1.384	Inter688t27-1	0.196	LT1	1	179.909	11.111	-4.6	0.000	0.000	D	F	477.5	178.092	0.202	0.001	699.791	520.621	0.028	L	-0.007	-0.258	Ambient328	203.0	-0.952	-	-	-	-	PAVEMENT_GENERAL	Urban	F	1011101000111101	0000000000010000	-	-	-	-	-	-	-	-	-	-	Terminate	
Unknown	173.98682	01/16/0117 10:57.03	00010439	1.170	Inter688t27-1	0.150	LT1	1	179.909	11.111	-6.8	0.000	0.000	D	F	477.5	177.944	0.203	0.001	699.839	519.352	0.027	L	-0.005	-0.180	Ambient328	183.2	-1.158	-	-	-	-	PAVEMENT_GENERAL	Urban	F	1011101000111101	0000000000010000	-	-	-	-	-	-	-	-	-	-	Terminate	
Unknown	174.98683	01/16/0117 10:57.04	00010499	1.797	Inter688t59-0	0.091	1	1	177.462	11.111	-38.4	0.041	0.000	D	F	858.2	177.325	0.164	0.009	699.908	518.050	0.021	L	-0.073	0.510	Ambient328	181.0	-1.791	-	-	-	-	PAVEMENT_GENERAL	Urban	F	1011101000111101	0000000000010000	-	-	-	-	-	-	-	-	-	-	Terminate	
Unknown	175.98685	01/16/0117 10:57.05	00010559	3.154	Inter688t59-0	0.084	1	1	170.037	11.111	-54.7	0.129	0.000	D	F	1434.4	174.914	0.224	0.034	700.129	515.705	0.018	L	-0.257	1.975	-	-	-	-	-	-	-	PAVEMENT_GENERAL	Urban	F	1011101000111101	0000000000010000	-	-	-	-	-	-	-	-	-	-	Terminate	
Unknown	176.98688	01/16/0117 10:57.06	00010619	5.038	Inter688t59-0	0.450	1	1	159.715	11.111	-67.6	0.141	0.000	D	F	1692.7	169.812	0.212	0.087	700.802	511.604	0.018	L	-0.650	1.478	-	-	-	-	-	-	-	PAVEMENT_GENERAL	Urban	F	1011101000111101	0000000000010000	-	-	-	-	-	-	-	-	-	-	Terminate	
Unknown	177.98689	01/16/0117 10:57.07	00010679	6.443	Inter688t59-0	1.207	1	1	148.121	11.111	-170.4	0.189	0.000	D	F	1714.5	158.120	0.208	0.356	702.554	506.150	0.020	L	-2.598	1.289	-	-	-	-	-	-	-	PAVEMENT_GENERAL	Urban	F	1011101000111101	0000000000010000	-	-	-	-	-	-	-	-	-	-	Terminate	
Unknown	178.98691	01/16/0117 10:57.08	00010739	7.680	Inter688t59-0	1.204	1	1	133.324	11.111	-132.8	0.178	0.000	D	F	1689.1	134.230	0.187	0.305	706.913	500.617	0.022	L	-2.534	1.006	-	-	-	-	-	-	-	PAVEMENT_GENERAL	Urban	F	1011101000111101	0000000000010000	-	-	-	-	-	-	-	-	-	-	Terminate	
Unknown	179.98694	01/16/0117 10:57.09	00010799	8.537	Inter688t59-0	0.719	1	1	108.443	11.111	-232.2	0.169	0.000	D	F	1733.2	109.103	0.214	0.683	713.931	496.590	0.029	L	-5.103	0.393	-	-	-	-	-	-	-	PAVEMENT_GENERAL	Urban	F	1011101000111101	0000000000010000	-	-	-	-	-	-	-	-	-	-	Terminate	
Unknown	180.98695	01/16/0117 10:57.10	00010859	9.282	Inter688t5-0	0.028	1	1	90.156	11.111	6.8	0.176	0.000	D	F	1808.7	82.850	0.199	-0.080	722.741	496.465	0.022	-	-0.031	1.007	-	-	-	-	-	-	-	PAVEMENT_GENERAL	Urban	F	1011101000011101	0000000000010000	-	-	-	-	-	-	-	-	-	-	Terminate	
Unknown	181.98697	01/16/0117 10:57.11	00010919	10.218	Inter688t5-0	-0.480	1	1	90.156	11.111	24.8	0.206	0.000	D	F	1941.1	91.633	0.200	-0.080	732.457	496.947	0.022	-	0.948	1.008	-	-	-	-	-	-	-	PAVEMENT_GENERAL	Urban	F	1011101000011101	0000000000010000	-	-	-	-	-	-	-	-	-	-	Terminate	
Unknown	182.98700	01/16/0117 10:57.12	00010979	11.321	Inter688t5-0	-0.003	1	1	90.156	11.111	-15.7	0.270	0.000	D	F	2121.7	92.435	0.211	0.073	743.193	496.441	0.021	-	-0.486	1.215	-	-	-	-	-	-	-	PAVEMENT_GENERAL	Urban	F	1011101000011101	0000000000010000	-	-	-	-	-	-	-	-	-	-	Terminate	
Unknown	183.98701	01/16/0117 10:57.13	00011039	12.522	Inter688t19-0	0.138	1	1	90.043	11.111	-7.3	0.300	0.000	D	F	2276.4	89.534	0.211	0.042	755.116	496.278	0.021	-	-0.363	1.258	-	-	-	-	-	-	-	PAVEMENT_GENERAL	Urban	F	1011101000011101	0000000000010000	-	-	-	-	-	-	-	-	-	-	Terminate	
Unknown	184.98703	01/16/0117 10:57.14	00011099	13.698	Inter688t19-0	-0.006	1	1	90.007	11.111	4.6	0.287	0.000	D	F	2404.5	89.691	0.207	-0.019	768.231	496.411	0.021	-	0.195	1.129	-	-	-	-	-	-	-	PAVEMENT_GENERAL	Urban	F	1011101000011101	0000000000010000	-	-	-	-	-	-	-	-	-	-	Terminate	
Unknown	185.98706	01/16/0117 10:57.15	00011159	14.782	Inter688t19-0	-0.027	1	1	90.003	11.111	-2.8	0.277	0.000	D	F	2543.6	89.912	0.205	0.022	782.478	496.431	0.022	-	-0.122	1.056	-	-	-	-	-	-	-	PAVEMENT_GENERAL	Urban	F	1011101000011101	0000000000010000	-	-	-	-	-	-	-	-	-	-	Terminate	
Unknown	186.98708	01/16/0117 10:57.16	00011219	15.824	Inter688t7-0	-0.055	1	1	90.000	11.111	-0.8	0.279	0.000	D	F	2692.4	89.929	0.204	0.001	797.785	496.459	0.022	-	-0.016	1.022	-	-	-	-	-	-	-	PAVEMENT_GENERAL	Urban	F	1011101000011101	0000000000010000	-	-	-	-	-	-	-	-	-	-	Terminate	
Unknown	187.98709	01/16/0117 10:57.17	00011279	16.771	Inter683t1-0	-0.140	1	1	90.000	11.111	-0.7	0.263	0.000	D	F	2198.9	89.472	0.193	0.012	814.098	496.536	0.022	-	-0.096	0.716	-	-	-	-	-	-	-	PAVEMENT_GENERAL	Urban	F	1011101000011101	0000000000010000	-	-	-	-	-	-	-	-	-	-	Terminate	
Unknown	188.98711	01/16/0117 10:57.18	00011339	17.381	Inter683t1-0	-0.313	1	1	90.000	11.111	0.6	0.265	0.000	D	F	2104.6	89.376	0.197	0.002	831.182	496.709	0.024	-	0.008	0.577	-	-	-	-	-	-	-	PAVEMENT_GENERAL	Urban	F	1011101000011101	0000000000010000	-	-	-	-	-	-	-	-	-	-	Terminate	
Unknown	189.98714	01/16/0117 10:57.19	00011399	17.942	Inter683t1-0	-0.473	1	1	90.000	11.111	3.5	0.266	0.000	D	F	2132.0	89.727	0.196	-0.028	848.846	496.869	0.024	-	0.205	0.546	-	-	-	-	-	-	-	PAVEMENT_GENERAL	Urban	F	1011101000011101	0000000000010000	-	-	-	-	-	-	-	-	-	-	Terminate	
Unknown	190.98715	01/16/0117 10:57.20	00011459	18.471	Inter683t1-0	-0.526	1	1	90.000	11.111	-1.8	0.266	0.000	D	F	2166.0	89.757	0.195	0.021	867.055	496.922	0.024	-	-0.125	0.516	-	-	-	-	-	-	-	PAVEMENT_GENERAL	Urban	F	1011101000011101	0000000000010000	-	-	-	-	-	-	-	-	-	-	Terminate	
Unknown	191.98717	01/16/0117 10:57.21	00011519	18.979	Inter683t1-0	-0.585	1	1	90.000	11.111	2.2	0.268	0.000	D	F	2206.1	90.052	0.194	-0.022	885.781	496.981	0.024	-	0.164	0.502	-	-	-	-	-	-	-	PAVEMENT_GENERAL	Urban	F	1011101000011101	0000000000010000	-	-	-	-	-	-	-	-	-	-	Terminate	
Unknown	192.98720	01/16/0117 10:57.22	00011579	19.476	Inter683t1-0	-0.592	1	1	90.000	11.111	-0.8	0.270	0.000	D	F	2247.7	89.708	0.193	0.020	905.009	496.988	0.024	-	-0.148	0.491	-	-	-	-	-	-	-	PAVEMENT_GENERAL	Urban	F	1011101000011101	0000000000010000	-	-	-	-	-	-	-	-	-	-	Terminate	
Unknown	193.98721	01/16/0117 10:57.23	00011639	19.976	Inter683t1-0	-0.612	1	1	90.000	11.111	6.2	0.279	0.000	D	F	2293.2	90.534	0.192	-0.059	924.734	497.008	0.024	-	0.446	0.505	-	-	-	-	-	-	-	PAVEMENT_GENERAL	Urban	F	1011101000011101	0000000000010000	-	-	-	-	-	-	-	-	-	-	Terminate	
Unknown	194.98723	01/16/0117 10:57.24	00011699	20.473	Inter683t1-0	-0.341	1	1	90.000	11.111	-1.2	0.280	0.000	D	F	2334.2	90.862	0.192	0.010	944.958	496.737	0.024	-	-0.056	0.494	-	-	-	-	-	-	-	PAVEMENT_GENERAL	Urban	F	1011101000011101	0000000000010000	-	-	-	-	-	-	-	-	-	-	Terminate	
Unknown	195.98726	01/16/0117 10:57.25	00011759	20.963	Inter683t1-0	-0.116	1	1	90.000	11.111	-3.8	0.280	0.000	D	F	2371.5	90.111	0.190	0.044	965.676	496.512	0.025	-	-0.334	0.482	-	-	-	-	-	-	-	PAVEMENT_GENERAL	Urban	F	1011101000011101	0000000000010000	-	-	-	-	-	-	-	-	-	-	Terminate	
Unknown	196.98727	01/16/0117 10:57.26	00011819	21.439	Inter683t1-0	-0.120	1	1	90.000	11.111	-2.1	0.280	0.000	D	F	2408.0	89.823	0.190	0.019	986.877	496.516	0.025	-	-0.125	0.472	-	-	-	-	-	-	-	PAVEMENT_GENERAL	Urban	F	1011101000011101	0000000000010000	-	-	-	-	-	-	-	-	-	-	Terminate	
