ZoneName	Time	SystemTime	Frame	Velocity	LaneName	LanePos	LaneIndex	LaneCount	LaneHeading	SpeedLimit	Steer	Accel	Brake	Gear	Horn	SubjectEngineRPM	SubjectHeading	SubjectPitch	SubjectRoll	SubjectX	SubjectY	SubjectZ	Signal	LatAccel	LongAccel	Collision	CollisionAngle	CollisionVelocity	VehAhead	HeadwayTime	HeadwayDist	TTC	TerrainType	CultureType	Slip	DigitalInputs	DigitalInputs2	ActiveTrigger	EntityName	DistToEntity	TimeToEntity	EntityVelocity	EntityAccel	EntityHeading	EntityX	EntityY	EntityZ	GrabData	
Unknown	0.98335	01/16/0117 09:23.42	00000059	0.003	Inter625t13-0	-0.088	1	2	0.000	11.111	-2.8	0.000	0.096	D	F	0.0	0.000	0.154	0.001	1503.500	523.206	0.019	-	0.000	0.008	-	-	-	-	-	-	-	PAVEMENT_GENERAL	Urban	F	1111101000011101	0000000000010000	-	car	928.855	659913.500	0.000	0.000	180.000	696.000	987.000	-0.000	Terminate	
Unknown	1.98337	01/16/0117 09:23.43	00000119	0.001	Inter625t13-0	-0.088	1	2	0.000	11.111	-2.8	0.000	1.000	D	F	0.0	0.000	0.190	-0.000	1503.500	523.208	0.024	-	-0.000	-0.001	-	-	-	-	-	-	-	PAVEMENT_GENERAL	Urban	F	1011101000011101	0000000000010000	-	car	928.854	2126205.500	0.000	0.000	180.000	696.000	987.000	-0.000	Terminate	
Unknown	2.98339	01/16/0117 09:23.44	00000179	0.000	Inter625t13-0	-0.088	1	2	0.000	11.111	-2.8	0.000	0.899	D	F	327.8	0.000	0.202	-0.000	1503.500	523.209	0.026	-	0.000	-0.000	-	-	-	-	-	-	-	PAVEMENT_GENERAL	Urban	F	1011101000011111	0000000000010000	-	car	928.854	5416952.000	0.000	0.000	180.000	696.000	987.000	-0.000	Terminate	
Unknown	3.98341	01/16/0117 09:23.45	00000239	0.000	Inter625t13-0	-0.088	1	2	0.000	11.111	-2.8	0.000	0.000	D	F	477.5	0.000	0.206	-0.000	1503.500	523.209	0.027	-	-0.000	0.000	-	-	-	-	-	-	-	PAVEMENT_GENERAL	Urban	F	1011101000011101	0000000000010000	-	car	928.854	12981984.000	0.000	0.000	180.000	696.000	987.000	-0.000	Terminate	
Unknown	4.98343	01/16/0117 09:23.46	00000299	0.073	Inter625t13-0	-0.088	1	2	0.000	11.111	-4.6	0.164	0.000	D	F	1319.7	0.000	0.232	0.000	1503.500	523.215	0.025	-	-0.005	0.699	-	-	-	-	-	-	-	PAVEMENT_GENERAL	Urban	F	1011101000011101	0000000000010000	-	car	928.851	25406.076	0.000	0.000	180.000	696.000	987.000	-0.000	Terminate	
Unknown	5.98345	01/16/0117 09:23.47	00000359	3.829	Inter625t13-0	-0.099	1	2	0.000	11.111	-3.5	0.242	0.000	D	F	1792.8	359.737	0.216	-0.000	1503.489	525.033	0.008	-	-0.002	3.483	-	-	-	-	-	-	-	PAVEMENT_GENERAL	Urban	F	1011101000011101	0000000000010000	-	car	927.937	484.099	0.000	0.000	180.000	696.000	987.000	-0.000	Terminate	
Unknown	6.98347	01/16/0117 09:23.48	00000419	6.519	Inter625t13-0	-0.130	1	2	0.000	11.111	0.6	0.228	0.000	D	F	2139.7	359.691	0.215	-0.003	1503.458	530.318	0.015	-	0.012	2.091	-	-	-	-	-	-	-	PAVEMENT_GENERAL	Urban	F	1011101000011101	0000000000010000	-	car	925.297	285.600	0.000	0.000	180.000	696.000	987.000	-0.000	Terminate	
Unknown	7.98349	01/16/0117 09:23.49	00000479	8.397	Inter625t49-0	-0.162	1	1	0.006	11.111	3.2	0.210	0.000	D	F	1850.5	359.832	0.210	-0.009	1503.426	537.848	0.019	-	0.070	1.406	-	-	-	-	-	-	-	PAVEMENT_GENERAL	Urban	F	1011101000011101	0000000000010000	-	car	921.585	224.575	0.000	0.000	180.000	696.000	987.000	-0.000	Terminate	
Unknown	8.98351	01/16/0117 09:23.50	00000539	9.645	Inter625t49-0	-0.148	1	1	0.008	11.111	0.3	0.213	0.000	D	F	1921.1	0.229	0.213	-0.002	1503.441	546.896	0.021	-	0.018	1.175	-	-	-	-	-	-	-	PAVEMENT_GENERAL	Urban	F	1011101000011101	0000000000010000	-	car	917.235	200.186	0.000	0.000	180.000	696.000	987.000	-0.000	Terminate	
Unknown	9.98353	01/16/0117 09:23.51	00000599	10.767	Inter625t49-0	-0.119	1	1	0.007	11.111	-2.9	0.185	0.000	D	F	1938.9	0.000	0.203	0.014	1503.472	557.123	0.022	-	-0.103	0.862	-	-	-	-	-	-	-	PAVEMENT_GENERAL	Urban	F	1011101000011101	0000000000010000	-	car	912.411	180.258	0.000	0.000	180.000	696.000	987.000	-0.000	Terminate	
Unknown	10.98355	01/16/0117 09:23.52	00000659	11.584	Inter625t49-0	-0.127	1	1	0.005	11.111	2.6	0.198	0.000	D	F	2056.5	0.117	0.207	-0.012	1503.465	568.293	0.023	-	0.094	0.804	-	-	-	-	-	-	-	PAVEMENT_GENERAL	Urban	F	1011101000011101	0000000000010000	-	car	907.209	170.794	0.000	0.000	180.000	696.000	987.000	-0.000	Terminate	
Unknown	11.98357	01/16/0117 09:23.53	00000719	12.390	Inter625t49-0	-0.068	1	1	0.005	11.111	-0.7	0.199	0.000	D	F	2146.1	0.369	0.205	0.002	1503.525	580.286	0.023	-	-0.006	0.776	-	-	-	-	-	-	-	PAVEMENT_GENERAL	Urban	F	1011101000011101	0000000000010000	-	car	901.805	163.903	0.000	0.000	180.000	696.000	987.000	-0.000	Terminate	
Unknown	12.98359	01/16/0117 09:23.54	00000779	13.130	Inter625t15-0	-0.021	1	2	0.000	11.111	-0.3	0.203	0.000	D	F	1838.2	0.041	0.203	0.003	1503.573	593.057	0.023	-	-0.038	0.672	-	-	-	-	-	-	-	PAVEMENT_GENERAL	Urban	F	1011101000011101	0000000000010000	-	car	896.175	155.910	0.000	0.000	180.000	696.000	987.000	-0.000	Terminate	
Unknown	13.98361	01/16/0117 09:23.55	00000839	13.747	Inter614t1-0	-0.015	1	2	0.000	11.111	-0.0	0.201	0.000	D	F	1829.0	0.018	0.202	0.000	1503.578	606.502	0.024	-	-0.000	0.582	-	-	-	-	-	-	-	PAVEMENT_GENERAL	Urban	F	1011101000011101	0000000000010000	-	car	890.368	152.064	0.000	0.000	180.000	696.000	987.000	-0.000	Terminate	
Unknown	14.98363	01/16/0117 09:23.56	00000899	14.310	Inter614t1-0	-0.011	1	2	0.000	11.111	0.0	0.203	0.000	D	F	1867.7	0.015	0.201	-0.000	1503.582	620.530	0.024	-	0.000	0.567	-	-	-	-	-	-	-	PAVEMENT_GENERAL	Urban	F	1011101000011101	0000000000010000	-	car	884.483	149.659	0.000	0.000	180.000	696.000	987.000	-0.000	Terminate	
Unknown	15.98365	01/16/0117 09:23.57	00000959	14.784	Inter614t1-0	-0.007	1	2	0.000	11.111	0.0	0.155	0.000	D	F	1770.6	0.014	0.197	-0.000	1503.586	635.097	0.025	-	0.001	0.333	-	-	-	-	-	-	-	PAVEMENT_GENERAL	Urban	F	1011101000011101	0000000000010000	-	car	878.567	148.845	0.000	0.000	180.000	696.000	987.000	-0.000	Terminate	
Unknown	16.98367	01/16/0117 09:23.58	00001019	14.962	Inter614t1-0	-0.003	1	2	0.000	11.111	0.2	0.120	0.000	D	F	1696.0	0.019	0.195	-0.001	1503.590	649.994	0.026	-	0.006	0.060	-	-	-	-	-	-	-	PAVEMENT_GENERAL	Urban	F	1011101000011101	0000000000010000	-	car	872.726	151.583	0.000	0.000	180.000	696.000	987.000	-0.000	Terminate	
Unknown	17.98369	01/16/0117 09:23.59	00001079	15.040	Inter614t1-0	0.006	1	2	0.000	11.111	0.7	0.125	0.000	D	F	1715.0	0.064	0.196	-0.004	1503.600	664.992	0.026	-	0.026	0.093	-	-	-	-	-	-	-	PAVEMENT_GENERAL	Urban	F	1011101000011101	0000000000010000	-	car	867.069	156.103	0.000	0.000	180.000	696.000	987.000	-0.000	Terminate	
Unknown	18.98371	01/16/0117 09:24.00	00001139	15.081	Inter614t1-0	0.046	1	2	0.000	11.111	1.3	0.109	0.000	D	F	1682.4	0.272	0.195	-0.009	1503.639	680.064	0.026	-	0.067	0.008	-	-	-	-	-	-	-	PAVEMENT_GENERAL	Urban	F	1011101000011101	0000000000010000	-	car	861.638	162.857	0.000	0.000	180.000	696.000	987.000	-0.000	Terminate	
Unknown	19.98373	01/16/0117 09:24.01	00001199	15.129	Inter614t1-0	0.130	1	2	0.000	11.111	-1.2	0.131	0.000	D	F	1729.6	0.318	0.196	0.008	1503.723	695.164	0.026	-	-0.045	0.082	-	-	-	-	-	-	-	PAVEMENT_GENERAL	Urban	F	1011101000011101	0000000000010000	-	car	856.468	169.202	0.000	0.000	180.000	696.000	987.000	-0.000	Terminate	
Unknown	20.98375	01/16/0117 09:24.02	00001259	15.251	Inter614t1-0	0.190	1	2	0.000	11.111	-0.9	0.136	0.000	D	F	1750.3	0.126	0.196	0.006	1503.784	710.352	0.026	-	-0.048	0.133	-	-	-	-	-	-	-	PAVEMENT_GENERAL	Urban	F	1011101000011101	0000000000010000	-	car	851.484	173.429	0.000	0.000	180.000	696.000	987.000	-0.000	Terminate	
Unknown	21.98377	01/16/0117 09:24.03	00001319	15.386	Inter614t1-0	0.209	1	2	0.000	11.111	3.4	0.148	0.000	D	F	1780.5	0.085	0.196	-0.016	1503.802	725.669	0.026	-	0.112	0.173	-	-	-	-	-	-	-	PAVEMENT_GENERAL	Urban	F	1011101000011101	0000000000010000	-	car	846.663	179.605	0.000	0.000	180.000	696.000	987.000	-0.000	Terminate	
Unknown	22.98379	01/16/0117 09:24.04	00001379	15.549	Inter614t1-0	0.323	1	2	0.000	11.111	1.7	0.136	0.000	D	F	1768.0	0.768	0.194	-0.013	1503.917	741.139	0.026	-	0.122	0.122	-	-	-	-	-	-	-	PAVEMENT_GENERAL	Urban	F	1011101000011101	0000000000010000	-	car	842.138	194.621	0.000	0.000	180.000	696.000	987.000	-0.000	Terminate	
Unknown	23.98381	01/16/0117 09:24.05	00001439	15.535	Inter614t1-0	0.537	1	2	0.000	11.111	-2.2	0.108	0.000	D	F	1711.3	0.643	0.194	0.019	1504.130	756.691	0.027	-	-0.125	-0.013	-	-	-	-	-	-	-	PAVEMENT_GENERAL	Urban	F	1011101000011101	0000000000010000	-	car	837.948	204.885	0.000	0.000	180.000	696.000	987.000	-0.000	Terminate	
Unknown	24.98383	01/16/0117 09:24.06	00001499	15.522	Inter614t1-0	0.668	1	2	0.000	11.111	-1.8	0.104	0.000	D	F	1709.5	0.326	0.195	0.012	1504.261	772.224	0.027	-	-0.087	-0.014	-	-	-	-	-	-	-	PAVEMENT_GENERAL	Urban	F	1011101000011101	0000000000010000	-	car	833.951	213.800	0.000	0.000	180.000	696.000	987.000	-0.000	Terminate	
Unknown	25.98385	01/16/0117 09:24.07	00001559	15.423	Inter614t1-0	0.707	1	2	0.000	11.111	-0.6	0.086	0.000	D	F	1668.3	359.947	0.194	0.008	1504.301	787.715	0.027	-	-0.065	-0.144	-	-	-	-	-	-	-	PAVEMENT_GENERAL	Urban	F	1011101000011101	0000000000010000	-	car	830.145	224.009	0.000	0.000	180.000	696.000	987.000	-0.000	Terminate	
Unknown	26.98387	01/16/0117 09:24.08	00001619	15.346	Inter612t1-0	0.697	1	2	0.000	11.111	-0.1	0.090	0.000	D	F	1669.2	0.036	0.192	-0.003	1504.290	803.095	0.027	-	0.023	-0.102	-	-	-	-	-	-	-	PAVEMENT_GENERAL	Urban	F	1011101000011101	0000000000010000	-	car	826.588	243.471	0.000	0.000	180.000	696.000	987.000	-0.000	Terminate	
Unknown	27.98389	01/16/0117 09:24.09	00001679	15.295	Inter612t1-0	0.697	1	2	0.000	11.111	-0.0	0.085	0.000	D	F	1656.7	0.000	0.191	0.000	1504.291	818.411	0.027	-	-0.009	-0.102	-	-	-	-	-	-	-	PAVEMENT_GENERAL	Urban	F	1011101000011101	0000000000010000	-	car	823.326	262.708	0.000	0.000	180.000	696.000	987.000	-0.000	Terminate	
Unknown	28.98391	01/16/0117 09:24.11	00001739	15.254	Inter612t1-0	0.688	1	2	0.000	11.111	0.2	0.111	0.000	D	F	1698.6	0.000	0.195	-0.001	1504.281	833.677	0.027	-	0.008	-0.001	-	-	-	-	-	-	-	PAVEMENT_GENERAL	Urban	F	1011101000011101	0000000000010000	-	car	820.335	287.850	0.000	0.000	180.000	696.000	987.000	-0.000	Terminate	
Unknown	29.98393	01/16/0117 09:24.12	00001799	15.250	Inter612t1-0	0.683	1	2	0.000	11.111	0.3	0.108	0.000	D	F	1692.5	0.000	0.195	-0.001	1504.276	848.928	0.027	-	0.010	0.003	-	-	-	-	-	-	-	PAVEMENT_GENERAL	Urban	F	1011101000011101	0000000000010000	-	car	817.625	318.155	0.000	0.000	180.000	696.000	987.000	-0.000	Terminate	
Unknown	30.98395	01/16/0117 09:24.13	00001859	15.213	Inter612t1-0	0.692	1	2	0.000	11.111	0.3	0.101	0.000	D	F	1671.8	0.084	0.194	-0.003	1504.285	864.164	0.027	-	0.023	-0.038	-	-	-	-	-	-	-	PAVEMENT_GENERAL	Urban	F	1011101000011101	0000000000010000	-	car	815.206	360.136	0.000	0.000	180.000	696.000	987.000	-0.000	Terminate	
Unknown	31.98397	01/16/0117 09:24.14	00001919	15.189	Inter612t1-0	0.708	1	2	0.000	11.111	-1.0	0.088	0.000	D	F	1649.4	0.000	0.192	0.007	1504.301	879.366	0.027	-	-0.053	-0.090	-	-	-	-	-	-	-	PAVEMENT_GENERAL	Urban	F	1011101000011101	0000000000010000	-	car	813.076	404.879	0.000	0.000	180.000	696.000	987.000	-0.000	Terminate	
Unknown	32.98399	01/16/0117 09:24.15	00001979	15.090	Inter612t1-0	0.692	1	2	0.000	11.111	0.3	0.083	0.000	D	F	1638.3	359.933	0.193	-0.002	1504.285	894.508	0.027	-	0.013	-0.113	-	-	-	-	-	-	-	PAVEMENT_GENERAL	Urban	F	1111101000011101	0000000000010000	-	car	811.200	468.074	0.000	0.000	180.000	696.000	987.000	-0.000	Terminate	
Unknown	33.98401	01/16/0117 09:24.16	00002039	14.931	Inter612t1-0	0.679	1	2	0.000	11.111	0.2	0.074	0.000	D	F	1613.5	0.000	0.194	-0.001	1504.273	909.520	0.027	-	0.009	-0.146	-	-	-	-	-	-	-	PAVEMENT_GENERAL	Urban	F	1011101000011101	0000000000010000	-	car	809.618	565.288	0.000	0.000	180.000	696.000	987.000	-0.000	Terminate	
Unknown	34.98403	01/16/0117 09:24.17	00002099	14.808	Inter612t1-0	0.676	1	2	0.000	11.111	0.1	0.081	0.000	D	F	1613.9	0.005	0.194	-0.001	1504.269	924.387	0.027	-	0.008	-0.111	-	-	-	-	-	-	-	PAVEMENT_GENERAL	Urban	F	1011101000011101	0000000000010000	-	car	808.331	707.641	0.000	0.000	180.000	696.000	987.000	-0.000	Terminate	
Unknown	35.98405	01/16/0117 09:24.18	00002159	14.739	Inter612t1-0	0.681	1	2	0.000	11.111	0.2	0.097	0.000	D	F	1629.6	0.036	0.195	-0.001	1504.274	939.156	0.027	-	0.011	-0.045	-	-	-	-	-	-	-	PAVEMENT_GENERAL	Urban	F	1011101000011101	0000000000010000	-	car	807.329	937.006	0.000	0.000	180.000	696.000	987.000	-0.000	Terminate	
Unknown	36.98407	01/16/0117 09:24.19	00002219	14.705	Inter612t1-0	0.693	1	2	0.000	11.111	-0.1	0.093	0.000	D	F	1628.4	0.049	0.195	0.000	1504.286	953.877	0.027	-	-0.004	-0.034	-	-	-	-	-	-	-	PAVEMENT_GENERAL	Urban	F	1011101000011101	0000000000010000	-	car	806.605	1368.176	0.000	0.000	180.000	696.000	987.000	-0.000	Terminate	
Unknown	37.98409	01/16/0117 09:24.20	00002279	14.689	Inter612t1-0	0.701	1	2	0.000	11.111	-0.5	0.104	0.000	D	F	1651.2	0.000	0.195	0.003	1504.294	968.570	0.026	-	-0.024	0.013	-	-	-	-	-	-	-	PAVEMENT_GENERAL	Urban	F	1011101000011101	0000000000010000	-	car	806.145	2398.018	0.000	0.000	180.000	696.000	987.000	-0.000	Terminate	
Unknown	38.98411	01/16/0117 09:24.21	00002339	14.710	Inter612t1-0	0.695	1	2	0.000	11.111	2.6	0.111	0.000	D	F	1662.1	0.060	0.196	-0.014	1504.288	983.268	0.026	-	0.103	0.037	-	-	-	-	-	-	-	PAVEMENT_GENERAL	Urban	F	1011101000011101	0000000000010000	-	car	805.937	15372.688	0.000	0.000	180.000	696.000	987.000	-0.000	Terminate	
Unknown	39.98413	01/16/0117 09:24.22	00002399	14.745	Inter612t1-0	0.778	1	2	0.000	11.111	1.7	0.113	0.000	D	F	1667.4	0.596	0.195	-0.011	1504.371	997.995	0.026	-	0.101	0.039	-	-	-	-	-	-	-	PAVEMENT_GENERAL	Urban	F	1011101000011101	0000000000010000	-	car	806.086	-2277.673	0.000	0.000	180.000	696.000	987.000	-0.000	Terminate	
Unknown	40.98415	01/16/0117 09:24.23	00002459	14.785	Inter613t1-0	0.972	1	2	0.000	11.111	1.7	0.111	0.000	D	F	1670.8	0.927	0.196	-0.011	1504.565	1012.758	0.026	-	0.087	0.043	-	-	-	-	-	-	-	PAVEMENT_GENERAL	Urban	F	1111101000011101	0000000000010000	-	car	806.615	-1136.356	0.000	0.000	180.000	696.000	987.000	-0.000	Terminate	
Unknown	41.98417	01/16/0117 09:24.24	00002519	14.830	Inter613t1-0	1.243	1	2	0.000	11.111	0.1	0.115	0.000	D	F	1681.5	1.155	0.196	-0.001	1504.836	1027.562	0.026	-	0.021	0.050	-	-	-	11	10.484	155.482	-	PAVEMENT_GENERAL	Urban	F	1011101000011101	0000000000010000	-	car	807.493	-775.488	0.000	0.000	180.000	696.000	987.000	-0.000	Terminate	
Unknown	42.98419	01/16/0117 09:24.25	00002579	14.905	Inter613t1-0	1.547	1	2	0.000	11.111	0.2	0.118	0.000	D	F	1693.4	1.192	0.196	-0.001	1505.140	1042.425	0.026	-	0.009	0.078	-	-	-	11	10.634	158.498	-	PAVEMENT_GENERAL	Urban	F	1011101000011101	0000000000010000	-	car	808.677	-609.012	0.000	0.000	180.000	696.000	987.000	-0.000	Terminate	
Unknown	43.98421	01/16/0117 09:24.26	00002639	14.937	Inter613t1-1	-1.757	2	2	0.000	11.111	-8.7	0.129	0.000	D	F	1712.7	0.864	0.196	0.052	1505.437	1057.341	0.026	-	-0.350	0.105	-	-	-	-	-	-	-	PAVEMENT_GENERAL	Urban	F	1011101000011101	0000000000010000	-	car	810.128	-533.889	0.000	0.000	180.000	696.000	987.000	-0.000	Terminate	
Unknown	44.98423	01/16/0117 09:24.27	00002699	15.109	Inter613t1-1	-1.748	2	2	0.000	11.111	-3.8	0.159	0.000	D	F	1783.9	359.359	0.197	0.028	1505.445	1072.355	0.025	-	-0.229	0.235	-	-	-	-	-	-	-	PAVEMENT_GENERAL	Urban	F	1011101000011101	0000000000010000	-	car	811.574	-573.049	0.000	0.000	180.000	696.000	987.000	-0.000	Terminate	
Unknown	45.98425	01/16/0117 09:24.28	00002759	15.366	Inter613t1-0	1.625	1	2	0.000	11.111	0.2	0.157	0.000	D	F	1799.1	359.016	0.197	0.001	1505.219	1087.590	0.025	-	-0.010	0.245	-	-	-	11	10.864	166.939	-	PAVEMENT_GENERAL	Urban	F	1011101000011101	0000000000010000	-	car	813.087	-497.857	0.000	0.000	180.000	696.000	987.000	-0.000	Terminate	
Unknown	46.98427	01/16/0117 09:24.29	00002819	15.533	Inter613t1-0	1.373	1	2	0.000	11.111	0.8	0.115	0.000	D	F	1731.5	359.134	0.194	-0.005	1504.967	1103.051	0.026	-	0.039	0.078	-	-	-	11	10.844	168.443	527.763	PAVEMENT_GENERAL	Urban	F	1011101000011101	0000000000010000	-	car	814.889	-412.976	0.000	0.000	180.000	696.000	987.000	-0.000	Terminate	
Unknown	47.98429	01/16/0117 09:24.30	00002879	15.500	Inter613t1-0	1.159	1	2	0.000	11.111	-0.2	0.101	0.000	D	F	1699.5	359.284	0.194	-0.001	1504.753	1118.572	0.027	-	0.012	-0.044	-	-	-	11	10.742	166.504	71.278	PAVEMENT_GENERAL	Urban	F	1011101000011101	0000000000010000	-	car	817.026	-355.594	0.000	0.000	180.000	696.000	987.000	-0.000	Terminate	
Unknown	48.98431	01/16/0117 09:24.31	00002939	15.458	Inter613t1-0	0.953	1	2	0.000	11.111	0.1	0.099	0.000	D	F	1692.2	359.176	0.194	0.001	1504.546	1134.048	0.027	-	-0.009	-0.048	-	-	-	-	-	-	-	PAVEMENT_GENERAL	Urban	F	1011101000011101	0000000000010000	-	car	819.449	-321.744	0.000	0.000	180.000	696.000	987.000	-0.000	Terminate	
Unknown	49.98433	01/16/0117 09:24.32	00002999	15.411	Inter613t1-0	0.750	1	2	0.000	11.111	1.8	0.101	0.000	D	F	1692.2	359.393	0.194	-0.012	1504.343	1149.480	0.027	-	0.094	-0.032	-	-	-	-	-	-	-	PAVEMENT_GENERAL	Urban	F	1011101000011101	0000000000010000	-	car	822.152	-285.819	0.000	0.000	180.000	696.000	987.000	-0.000	Terminate	
Unknown	50.98435	01/16/0117 09:24.33	00003059	15.047	Inter613t1-0	0.627	1	2	0.000	11.111	0.1	0.000	0.000	D	F	1477.7	359.640	0.188	-0.002	1504.220	1164.771	0.029	-	0.017	-0.576	-	-	-	-	-	-	-	PAVEMENT_GENERAL	Urban	F	1011101000011101	0000000000010000	-	car	825.180	-262.789	0.000	0.000	180.000	696.000	987.000	-0.000	Terminate	
Unknown	51.98437	01/16/0117 09:24.34	00003119	14.476	Inter613t1-0	0.528	1	2	0.000	11.111	1.3	0.000	0.000	D	F	1421.9	359.618	0.190	-0.006	1504.121	1179.532	0.029	-	0.039	-0.567	-	-	-	-	-	-	-	PAVEMENT_GENERAL	Urban	F	1011101000011101	0000000000010000	-	car	828.380	-254.030	0.000	0.000	180.000	696.000	987.000	-0.000	Terminate	
Unknown	52.98439	01/16/0117 09:24.35	00003179	14.141	Inter613t1-0	0.473	1	2	0.000	11.111	0.4	0.053	0.000	D	F	1496.9	359.902	0.193	-0.003	1504.066	1193.809	0.028	-	0.028	-0.258	-	-	-	-	-	-	-	PAVEMENT_GENERAL	Urban	F	1011101000011101	0000000000010000	-	car	831.751	-238.817	0.000	0.000	180.000	696.000	987.000	-0.000	Terminate	
Unknown	53.98441	01/16/0117 09:24.36	00003239	13.801	Inter615t9-0	0.458	1	2	0.000	11.111	-3.7	0.023	0.000	D	F	1359.7	359.889	0.191	0.018	1504.052	1207.802	0.028	-	-0.131	-0.414	-	-	-	-	-	-	-	PAVEMENT_GENERAL	Urban	F	1011101000011101	0000000000010000	-	car	835.316	-231.262	0.000	0.000	180.000	696.000	987.000	-0.000	Terminate	
Unknown	54.98443	01/16/0117 09:24.37	00003299	13.456	Inter615t33-0	0.266	1	1	0.075	11.111	-7.3	0.046	0.000	D	F	1420.8	358.314	0.193	0.057	1503.864	1221.419	0.028	-	-0.414	-0.293	-	-	-	22	3.954	53.204	3.954	PAVEMENT_GENERAL	Urban	F	1011101000011101	0000000000010000	-	car	838.828	-249.064	0.000	0.000	180.000	696.000	987.000	-0.000	Terminate	
Unknown	55.98445	01/16/0117 09:24.38	00003359	13.095	Inter615t31-0	0.746	1	1	354.398	11.111	-21.5	0.000	0.000	D	F	1286.1	356.847	0.191	0.125	1503.328	1234.718	0.029	L	-0.854	-0.553	-	-	-	22	3.049	39.929	3.049	PAVEMENT_GENERAL	Urban	F	1011101000111101	0000000000010000	-	car	842.118	-267.603	0.000	0.000	180.000	696.000	987.000	-0.000	Terminate	
Unknown	56.98447	01/16/0117 09:24.39	00003419	12.528	Inter615t31-0	0.704	1	1	356.398	11.111	-16.2	0.000	0.048	D	F	1225.1	351.161	0.181	0.124	1502.002	1247.460	0.029	L	-0.973	-0.819	-	-	-	22	2.169	27.178	2.169	PAVEMENT_GENERAL	Urban	F	1011101000111101	0000000000010000	-	car	844.682	-427.775	0.000	0.000	180.000	696.000	987.000	-0.000	Terminate	
Unknown	57.98449	01/16/0117 09:24.40	00003479	8.857	Inter615t31-0	-0.248	1	1	356.903	11.111	59.0	0.000	0.421	D	F	821.2	353.178	0.035	-0.276	1500.308	1258.398	0.040	-	1.424	-5.324	-	-	-	22	1.821	16.129	1.821	PAVEMENT_GENERAL	Urban	F	1011101000011101	0000000000010000	-	car	846.504	-466.437	0.000	0.000	180.000	696.000	987.000	-0.000	Terminate	
Unknown	58.98451	01/16/0117 09:24.41	00003539	2.633	Inter615t31-0	-0.226	1	1	356.903	11.111	26.4	0.000	0.504	D	F	477.5	359.220	-0.046	0.041	1500.019	1264.165	0.041	-	-0.112	-6.066	-	-	-	22	3.933	10.355	3.933	PAVEMENT_GENERAL	Urban	F	1011101000011101	0000000000010000	-	car	848.091	-1029.146	0.000	0.000	180.000	696.000	987.000	-0.000	Terminate	
Unknown	59.98453	01/16/0117 09:24.42	00003599	-0.004	Inter615t31-0	-0.192	1	1	356.903	11.111	0.3	0.000	0.540	D	F	477.5	359.446	0.239	-0.000	1500.018	1264.812	0.036	-	0.000	0.013	-	-	-	22	-	9.708	-	PAVEMENT_GENERAL	Urban	F	1011101000011101	0000000000010000	-	car	848.302	710471.438	0.000	0.000	180.000	696.000	987.000	-0.000	Terminate	
Unknown	60.98455	01/16/0117 09:24.43	00003659	-0.001	Inter615t31-0	-0.192	1	1	356.903	11.111	-4.7	0.000	0.606	D	F	477.5	359.446	0.220	0.000	1500.018	1264.811	0.031	L	-0.000	0.000	-	-	-	22	-	9.710	-	PAVEMENT_GENERAL	Urban	F	1011101000111101	0000000000010000	-	car	848.301	2882099.500	0.000	0.000	180.000	696.000	987.000	-0.000	Terminate	
Unknown	61.98457	01/16/0117 09:24.44	00003719	-0.000	Inter615t31-0	-0.192	1	1	356.903	11.111	-7.1	0.000	0.606	D	F	477.5	359.446	0.213	0.000	1500.018	1264.810	0.029	L	0.000	0.000	-	-	-	22	-	9.710	-	PAVEMENT_GENERAL	Urban	F	1111101000111101	0000000000010000	-	car	848.301	8189342.000	0.000	0.000	180.000	696.000	987.000	-0.000	Terminate	
Unknown	62.98459	01/16/0117 09:24.45	00003779	-0.000	Inter615t31-0	-0.192	1	1	356.903	11.111	-3.5	0.000	0.600	D	F	477.5	359.445	0.210	0.000	1500.018	1264.810	0.028	L	0.000	0.000	-	-	-	22	-	9.711	-	PAVEMENT_GENERAL	Urban	F	1011101000111101	0000000000010000	-	car	848.301	22454778.000	0.000	0.000	180.000	696.000	987.000	-0.000	Terminate	
Unknown	63.98461	01/16/0117 09:24.46	00003839	-0.000	Inter615t31-0	-0.192	1	1	356.903	11.111	-3.4	0.000	0.516	D	F	477.5	359.445	0.209	0.000	1500.018	1264.810	0.028	L	-0.000	0.000	-	-	-	22	-	10.629	-	PAVEMENT_GENERAL	Urban	F	1011101000111101	0000000000010000	-	car	848.301	61650276.000	0.000	0.000	180.000	696.000	987.000	-0.000	Terminate	
Unknown	64.98463	01/16/0117 09:24.47	00003899	0.001	Inter615t31-0	-0.192	1	1	356.903	11.111	-2.7	0.000	0.000	D	F	477.5	359.445	0.209	0.000	1500.018	1264.810	0.028	L	-0.000	0.005	-	-	-	22	-	13.546	-	PAVEMENT_GENERAL	Urban	F	1011101000111101	0000000000010000	-	car	848.301	-3160722.750	0.000	0.000	180.000	696.000	987.000	-0.000	Terminate	
Unknown	65.98465	01/16/0117 09:24.48	00003959	2.830	Inter615t31-0	-0.153	1	1	356.903	11.111	0.6	0.272	0.000	D	F	1705.9	359.397	0.214	-0.004	1500.007	1265.729	0.005	L	0.015	4.162	-	-	-	22	5.382	15.232	-	PAVEMENT_GENERAL	Urban	F	1011101000111101	0000000000010000	-	car	848.591	-944.205	0.000	0.000	180.000	696.000	987.000	-0.000	Terminate	
Unknown	66.98467	01/16/0117 09:24.49	00004019	5.993	Inter615t11-0	-0.079	LT1	2	0.000	11.111	5.5	0.220	0.000	D	F	2022.4	359.860	0.196	-0.007	1499.983	1270.312	0.014	L	0.057	1.967	-	-	-	22	3.327	19.939	-	PAVEMENT_GENERAL	Urban	F	1011101000111101	0000000000010000	-	car	850.081	-429.760	0.000	0.000	180.000	696.000	987.000	-0.000	Terminate	
Unknown	67.98470	01/16/0117 09:24.50	00004079	7.713	Inter615t11-0	-0.114	LT1	2	0.000	11.111	-17.0	0.026	0.000	D	F	1362.1	359.299	0.199	0.046	1499.949	1277.317	0.021	L	-0.334	0.640	-	-	-	22	2.827	21.806	-	PAVEMENT_GENERAL	Urban	F	1011101000111101	0000000000010000	-	car	852.402	-336.817	0.000	0.000	180.000	696.000	987.000	-0.000	Terminate	
Unknown	68.98471	01/16/0117 09:24.51	00004139	8.080	Inter615t65-0	-0.263	1	1	347.825	11.111	-81.7	0.190	0.000	D	F	1644.3	353.450	0.219	0.254	1499.454	1285.088	0.023	L	-1.767	0.961	-	-	-	22	3.069	24.797	-	PAVEMENT_GENERAL	Urban	F	1011101000111101	0000000000010000	-	car	854.609	-443.235	0.000	0.000	180.000	696.000	987.000	-0.000	Terminate	
Unknown	69.98473	01/16/0117 09:24.52	00004199	9.343	Inter615t65-0	0.751	1	1	328.249	11.111	-76.2	0.171	0.000	D	F	1810.2	339.653	0.202	0.257	1497.215	1293.469	0.021	L	-2.047	1.147	-	-	-	22	2.981	27.851	-	PAVEMENT_GENERAL	Urban	F	1011101000111101	0000000000010000	-	car	855.469	-8970.405	0.000	0.000	180.000	696.000	987.000	-0.000	Terminate	
Unknown	70.98476	01/16/0117 09:24.53	00004259	9.992	Inter615t75-0	-1.576	1	1	269.734	11.111	-110.9	0.273	0.000	D	F	1854.8	327.932	0.213	0.411	1492.820	1302.006	0.023	L	-3.045	0.994	-	-	-	22	3.371	33.688	-	PAVEMENT_GENERAL	Urban	F	1011101000111101	0000000000010000	-	car	854.467	469.327	0.000	0.000	180.000	696.000	987.000	-0.000	Terminate	
Unknown	71.98477	01/16/0117 09:24.54	00004319	10.831	Inter615t77-0	1.726	1	1	269.734	11.111	-295.0	0.388	0.000	D	F	2220.0	295.101	0.244	1.091	1485.143	1308.873	0.040	L	-7.164	0.659	-	-	-	-	-	-	-	PAVEMENT_GENERAL	Urban	F	1011101000111101	0000000000010000	-	car	849.901	115.683	0.000	0.000	180.000	696.000	987.000	-0.000	Terminate	
Unknown	72.98479	01/16/0117 09:24.55	00004379	11.438	-	-	-	0	-	-	-183.4	0.392	0.000	D	F	2235.5	262.226	0.165	-4.954	1474.355	1310.097	0.085	-	-5.012	0.936	-	-	-	-	-	-	-	CURB	Urban	F	1111101000011101	0000000000010000	-	car	840.391	75.982	0.000	0.000	180.000	696.000	987.000	-0.000	Terminate	
Unknown	73.98481	01/16/0117 09:24.56	00004439	12.780	Inter615t17-0	-0.819	1	1	270.075	11.111	67.2	0.406	0.000	D	F	2345.6	247.890	0.249	-0.146	1462.900	1306.317	0.018	-	1.869	1.391	-	-	-	22	4.229	54.047	-	PAVEMENT_GENERAL	Urban	F	1011101000011101	0000000000010000	-	car	828.362	64.819	0.000	0.000	180.000	696.000	987.000	-0.000	Terminate	
Unknown	74.98483	01/16/0117 09:24.57	00004499	14.031	Inter615t19-0	-0.215	1	1	270.111	11.111	45.4	0.450	0.000	D	F	2518.9	267.337	0.166	-0.457	1449.893	1303.335	0.025	-	3.669	1.452	-	-	-	22	4.451	62.455	-	PAVEMENT_GENERAL	Urban	F	1011101000011101	0000000000010000	-	car	815.212	61.868	0.000	0.000	180.000	696.000	987.000	-0.000	Terminate	
Unknown	75.98486	01/16/0117 09:24.58	00004559	15.430	Inter615t19-0	-0.453	1	1	270.065	11.111	-5.0	0.388	0.000	D	F	2684.0	269.234	0.208	0.044	1435.167	1303.126	0.020	-	-0.335	1.371	-	-	-	22	4.389	67.722	-	PAVEMENT_GENERAL	Urban	F	1011101000011101	0000000000010000	-	car	801.570	56.184	0.000	0.000	180.000	696.000	987.000	-0.000	Terminate	
Unknown	76.98487	01/16/0117 09:24.59	00004619	16.795	Inter615t19-0	-0.631	1	1	270.061	11.111	6.6	0.439	0.000	D	F	2894.3	270.085	0.206	-0.052	1419.057	1302.967	0.020	-	0.403	1.369	-	-	-	22	4.131	69.372	-	PAVEMENT_GENERAL	Urban	F	1011101000011101	0000000000010000	-	car	786.720	51.153	0.000	0.000	180.000	696.000	987.000	-0.000	Terminate	
Unknown	77.98489	01/16/0117 09:25.00	00004679	18.145	Inter615t1-2	-0.552	1	2	270.000	11.111	0.8	0.459	0.000	D	F	3093.1	270.103	0.204	0.011	1401.587	1303.048	0.020	-	-0.092	1.355	-	-	-	22	3.969	72.015	-	PAVEMENT_GENERAL	Urban	F	1011101000011101	0000000000010000	-	car	770.776	46.582	0.000	0.000	180.000	696.000	987.000	-0.000	Terminate	
Unknown	78.98492	01/16/0117 09:25.01	00004739	19.337	Inter616t1-2	-0.418	1	2	270.000	11.111	1.8	0.247	0.000	D	F	2505.0	270.933	0.181	-0.028	1382.797	1303.188	0.022	-	0.221	0.674	-	-	-	22	3.915	75.703	-	PAVEMENT_GENERAL	Urban	F	1011101000011101	0000000000010000	-	car	753.726	43.241	0.000	0.000	180.000	696.000	987.000	-0.000	Terminate	
Unknown	79.98493	01/16/0117 09:25.02	00004799	19.828	Inter616t1-2	-0.066	1	2	270.000	11.111	-1.2	0.291	0.000	D	F	2299.6	271.137	0.194	0.005	1363.211	1303.541	0.024	-	-0.020	0.538	-	-	-	22	3.845	76.237	-	PAVEMENT_GENERAL	Urban	F	1011101000011101	0000000000010000	-	car	736.132	41.490	0.000	0.000	180.000	696.000	987.000	-0.000	Terminate	
Unknown	80.98495	01/16/0117 09:25.03	00004859	20.370	Inter616t1-2	0.275	1	2	270.000	11.111	-0.9	0.268	0.000	D	F	2306.9	270.717	0.190	0.014	1343.113	1303.882	0.024	-	-0.116	0.454	-	-	-	22	3.733	76.043	98.671	PAVEMENT_GENERAL	Urban	F	1011101000011101	0000000000010000	-	car	718.174	39.502	0.000	0.000	180.000	696.000	987.000	-0.000	Terminate	
Unknown	81.98497	01/16/0117 09:25.04	00004919	20.855	Inter616t1-2	0.513	1	2	270.000	11.111	-2.0	0.261	0.000	D	F	2342.7	270.606	0.190	0.007	1322.496	1304.120	0.025	-	-0.061	0.438	-	-	-	22	3.575	74.560	34.452	PAVEMENT_GENERAL	Urban	F	1011101000011101	0000000000010000	-	car	699.824	37.816	0.000	0.000	180.000	696.000	987.000	-0.000	Terminate	
Unknown	82.98499	01/16/0117 09:25.05	00004979	21.254	Inter616t1-2	0.631	1	2	270.000	11.111	-1.1	0.247	0.000	D	F	2361.4	269.863	0.188	0.026	1301.437	1304.238	0.025	-	-0.205	0.383	-	-	-	22	3.378	71.806	21.401	PAVEMENT_GENERAL	Urban	F	1011101000011101	0000000000010000	-	car	681.156	36.136	0.000	0.000	180.000	696.000	987.000	-0.000	Terminate	
Unknown	83.98502	01/16/0117 09:25.06	00005039	21.605	Inter616t1-2	0.593	1	2	270.000	11.111	-0.9	0.226	0.000	D	F	2380.7	269.906	0.188	0.005	1280.001	1304.200	0.025	-	-0.025	0.321	-	-	-	22	3.145	67.943	15.507	PAVEMENT_GENERAL	Urban	F	1011101000011101	0000000000010000	-	car	662.226	34.850	0.000	0.000	180.000	696.000	987.000	-0.000	Terminate	
Unknown	84.98503	01/16/0117 09:25.07	00005099	21.387	Inter616t1-2	0.531	1	2	270.000	11.111	2.3	0.000	0.000	D	F	1505.2	269.852	0.175	-0.017	1258.394	1304.138	0.030	-	0.115	-0.619	-	-	-	22	2.959	63.275	13.400	PAVEMENT_GENERAL	Urban	F	1011101000011101	0000000000010000	-	car	643.290	34.481	0.000	0.000	180.000	696.000	987.000	-0.000	Terminate	
Unknown	85.98505	01/16/0117 09:25.08	00005159	20.365	Inter616t1-2	0.549	1	2	270.000	11.111	-4.6	0.000	0.131	D	F	1364.5	270.085	0.134	0.026	1237.371	1304.156	0.032	-	-0.168	-2.209	-	-	-	22	2.879	58.620	13.768	PAVEMENT_GENERAL	Urban	F	1011101000011101	0000000000010000	-	car	625.072	35.605	0.000	0.000	180.000	696.000	987.000	-0.000	Terminate	
Unknown	86.98507	01/16/0117 09:25.09	00005219	17.406	Inter616t1-2	0.463	1	2	270.000	11.111	-1.5	0.000	0.275	D	F	1142.5	269.188	0.125	0.030	1218.291	1304.069	0.037	-	-0.230	-3.896	-	-	-	22	3.183	55.400	30.799	PAVEMENT_GENERAL	Urban	F	1011101000011101	0000000000010000	-	car	608.640	40.562	0.000	0.000	180.000	696.000	987.000	-0.000	Terminate	
Unknown	87.98509	01/16/0117 09:25.10	00005279	13.547	Inter616t1-2	0.243	1	2	270.000	11.111	3.9	0.000	0.272	D	F	890.0	269.256	0.138	-0.019	1202.822	1303.850	0.037	-	0.135	-3.827	-	-	-	22	4.082	55.298	-	PAVEMENT_GENERAL	Urban	F	1011101000011101	0000000000010000	-	car	595.355	51.416	0.000	0.000	180.000	696.000	987.000	-0.000	Terminate	
Unknown	88.98512	01/16/0117 09:25.11	00005339	9.805	Inter617t1-2	0.193	1	2	270.000	11.111	7.0	0.000	0.266	D	F	923.2	270.506	0.140	-0.033	1191.147	1303.800	0.036	-	0.256	-3.753	-	-	-	22	5.979	58.628	-	PAVEMENT_GENERAL	Urban	F	1011101000011101	0000000000010000	-	car	585.461	71.292	0.000	0.000	180.000	696.000	987.000	-0.000	Terminate	
Unknown	89.98513	01/16/0117 09:25.12	00005399	8.855	Inter617t1-2	0.305	1	2	270.000	11.111	-5.0	0.000	0.000	D	F	870.1	270.521	0.196	0.016	1182.014	1303.911	0.029	-	-0.132	-0.485	-	-	-	22	7.255	64.243	-	PAVEMENT_GENERAL	Urban	F	1011101000011101	0000000000010000	-	car	577.850	78.371	0.000	0.000	180.000	696.000	987.000	-0.000	Terminate	
Unknown	90.98515	01/16/0117 09:25.13	00005459	9.201	Inter617t1-2	0.343	1	2	270.000	11.111	-0.6	0.139	0.000	D	F	1487.0	270.187	0.205	0.002	1173.059	1303.950	0.024	-	-0.014	0.535	-	-	-	22	7.587	69.815	-	PAVEMENT_GENERAL	Urban	F	1011101000011101	0000000000010000	-	car	570.390	74.586	0.000	0.000	180.000	696.000	987.000	-0.000	Terminate	
Unknown	91.98518	01/16/0117 09:25.14	00005519	9.822	Inter617t1-2	0.354	1	2	270.000	11.111	-1.6	0.175	0.000	D	F	1601.5	269.925	0.208	0.006	1163.559	1303.960	0.023	-	-0.049	0.682	-	-	-	22	7.601	74.657	-	PAVEMENT_GENERAL	Urban	F	1011101000011101	0000000000010000	-	car	562.508	69.127	0.000	0.000	180.000	696.000	987.000	-0.000	Terminate	
Unknown	92.98519	01/16/0117 09:25.15	00005579	10.546	Inter617t1-2	0.321	1	2	270.000	11.111	-0.4	0.201	0.000	D	F	1710.3	269.752	0.209	0.002	1153.385	1303.928	0.023	-	-0.017	0.817	-	-	-	22	7.460	78.670	-	PAVEMENT_GENERAL	Urban	F	1011101000011101	0000000000010000	-	car	554.098	63.734	0.000	0.000	180.000	696.000	987.000	-0.000	Terminate	
Unknown	93.98521	01/16/0117 09:25.16	00005639	11.353	Inter617t1-2	0.274	1	2	270.000	11.111	0.1	0.208	0.000	D	F	1755.9	269.764	0.207	-0.001	1142.433	1303.880	0.023	-	0.006	0.808	-	-	-	22	7.203	81.776	-	PAVEMENT_GENERAL	Urban	F	1011101000011101	0000000000010000	-	car	545.104	58.710	0.000	0.000	180.000	696.000	987.000	-0.000	Terminate	
Unknown	94.98523	01/16/0117 09:25.17	00005699	12.215	Inter617t1-2	0.214	1	2	270.000	11.111	-1.1	0.245	0.000	D	F	1839.6	269.614	0.207	0.006	1130.656	1303.821	0.022	-	-0.047	0.877	-	-	-	22	6.873	83.947	-	PAVEMENT_GENERAL	Urban	F	1011101000011101	0000000000010000	-	car	535.508	53.987	0.000	0.000	180.000	696.000	987.000	-0.000	Terminate	
Unknown	95.98525	01/16/0117 09:25.18	00005759	13.058	Inter617t1-2	0.103	1	2	270.000	11.111	-0.9	0.243	0.000	D	F	1869.0	269.381	0.205	0.006	1118.014	1303.710	0.023	-	-0.046	0.810	-	-	-	22	6.534	85.320	-	PAVEMENT_GENERAL	Urban	F	1011101000011101	0000000000010000	-	car	525.278	49.893	0.000	0.000	180.000	696.000	987.000	-0.000	Terminate	
Unknown	96.98528	01/16/0117 09:25.19	00005819	13.851	Inter617t1-2	-0.047	1	2	270.000	11.111	1.9	0.256	0.000	D	F	1918.9	269.428	0.204	-0.010	1104.558	1303.560	0.023	-	0.076	0.781	-	-	-	22	6.317	87.497	-	PAVEMENT_GENERAL	Urban	F	1011101000011101	0000000000010000	-	car	514.487	46.633	0.000	0.000	180.000	696.000	987.000	-0.000	Terminate	
Unknown	97.98529	01/16/0117 09:25.20	00005879	14.615	Inter617t1-2	-0.144	1	2	270.000	11.111	1.1	0.266	0.000	D	F	1965.6	269.780	0.203	-0.008	1090.324	1303.463	0.023	-	0.067	0.750	-	-	-	-	-	-	-	PAVEMENT_GENERAL	Urban	F	1111101000011101	0000000000010000	-	car	503.249	44.016	0.000	0.000	180.000	696.000	987.000	-0.000	Terminate	
Unknown	98.98531	01/16/0117 09:25.21	00005939	15.122	Inter617t1-2	-0.180	1	2	270.000	11.111	0.2	0.000	0.000	D	F	1478.1	269.914	0.163	-0.001	1075.364	1303.427	0.026	-	0.012	-0.617	-	-	-	-	-	-	-	PAVEMENT_GENERAL	Urban	F	1011101000011101	0000000000010000	-	car	491.647	42.283	0.000	0.000	180.000	696.000	987.000	-0.000	Terminate	
Unknown	99.98534	01/16/0117 09:25.22	00005999	14.549	Inter617t1-2	-0.171	1	2	270.000	11.111	1.5	0.000	0.000	D	F	1429.0	270.230	0.189	-0.013	1060.530	1303.436	0.029	-	0.098	-0.568	-	-	-	-	-	-	-	PAVEMENT_GENERAL	Urban	F	1011101000011101	0000000000010000	-	car	480.355	43.874	0.000	0.000	180.000	696.000	987.000	-0.000	Terminate	
Unknown	100.98535	01/16/0117 09:25.23	00006059	12.360	Inter617t1-2	-0.093	1	2	270.000	11.111	-4.8	0.000	0.218	D	F	1178.2	270.267	0.133	0.023	1046.834	1303.513	0.035	-	-0.144	-3.281	-	-	-	-	-	-	-	PAVEMENT_GENERAL	Urban	F	1011101000011101	0000000000010000	-	car	470.150	51.449	0.000	0.000	180.000	696.000	987.000	-0.000	Terminate	
Unknown	101.98537	01/16/0117 09:25.24	00006119	10.259	Inter617t1-2	-0.124	1	2	270.000	11.111	1.2	0.000	0.000	D	F	1008.4	269.529	0.199	-0.004	1035.830	1303.483	0.028	-	0.015	-0.507	-	-	-	-	-	-	-	PAVEMENT_GENERAL	Urban	F	1011101000011101	0000000000010000	-	car	462.017	61.074	0.000	0.000	180.000	696.000	987.000	-0.000	Terminate	
Unknown	102.98539	01/16/0117 09:25.25	00006179	9.835	Inter617t1-2	-0.165	1	2	270.000	11.111	2.5	0.062	0.000	D	F	1223.4	270.016	0.203	-0.007	1025.813	1303.441	0.027	-	0.076	-0.098	-	-	-	-	-	-	-	PAVEMENT_GENERAL	Urban	F	1011101000011101	0000000000010000	-	car	454.709	64.088	0.000	0.000	180.000	696.000	987.000	-0.000	Terminate	
Unknown	103.98541	01/16/0117 09:25.26	00006239	10.241	Inter617t1-2	-0.110	1	2	270.000	11.111	3.3	0.166	0.000	D	F	1569.1	270.565	0.201	-0.013	1015.835	1303.497	0.023	-	0.101	0.560	-	-	-	-	-	-	-	PAVEMENT_GENERAL	Urban	F	1011101000011101	0000000000010000	-	car	447.601	62.096	0.000	0.000	180.000	696.000	987.000	-0.000	Terminate	
Unknown	104.98544	01/16/0117 09:25.27	00006299	11.093	Inter617t1-2	0.072	1	2	270.000	11.111	5.4	0.046	0.000	D	F	1397.0	271.430	0.205	-0.027	1005.195	1303.679	0.022	-	0.200	0.661	-	-	-	-	-	-	-	PAVEMENT_GENERAL	Urban	F	1011101000011101	0000000000010000	-	car	440.231	58.313	0.000	0.000	180.000	696.000	987.000	-0.000	Terminate	
Unknown	105.98545	01/16/0117 09:25.28	00006359	10.691	Inter618t1-0	-0.308	1	2	270.000	24.444	-4.6	0.092	0.000	D	F	1407.7	271.536	0.231	0.011	994.319	1303.992	0.028	-	-0.149	0.035	-	-	-	32	1.227	13.117	8.078	FREEWAY_SMOOTH	Urban	F	1011101000011101	0000000000010000	-	car	432.932	60.845	0.000	0.000	180.000	696.000	987.000	-0.000	Terminate	
Unknown	106.98547	01/16/0117 09:25.29	00006419	11.124	Inter618t1-0	-0.100	1	2	269.859	24.444	-4.9	0.219	0.000	D	F	1772.4	270.643	0.271	-0.143	983.463	1304.190	0.035	-	-0.177	0.831	-	-	-	32	1.105	12.295	215.272	FREEWAY_SMOOTH	Urban	F	1011101000011101	0000000000010000	-	car	425.711	57.707	0.000	0.000	180.000	696.000	987.000	-0.000	Terminate	
Unknown	107.98550	01/16/0117 09:25.30	00006479	12.167	Inter618t1-0	0.001	1	2	269.449	24.444	-3.9	0.289	0.000	D	F	2197.6	269.871	0.271	-0.309	971.844	1304.228	0.045	-	-0.160	1.182	-	-	-	32	1.046	12.722	-	FREEWAY_SMOOTH	Urban	F	1011101000011101	0000000000010000	-	car	418.025	52.227	0.000	0.000	180.000	696.000	987.000	-0.000	Terminate	
Unknown	108.98551	01/16/0117 09:25.31	00006539	13.475	Inter618t1-0	0.041	1	2	268.691	24.444	-7.6	0.462	0.000	D	F	2452.1	268.696	0.272	-0.461	959.048	1304.069	0.057	-	-0.352	1.433	-	-	-	32	1.031	13.894	-	FREEWAY_SMOOTH	Urban	F	1111101000011101	0000000000010000	-	car	409.620	46.348	0.000	0.000	180.000	696.000	987.000	-0.000	Terminate	
Unknown	109.98553	01/16/0117 09:25.32	00006599	14.980	Inter618t1-0	-0.021	1	2	267.465	24.444	-6.0	0.520	0.000	D	F	2647.8	267.230	0.263	-0.661	944.828	1303.543	0.071	-	-0.345	1.475	-	-	-	32	1.047	15.687	-	FREEWAY_SMOOTH	Urban	F	1011101000011101	0000000000010000	-	car	400.276	40.777	0.000	0.000	180.000	696.000	987.000	-0.000	Terminate	
Unknown	110.98555	01/16/0117 09:25.33	00006659	16.454	Inter618t1-0	-0.076	1	2	265.655	24.444	-7.7	0.559	0.000	D	F	2855.9	265.600	0.263	-0.858	929.141	1302.565	0.086	-	-0.502	1.470	-	-	-	32	1.084	17.829	-	FREEWAY_SMOOTH	Urban	F	1011101000011101	0000000000010000	-	car	389.987	36.232	0.000	0.000	180.000	696.000	987.000	-0.000	Terminate	
Unknown	111.98557	01/16/0117 09:25.34	00006719	17.935	Inter618t1-0	-0.021	1	2	263.137	24.444	-9.6	0.653	0.000	D	F	3085.2	263.639	0.270	-1.074	912.026	1300.967	0.104	-	-0.664	1.509	-	-	-	32	1.100	19.721	-	FREEWAY_SMOOTH	Urban	F	1011101000011101	0000000000010000	-	car	378.748	32.260	0.000	0.000	180.000	696.000	987.000	-0.000	Terminate	
Unknown	112.98560	01/16/0117 09:25.35	00006779	19.202	Inter618t1-0	0.258	1	2	259.757	24.444	-17.1	0.312	0.000	D	F	2445.4	260.755	0.275	-1.259	893.557	1298.505	0.132	-	-1.207	0.861	-	-	-	32	1.078	20.706	-	FREEWAY_SMOOTH	Urban	F	1011101000011101	0000000000010000	-	car	366.509	28.733	0.000	0.000	180.000	696.000	987.000	-0.000	Terminate	
Unknown	113.98561	01/16/0117 09:25.36	00006839	19.052	Inter618t1-0	0.493	1	2	255.565	24.444	-25.9	0.104	0.000	D	F	1598.3	254.928	0.234	-1.378	874.711	1294.665	0.167	-	-2.340	-0.237	-	-	-	32	1.115	21.239	-	FREEWAY_SMOOTH	Urban	F	1011101000011101	0000000000010000	-	car	353.443	26.134	0.000	0.000	180.000	696.000	987.000	-0.000	Terminate	
Unknown	114.98563	01/16/0117 09:25.37	00006899	19.240	Inter618t1-0	0.080	1	2	250.936	24.444	-20.4	0.205	0.000	D	F	1820.5	248.790	0.117	-1.525	856.547	1288.798	0.157	-	-1.796	0.316	-	-	-	32	1.164	22.393	-	FREEWAY_SMOOTH	Urban	F	1011101000011101	0000000000010000	-	car	339.485	23.302	0.000	0.000	180.000	696.000	987.000	-0.000	Terminate	
Unknown	115.98566	01/16/0117 09:25.38	00006959	19.450	Inter618t1-0	-0.604	1	2	246.198	24.444	-13.8	0.224	0.000	D	F	1881.0	244.067	0.119	-1.583	838.789	1281.119	0.137	-	-1.354	0.278	-	-	-	32	1.194	23.217	-	FREEWAY_SMOOTH	Urban	F	1011101000011101	0000000000010000	-	car	324.588	21.228	0.000	0.000	180.000	696.000	987.000	-0.000	Terminate	
Unknown	116.98567	01/16/0117 09:25.39	00007019	19.742	Inter618t1-0	-1.076	1	2	241.394	24.444	-14.2	0.257	0.000	D	F	1908.0	240.539	0.160	-1.599	821.420	1272.074	0.122	-	-1.212	0.345	-	-	-	32	1.205	23.792	-	FREEWAY_SMOOTH	Urban	F	1011101000011101	0000000000010000	-	car	309.084	19.550	0.000	0.000	180.000	696.000	987.000	-0.000	Terminate	
Unknown	117.98569	01/16/0117 09:25.40	00007079	20.191	Inter618t1-0	-1.131	1	2	236.500	24.444	-17.5	0.360	0.000	D	F	2315.9	236.667	0.191	-1.568	804.355	1261.763	0.119	-	-1.442	0.611	-	-	-	32	1.187	23.958	319.362	FREEWAY_SMOOTH	Urban	F	1011101000011101	0000000000010000	-	car	292.997	17.746	0.000	0.000	180.000	696.000	987.000	-0.000	Terminate	
Unknown	118.98571	01/16/0117 09:25.41	00007139	20.817	Inter618t1-0	-0.927	1	2	231.454	24.444	-24.6	0.386	0.000	D	F	2412.8	231.596	0.188	-1.482	787.643	1249.895	0.126	-	-2.097	0.652	-	-	-	32	1.117	23.257	33.171	FREEWAY_SMOOTH	Urban	F	1011101000011101	0000000000010000	-	car	276.050	15.702	0.000	0.000	180.000	696.000	987.000	-0.000	Terminate	
Unknown	119.98573	01/16/0117 09:25.42	00007199	21.452	Inter618t1-0	-0.874	1	2	226.278	24.444	-20.2	0.414	0.000	D	F	2470.7	225.800	0.164	-1.503	771.680	1236.056	0.127	-	-1.945	0.661	-	-	-	32	1.040	22.301	16.694	FREEWAY_SMOOTH	Urban	F	1011101000011101	0000000000010000	-	car	257.941	13.734	0.000	0.000	180.000	696.000	987.000	-0.000	Terminate	
Unknown	120.98576	01/16/0117 09:25.43	00007259	22.064	Inter618t1-0	-0.830	1	2	220.930	24.444	-15.8	0.273	0.000	D	F	2445.7	221.002	0.178	-1.541	756.620	1220.346	0.129	-	-1.688	0.484	-	-	-	32	0.937	20.674	10.612	FREEWAY_SMOOTH	Urban	F	1011101000011101	0000000000010000	-	car	238.732	12.084	0.000	0.000	180.000	696.000	987.000	-0.000	Terminate	
Unknown	121.98577	01/16/0117 09:25.44	00007319	21.998	Inter618t1-0	-0.492	1	2	215.527	24.444	-17.4	0.261	0.000	D	F	1997.4	216.268	0.202	-1.514	742.703	1203.268	0.141	-	-1.882	0.234	-	-	-	32	0.855	18.818	9.998	FREEWAY_SMOOTH	Urban	F	1011101000011101	0000000000010000	-	car	218.894	10.899	0.000	0.000	180.000	696.000	987.000	-0.000	Terminate	
Unknown	122.98579	01/16/0117 09:25.45	00007379	22.203	Inter618t1-0	0.059	1	2	210.123	24.444	-19.9	0.296	0.000	D	F	2031.3	211.362	0.214	-1.500	730.251	1185.026	0.157	-	-1.965	0.286	-	-	-	32	0.763	16.948	8.123	FREEWAY_SMOOTH	Urban	F	1011101000011101	0000000000010000	-	car	198.607	9.618	0.000	0.000	180.000	696.000	987.000	-0.000	Terminate	
Unknown	123.98581	01/16/0117 09:25.46	00007439	22.159	Inter618t1-0	0.638	1	2	204.685	24.444	-24.2	0.030	0.000	D	F	1514.9	204.991	0.167	-1.412	719.488	1165.584	0.176	-	-2.667	-0.414	-	-	-	32	0.662	14.679	7.184	FREEWAY_SMOOTH	Urban	F	1011101000011101	0000000000010000	-	car	177.763	8.411	0.000	0.000	180.000	696.000	987.000	-0.000	Terminate	
Unknown	124.98583	01/16/0117 09:25.47	00007499	21.629	Inter618t1-0	0.810	1	2	199.317	24.444	-19.6	0.000	0.000	D	F	1474.1	199.030	0.148	-1.476	711.088	1145.347	0.184	-	-2.126	-0.640	-	-	-	32	0.601	12.991	8.589	FREEWAY_SMOOTH	Urban	F	1011101000011101	0000000000010000	-	car	156.705	7.454	0.000	0.000	180.000	696.000	987.000	-0.000	Terminate	
Unknown	125.98586	01/16/0117 09:25.48	00007559	20.997	Inter618t1-0	0.835	1	2	194.186	24.444	-7.1	0.000	0.000	D	F	1431.8	194.316	0.087	-1.541	704.899	1124.963	0.178	-	-1.165	-0.633	-	-	-	32	0.576	12.090	13.723	FREEWAY_SMOOTH	Urban	F	1011101000011101	0000000000010000	-	car	135.890	6.585	0.000	0.000	180.000	696.000	987.000	-0.000	Terminate	
Unknown	126.98587	01/16/0117 09:25.49	00007619	20.874	Inter618t1-0	1.249	1	2	189.735	24.444	-17.7	0.058	0.000	D	F	1525.7	190.975	0.122	-1.187	700.167	1104.609	0.160	-	-1.582	-0.290	-	-	-	32	0.438	9.138	12.062	FREEWAY_SMOOTH	Urban	F	1011101000011101	0000000000010000	-	car	115.323	5.593	0.000	0.000	180.000	696.000	987.000	-0.000	Terminate	
Unknown	127.98589	01/16/0117 09:25.50	00007679	20.216	Inter618t1-0	1.365	1	2	186.165	24.444	-30.5	0.000	0.000	D	F	1377.0	183.596	0.031	-0.714	697.216	1084.275	0.139	-	-2.979	-0.631	-	-	-	32	0.433	8.757	87.211	FREEWAY_SMOOTH	Urban	F	1011101000011101	0000000000010000	-	car	94.924	4.701	0.000	0.000	180.000	696.000	987.000	-0.000	Terminate	
Unknown	128.98592	01/16/0117 09:25.51	00007739	19.762	Inter618t1-0	0.028	1	2	183.474	24.444	-0.7	0.123	0.000	D	F	1623.6	178.254	0.045	-0.750	696.888	1064.359	0.089	-	-0.693	-0.107	-	-	-	-	-	-	-	FREEWAY_SMOOTH	Urban	F	1011101000011101	0000000000010000	-	car	75.005	3.799	0.000	0.000	180.000	696.000	987.000	-0.000	Terminate	
Unknown	129.98593	01/16/0117 09:25.52	00007799	19.726	Inter618t1-0	-1.279	1	2	181.543	24.444	8.8	0.182	0.000	D	F	1760.3	179.668	0.130	-0.648	697.344	1044.626	0.056	-	0.696	0.063	-	-	-	-	-	-	-	FREEWAY_SMOOTH	Urban	F	1011101000011101	0000000000010000	-	car	55.282	2.804	0.000	0.000	180.000	696.000	987.000	-0.000	Terminate	
Unknown	130.98595	01/16/0117 09:25.53	00007859	19.798	Inter618t1-0	-1.490	1	2	180.394	24.444	1.5	0.152	0.000	D	F	1737.0	181.163	0.155	-0.313	697.236	1024.866	0.040	-	0.275	0.096	-	-	-	-	-	-	-	FREEWAY_SMOOTH	Urban	F	1011101000011101	0000000000010000	-	car	35.535	1.813	0.200	2.000	180.000	696.000	986.992	-0.000	Terminate	
Unknown	131.98598	01/16/0117 09:25.54	00007919	19.357	Inter618t1-0	-1.264	1	2	180.001	24.444	-19.7	0.000	0.000	D	F	1319.7	179.550	0.134	0.171	696.964	1005.232	0.030	-	-1.300	-0.609	-	-	-	-	-	-	-	FREEWAY_SMOOTH	Urban	F	1011101000011101	0000000000010000	-	car	17.084	0.997	2.200	2.000	176.898	696.061	985.810	-0.000	Terminate	
Unknown	132.98599	01/16/0117 09:25.55	00007979	18.674	-	-	CL	0	-	-	-27.1	0.000	0.000	D	F	1271.8	169.785	0.131	0.467	698.230	986.265	0.032	-	-3.452	-0.605	-	-	-	-	-	-	-	PAVEMENT_GENERAL	Urban	F	1011101000011101	0000000000010000	-	car	1.784	0.163	4.200	2.000	177.011	696.239	982.631	-0.000	Terminate	
