ZoneName	Time	SystemTime	Frame	Velocity	LaneName	LanePos	LaneIndex	LaneCount	LaneHeading	SpeedLimit	Steer	Accel	Brake	Gear	Horn	SubjectEngineRPM	SubjectHeading	SubjectPitch	SubjectRoll	SubjectX	SubjectY	SubjectZ	Signal	LatAccel	LongAccel	Collision	CollisionAngle	CollisionVelocity	VehAhead	HeadwayTime	HeadwayDist	TTC	TerrainType	CultureType	Slip	DigitalInputs	DigitalInputs2	ActiveTrigger	EntityName	DistToEntity	TimeToEntity	EntityVelocity	EntityAccel	EntityHeading	EntityX	EntityY	EntityZ	GrabData	
Unknown	0.00000	10/22/0116 08:24.37	00000000	0.000	-	-	-	0	-	-	0.0	0.000	0.000	P	F	0.0	0.000	0.000	0.000	0.000	0.000	0.000	-	0.000	0.000	-	-	-	-	-	-	-	FREEWAY_SMOOTH	Urban	F	0000000000000000	0000000000000000	-	-	-	-	-	-	-	-	-	-	Terminate	
Unknown	0.01667	10/22/0116 08:24.37	00000001	0.008	Inter828t1-2	1.611	1	2	0.000	24.444	-217.0	0.005	0.000	D	F	0.0	0.000	0.002	-0.000	1905.911	404.964	0.000	-	-0.003	0.228	-	-	-	CAR1	-	13.011	-	FREEWAY_GENERAL	Urban	F	1111101000000001	0000000000000000	TriggerC1	-	-	-	-	-	-	-	-	-	Terminate	
Unknown	0.03333	10/22/0116 08:24.37	00000002	0.008	Inter828t1-2	1.611	1	2	0.000	24.444	-217.0	0.004	0.000	D	F	0.0	0.000	0.004	-0.001	1905.911	404.964	0.000	-	-0.001	0.153	-	-	-	CAR1	-	13.012	-	FREEWAY_GENERAL	Urban	F	1011101000000001	0000000000000000	-	-	-	-	-	-	-	-	-	-	Terminate	
Unknown	0.05000	10/22/0116 08:24.37	00000003	0.008	Inter828t1-2	1.611	1	2	0.000	24.444	-217.0	0.004	0.000	D	F	0.0	0.001	0.006	-0.002	1905.911	404.964	0.000	-	-0.005	0.058	-	-	-	CAR1	-	13.014	-	FREEWAY_GENERAL	Urban	F	1111101000000001	0000000000000000	-	-	-	-	-	-	-	-	-	-	Terminate	
Unknown	0.06667	10/22/0116 08:24.37	00000004	0.008	Inter828t1-2	1.611	1	2	0.000	24.444	-217.0	0.002	0.000	D	F	0.0	0.001	0.008	-0.003	1905.911	404.965	0.001	-	-0.011	0.013	-	-	-	CAR1	-	13.017	-	FREEWAY_GENERAL	Urban	F	1011101000000001	0000000000000000	-	-	-	-	-	-	-	-	-	-	Terminate	
Unknown	0.08333	10/22/0116 08:24.37	00000005	0.008	Inter828t1-2	1.611	1	2	0.000	24.444	-217.0	0.007	0.000	D	F	0.0	0.002	0.010	-0.005	1905.911	404.965	0.001	-	-0.013	-0.004	-	-	-	CAR1	-	13.022	-	FREEWAY_GENERAL	Urban	F	1011101000000001	0000000000000000	-	-	-	-	-	-	-	-	-	-	Terminate	
Unknown	0.10000	10/22/0116 08:24.37	00000006	0.007	Inter828t1-2	1.611	1	2	0.000	24.444	-217.0	0.004	0.000	D	F	0.0	0.002	0.012	-0.007	1905.911	404.965	0.002	-	-0.014	-0.013	-	-	-	CAR1	-	13.028	-	FREEWAY_GENERAL	Urban	F	1111101000000001	0000000000000000	-	-	-	-	-	-	-	-	-	-	Terminate	
Unknown	0.11667	10/22/0116 08:24.37	00000007	0.007	Inter828t1-2	1.611	1	2	0.000	24.444	-217.0	0.004	0.000	D	F	0.0	0.003	0.015	-0.009	1905.911	404.965	0.002	-	-0.013	-0.019	-	-	-	CAR1	-	13.037	-	FREEWAY_GENERAL	Urban	F	1011101000000001	0000000000000000	-	-	-	-	-	-	-	-	-	-	Terminate	
Unknown	0.13334	10/22/0116 08:24.37	00000008	0.006	Inter828t1-2	1.611	1	2	0.000	24.444	-217.0	0.004	0.000	D	F	0.0	0.003	0.018	-0.012	1905.911	404.965	0.003	-	-0.011	-0.023	-	-	-	CAR1	-	13.046	-	FREEWAY_GENERAL	Urban	F	1011101000000001	0000000000000000	-	-	-	-	-	-	-	-	-	-	Terminate	
Unknown	0.15000	10/22/0116 08:24.37	00000009	0.006	Inter828t1-2	1.611	1	2	0.000	24.444	-217.0	0.004	0.000	D	F	0.0	0.003	0.022	-0.014	1905.911	404.965	0.003	-	-0.008	-0.024	-	-	-	CAR1	-	13.058	-	FREEWAY_GENERAL	Urban	F	1011101000000001	0000000000000000	-	-	-	-	-	-	-	-	-	-	Terminate	
Unknown	0.16667	10/22/0116 08:24.37	00000010	0.006	Inter828t1-2	1.611	1	2	0.000	24.444	-217.0	0.005	0.000	D	F	0.0	0.004	0.027	-0.017	1905.911	404.965	0.004	-	-0.005	-0.024	-	-	-	CAR1	-	13.071	-	FREEWAY_GENERAL	Urban	F	1011101000000001	0000000000000000	-	-	-	-	-	-	-	-	-	-	Terminate	
Unknown	0.18334	10/22/0116 08:24.37	00000011	0.005	Inter828t1-2	1.611	1	2	0.000	24.444	-217.0	0.005	0.000	D	F	0.0	0.004	0.032	-0.020	1905.911	404.966	0.004	-	-0.003	-0.021	-	-	-	CAR1	-	13.086	-	FREEWAY_GENERAL	Urban	F	1011101000000001	0000000000000000	-	-	-	-	-	-	-	-	-	-	Terminate	
Unknown	0.20000	10/22/0116 08:24.37	00000012	0.005	Inter828t1-2	1.611	1	2	0.000	24.444	-217.0	0.005	0.000	D	F	0.0	0.004	0.038	-0.022	1905.911	404.966	0.005	-	-0.000	-0.016	-	-	-	CAR1	-	13.103	-	FREEWAY_GENERAL	Urban	F	1011101000000001	0000000000000000	-	-	-	-	-	-	-	-	-	-	Terminate	
Unknown	0.21667	10/22/0116 08:24.37	00000013	0.005	Inter828t1-2	1.611	1	2	0.000	24.444	-217.0	0.007	0.000	D	F	0.0	0.005	0.043	-0.024	1905.911	404.966	0.005	-	0.002	-0.010	-	-	-	CAR1	-	13.121	-	FREEWAY_GENERAL	Urban	F	1011101000000001	0000000000000000	-	-	-	-	-	-	-	-	-	-	Terminate	
Unknown	0.23334	10/22/0116 08:24.37	00000014	0.005	Inter828t1-2	1.611	1	2	0.000	24.444	-217.0	0.007	0.000	D	F	0.0	0.005	0.049	-0.026	1905.911	404.966	0.006	-	0.004	-0.003	-	-	-	CAR1	-	13.141	-	FREEWAY_GENERAL	Urban	F	1011101000000001	0000000000000000	-	-	-	-	-	-	-	-	-	-	Terminate	
Unknown	0.25001	10/22/0116 08:24.37	00000015	0.005	Inter828t1-2	1.611	1	2	0.000	24.444	-217.0	0.005	0.000	D	F	0.0	0.005	0.054	-0.028	1905.911	404.966	0.006	-	0.005	0.003	-	-	-	CAR1	-	13.162	-	FREEWAY_GENERAL	Urban	F	1111101000000001	0000000000000000	-	-	-	-	-	-	-	-	-	-	Terminate	
Unknown	0.26667	10/22/0116 08:24.37	00000016	0.005	Inter828t1-2	1.611	1	2	0.000	24.444	-217.0	0.005	0.000	D	F	0.0	0.005	0.058	-0.029	1905.911	404.966	0.006	-	0.006	0.008	-	-	-	CAR1	-	13.185	-	FREEWAY_GENERAL	Urban	F	1011101000000001	0000000000000000	-	-	-	-	-	-	-	-	-	-	Terminate	
Unknown	0.28334	10/22/0116 08:24.37	00000017	0.006	Inter828t1-2	1.611	1	2	0.000	24.444	-217.0	0.005	0.000	D	F	0.0	0.006	0.061	-0.030	1905.911	404.966	0.007	-	0.007	0.011	-	-	-	CAR1	-	13.210	-	FREEWAY_GENERAL	Urban	F	1011101000000001	0000000000000000	-	-	-	-	-	-	-	-	-	-	Terminate	
Unknown	0.30001	10/22/0116 08:24.37	00000018	0.006	Inter828t1-2	1.611	1	2	0.000	24.444	-217.0	0.005	0.000	D	F	0.0	0.006	0.063	-0.030	1905.911	404.966	0.007	-	0.006	0.011	-	-	-	CAR1	-	13.237	-	FREEWAY_GENERAL	Urban	F	1011101000000001	0000000000000000	-	-	-	-	-	-	-	-	-	-	Terminate	
Unknown	0.31667	10/22/0116 08:24.37	00000019	0.006	Inter828t1-2	1.611	1	2	0.000	24.444	-217.0	0.005	0.000	D	F	0.0	0.006	0.065	-0.030	1905.911	404.967	0.007	-	0.006	0.008	-	-	-	CAR1	-	13.265	-	FREEWAY_GENERAL	Urban	F	1111101000000001	0000000000000000	-	-	-	-	-	-	-	-	-	-	Terminate	
Unknown	0.33334	10/22/0116 08:24.37	00000020	0.006	Inter828t1-2	1.611	1	2	0.000	24.444	-217.0	0.005	0.000	D	F	0.0	0.005	0.066	-0.029	1905.911	404.967	0.007	-	0.005	0.003	-	-	-	CAR1	-	13.295	-	FREEWAY_GENERAL	Urban	F	1011101000000001	0000000000000000	-	-	-	-	-	-	-	-	-	-	Terminate	
Unknown	0.35001	10/22/0116 08:24.37	00000021	0.006	Inter828t1-2	1.611	1	2	0.000	24.444	-217.0	0.004	0.000	D	F	0.0	0.005	0.067	-0.028	1905.911	404.967	0.008	-	0.004	-0.005	-	-	-	CAR1	-	13.326	-	FREEWAY_GENERAL	Urban	F	1011101000000001	0000000000000000	-	-	-	-	-	-	-	-	-	-	Terminate	
Unknown	0.36667	10/22/0116 08:24.37	00000022	0.005	Inter828t1-2	1.611	1	2	0.000	24.444	-217.0	0.005	0.000	D	F	0.0	0.005	0.067	-0.026	1905.911	404.967	0.008	-	0.002	-0.014	-	-	-	CAR1	-	13.360	-	FREEWAY_GENERAL	Urban	F	1011101000000001	0000000000000000	-	-	-	-	-	-	-	-	-	-	Terminate	
Unknown	0.38334	10/22/0116 08:24.37	00000023	0.005	Inter828t1-2	1.611	1	2	0.000	24.444	-217.0	0.004	0.000	D	F	0.0	0.004	0.067	-0.024	1905.911	404.967	0.008	-	0.001	-0.023	-	-	-	CAR1	-	13.395	-	FREEWAY_GENERAL	Urban	F	1111101000000001	0000000000000000	-	-	-	-	-	-	-	-	-	-	Terminate	
Unknown	0.40001	10/22/0116 08:24.37	00000024	0.004	Inter828t1-2	1.611	1	2	0.000	24.444	-217.0	0.004	0.000	D	F	0.0	0.003	0.068	-0.021	1905.911	404.967	0.009	-	0.000	-0.031	-	-	-	CAR1	-	13.431	-	FREEWAY_GENERAL	Urban	F	1011101000000001	0000000000000000	-	-	-	-	-	-	-	-	-	-	Terminate	
Unknown	0.41668	10/22/0116 08:24.37	00000025	0.003	Inter828t1-2	1.610	1	2	0.000	24.444	-217.0	0.005	0.000	D	F	0.0	0.002	0.069	-0.017	1905.910	404.967	0.009	-	-0.000	-0.039	-	-	-	CAR1	-	13.469	-	FREEWAY_GENERAL	Urban	F	1011101000000001	0000000000000000	-	-	-	-	-	-	-	-	-	-	Terminate	
Unknown	0.43334	10/22/0116 08:24.37	00000026	0.003	Inter828t1-2	1.610	1	2	0.000	24.444	-217.0	0.004	0.000	D	F	0.0	0.001	0.070	-0.013	1905.910	404.967	0.009	-	-0.000	-0.044	-	-	-	CAR1	-	13.509	-	FREEWAY_GENERAL	Urban	F	1011101000000001	0000000000000000	-	-	-	-	-	-	-	-	-	-	Terminate	
Unknown	0.45001	10/22/0116 08:24.37	00000027	0.002	Inter828t1-2	1.610	1	2	0.000	24.444	-217.0	0.007	0.000	D	F	0.0	0.000	0.073	-0.008	1905.910	404.967	0.010	-	0.001	-0.046	-	-	-	CAR1	-	13.551	-	FREEWAY_GENERAL	Urban	F	1011101000000001	0000000000000000	-	-	-	-	-	-	-	-	-	-	Terminate	
Unknown	0.46668	10/22/0116 08:24.37	00000028	0.001	Inter828t1-2	1.610	1	2	0.000	24.444	-217.0	0.005	0.000	D	F	0.0	0.000	0.076	-0.002	1905.910	404.967	0.010	-	0.002	-0.045	-	-	-	CAR1	-	13.594	-	FREEWAY_GENERAL	Urban	F	1011101000000001	0000000000000000	-	-	-	-	-	-	-	-	-	-	Terminate	
Unknown	0.48334	10/22/0116 08:24.37	00000029	0.001	Inter828t1-2	1.610	1	2	0.000	24.444	-217.0	0.002	0.000	D	F	0.0	0.000	0.080	0.004	1905.910	404.967	0.010	-	0.004	-0.042	-	-	-	CAR1	-	13.639	-	FREEWAY_GENERAL	Urban	F	1011101000000001	0000000000000000	-	-	-	-	-	-	-	-	-	-	Terminate	
Unknown	0.50001	10/22/0116 08:24.37	00000030	0.000	Inter828t1-2	1.610	1	2	0.000	24.444	-217.0	0.002	0.000	D	F	0.0	0.000	0.084	0.011	1905.910	404.967	0.011	-	0.006	-0.037	-	-	-	CAR1	-	13.686	-	FREEWAY_GENERAL	Urban	F	1111101000000001	0000000000000000	-	-	-	-	-	-	-	-	-	-	Terminate	
Unknown	0.51668	10/22/0116 08:24.37	00000031	-0.000	Inter828t1-2	1.610	1	2	0.000	24.444	-217.0	0.004	0.000	D	F	0.0	0.000	0.089	0.018	1905.910	404.967	0.011	-	0.008	-0.029	-	-	-	CAR1	-	13.734	-	FREEWAY_GENERAL	Urban	F	1011101000000001	0000000000000000	-	-	-	-	-	-	-	-	-	-	Terminate	
Unknown	0.53334	10/22/0116 08:24.38	00000032	-0.001	Inter828t1-2	1.610	1	2	0.000	24.444	-217.0	0.005	0.000	D	F	0.0	0.000	0.095	0.025	1905.910	404.967	0.012	-	0.010	-0.021	-	-	-	CAR1	-	13.784	-	FREEWAY_GENERAL	Urban	F	1011101000000001	0000000000000000	-	-	-	-	-	-	-	-	-	-	Terminate	
Unknown	0.55001	10/22/0116 08:24.38	00000033	-0.001	Inter828t1-2	1.610	1	2	0.000	24.444	-217.1	0.007	0.000	D	F	0.0	0.000	0.100	0.033	1905.910	404.967	0.012	-	0.012	-0.012	-	-	-	CAR1	-	13.835	-	FREEWAY_GENERAL	Urban	F	1011101000000001	0000000000000000	-	-	-	-	-	-	-	-	-	-	Terminate	
Unknown	0.56668	10/22/0116 08:24.38	00000034	-0.001	Inter828t1-2	1.610	1	2	0.000	24.444	-217.1	0.005	0.000	D	F	0.0	0.000	0.105	0.040	1905.910	404.967	0.012	-	0.012	-0.003	-	-	-	CAR1	-	13.889	-	FREEWAY_GENERAL	Urban	F	1111101000000001	0000000000000000	-	-	-	-	-	-	-	-	-	-	Terminate	
Unknown	0.58334	10/22/0116 08:24.38	00000035	-0.000	Inter828t1-2	1.610	1	2	0.000	24.444	-217.1	0.004	0.000	D	F	0.0	0.000	0.111	0.048	1905.910	404.968	0.013	-	0.012	0.005	-	-	-	CAR1	-	13.944	-	FREEWAY_GENERAL	Urban	F	1011101000000001	0000000000000000	-	-	-	-	-	-	-	-	-	-	Terminate	
Unknown	0.60001	10/22/0116 08:24.38	00000036	-0.000	Inter828t1-2	1.610	1	2	0.000	24.444	-217.1	0.002	0.000	D	F	0.0	0.000	0.115	0.055	1905.910	404.968	0.013	-	0.011	0.011	-	-	-	CAR1	-	14.000	-	FREEWAY_GENERAL	Urban	F	1011101000000001	0000000000000000	-	-	-	-	-	-	-	-	-	-	Terminate	
Unknown	0.61668	10/22/0116 08:24.38	00000037	0.000	Inter828t1-2	1.610	1	2	0.000	24.444	-217.1	0.004	0.000	D	F	0.0	0.000	0.120	0.062	1905.910	404.968	0.014	-	0.010	0.016	-	-	-	CAR1	-	14.058	-	FREEWAY_GENERAL	Urban	F	1011101000000001	0000000000000000	-	-	-	-	-	-	-	-	-	-	Terminate	
Unknown	0.63335	10/22/0116 08:24.38	00000038	0.001	Inter828t1-2	1.610	1	2	0.000	24.444	-217.1	0.004	0.000	D	F	0.0	0.000	0.123	0.068	1905.910	404.968	0.014	-	0.008	0.019	-	-	-	CAR1	-	14.118	-	FREEWAY_GENERAL	Urban	F	1011101000000001	0000000000000000	-	-	-	-	-	-	-	-	-	-	Terminate	
Unknown	0.65001	10/22/0116 08:24.38	00000039	0.001	Inter828t1-2	1.610	1	2	0.000	24.444	-217.1	0.004	0.000	D	F	0.0	0.000	0.127	0.074	1905.910	404.968	0.014	-	0.006	0.020	-	-	-	CAR1	-	14.180	-	FREEWAY_GENERAL	Urban	F	1011101000000001	0000000000000000	-	-	-	-	-	-	-	-	-	-	Terminate	
Unknown	0.66668	10/22/0116 08:24.38	00000040	0.001	Inter828t1-2	1.610	1	2	0.000	24.444	-217.1	0.005	0.000	D	F	0.0	0.000	0.130	0.079	1905.910	404.968	0.015	-	0.003	0.020	-	-	-	CAR1	-	14.243	-	FREEWAY_GENERAL	Urban	F	1011101000000001	0000000000000000	-	-	-	-	-	-	-	-	-	-	Terminate	
Unknown	0.68335	10/22/0116 08:24.38	00000041	0.001	Inter828t1-2	1.610	1	2	0.000	24.444	-217.1	0.005	0.000	D	F	0.0	0.000	0.132	0.084	1905.910	404.968	0.015	-	0.001	0.019	-	-	-	CAR1	-	14.308	-	FREEWAY_GENERAL	Urban	F	1011101000000001	0000000000000000	-	-	-	-	-	-	-	-	-	-	Terminate	
Unknown	0.70001	10/22/0116 08:24.38	00000042	0.002	Inter828t1-2	1.610	1	2	0.000	24.444	-217.1	0.009	0.000	D	F	0.0	0.000	0.134	0.088	1905.910	404.968	0.015	-	-0.001	0.016	-	-	-	CAR1	-	14.375	-	FREEWAY_GENERAL	Urban	F	1111101000000001	0000000000000000	-	-	-	-	-	-	-	-	-	-	Terminate	
Unknown	0.71668	10/22/0116 08:24.38	00000043	0.002	Inter828t1-2	1.610	1	2	0.000	24.444	-217.1	0.007	0.000	D	F	0.0	0.000	0.136	0.090	1905.910	404.968	0.016	-	-0.002	0.013	-	-	-	CAR1	-	14.443	-	FREEWAY_GENERAL	Urban	F	1111101000000001	0000000000000000	-	-	-	-	-	-	-	-	-	-	Terminate	
Unknown	0.73335	10/22/0116 08:24.38	00000044	0.002	Inter828t1-2	1.610	1	2	0.000	24.444	-217.1	0.007	0.000	D	F	0.0	0.000	0.138	0.093	1905.910	404.968	0.016	-	-0.003	0.010	-	-	-	CAR1	-	14.513	-	FREEWAY_GENERAL	Urban	F	1011101000000001	0000000000000000	-	-	-	-	-	-	-	-	-	-	Terminate	
Unknown	0.75002	10/22/0116 08:24.38	00000045	0.002	Inter828t1-2	1.610	1	2	0.000	24.444	-217.1	0.005	0.000	D	F	0.0	0.000	0.140	0.094	1905.910	404.968	0.016	-	-0.004	0.007	-	-	-	CAR1	-	14.584	-	FREEWAY_GENERAL	Urban	F	1011101000000001	0000000000000000	-	-	-	-	-	-	-	-	-	-	Terminate	
Unknown	0.76668	10/22/0116 08:24.38	00000046	0.002	Inter828t1-2	1.610	1	2	0.000	24.444	-217.1	0.004	0.000	D	F	0.0	0.000	0.142	0.095	1905.910	404.968	0.016	-	-0.004	0.004	-	-	-	CAR1	-	14.657	-	FREEWAY_GENERAL	Urban	F	1011101000000001	0000000000000000	-	-	-	-	-	-	-	-	-	-	Terminate	
Unknown	0.78335	10/22/0116 08:24.38	00000047	0.002	Inter828t1-2	1.610	1	2	0.000	24.444	-217.1	0.005	0.000	D	F	0.0	0.000	0.144	0.095	1905.910	404.968	0.017	-	-0.004	0.002	-	-	-	CAR1	-	14.732	-	FREEWAY_GENERAL	Urban	F	1011101000000001	0000000000000000	-	-	-	-	-	-	-	-	-	-	Terminate	
Unknown	0.80002	10/22/0116 08:24.38	00000048	0.002	Inter828t1-2	1.610	1	2	0.000	24.444	-217.1	0.004	0.000	D	F	0.0	0.000	0.146	0.094	1905.910	404.968	0.017	-	-0.003	0.001	-	-	-	CAR1	-	14.809	-	FREEWAY_GENERAL	Urban	F	1011101000000001	0000000000000000	-	-	-	-	-	-	-	-	-	-	Terminate	
Unknown	0.81668	10/22/0116 08:24.38	00000049	0.002	Inter828t1-2	1.610	1	2	0.000	24.444	-217.1	0.004	0.000	D	F	0.0	0.000	0.148	0.093	1905.910	404.968	0.017	-	-0.002	0.000	-	-	-	CAR1	-	14.887	-	FREEWAY_GENERAL	Urban	F	1111101000000001	0000000000000000	-	-	-	-	-	-	-	-	-	-	Terminate	
Unknown	0.83335	10/22/0116 08:24.38	00000050	0.002	Inter828t1-2	1.610	1	2	0.000	24.444	-217.2	0.002	0.000	D	F	0.0	0.000	0.150	0.091	1905.910	404.968	0.017	-	-0.001	-0.000	-	-	-	CAR1	-	14.967	-	FREEWAY_GENERAL	Urban	F	1011101000000001	0000000000000000	-	-	-	-	-	-	-	-	-	-	Terminate	
Unknown	0.85002	10/22/0116 08:24.38	00000051	0.002	Inter828t1-2	1.610	1	2	0.000	24.444	-217.2	0.004	0.000	D	F	0.0	0.000	0.153	0.089	1905.910	404.968	0.018	-	0.000	0.000	-	-	-	CAR1	-	15.049	-	FREEWAY_GENERAL	Urban	F	1011101000000001	0000000000000000	-	-	-	-	-	-	-	-	-	-	Terminate	
Unknown	0.86668	10/22/0116 08:24.38	00000052	0.002	Inter828t1-2	1.610	1	2	0.000	24.444	-217.3	0.002	0.000	D	F	0.0	359.950	0.155	0.087	1905.910	404.968	0.018	-	0.002	0.001	-	-	-	CAR1	-	15.132	-	FREEWAY_GENERAL	Urban	F	1111101000000001	0000000000000000	-	-	-	-	-	-	-	-	-	-	Terminate	
Unknown	0.88335	10/22/0116 08:24.38	00000053	0.002	Inter828t1-2	1.610	1	2	0.000	24.444	-217.3	0.000	0.000	D	F	0.0	359.949	0.157	0.084	1905.910	404.968	0.018	-	0.003	0.002	-	-	-	CAR1	-	15.217	-	FREEWAY_GENERAL	Urban	F	1011101000000001	0000000000000000	-	-	-	-	-	-	-	-	-	-	Terminate	
Unknown	0.90002	10/22/0116 08:24.38	00000054	0.002	Inter828t1-2	1.610	1	2	0.000	24.444	-217.4	0.000	0.000	D	F	0.0	359.948	0.160	0.081	1905.910	404.968	0.018	-	0.004	0.003	-	-	-	CAR1	-	15.303	-	FREEWAY_GENERAL	Urban	F	1111101000000001	0000000000000000	-	-	-	-	-	-	-	-	-	-	Terminate	
Unknown	0.91668	10/22/0116 08:24.38	00000055	0.002	Inter828t1-2	1.610	1	2	0.000	24.444	-217.5	0.000	0.000	D	F	0.0	359.947	0.162	0.079	1905.910	404.969	0.019	-	0.004	0.003	-	-	-	CAR1	-	15.391	-	FREEWAY_GENERAL	Urban	F	1011101000000001	0000000000000000	-	-	-	-	-	-	-	-	-	-	Terminate	
Unknown	0.93335	10/22/0116 08:24.38	00000056	0.002	Inter828t1-2	1.610	1	2	0.000	24.444	-217.5	0.002	0.000	D	F	0.0	359.947	0.164	0.076	1905.910	404.969	0.019	-	0.005	0.004	-	-	-	CAR1	-	15.481	-	FREEWAY_GENERAL	Urban	F	1011101000000001	0000000000000000	-	-	-	-	-	-	-	-	-	-	Terminate	
Unknown	0.95002	10/22/0116 08:24.38	00000057	0.002	Inter828t1-2	1.610	1	2	0.000	24.444	-217.5	0.000	0.000	D	F	0.0	359.946	0.166	0.073	1905.910	404.969	0.019	-	0.005	0.004	-	-	-	CAR1	-	15.573	-	FREEWAY_GENERAL	Urban	F	1011101000000001	0000000000000000	-	-	-	-	-	-	-	-	-	-	Terminate	
Unknown	0.96669	10/22/0116 08:24.38	00000058	0.003	Inter828t1-2	1.610	1	2	0.000	24.444	-217.6	0.000	0.000	D	F	0.0	359.946	0.167	0.070	1905.910	404.969	0.019	-	0.005	0.004	-	-	-	CAR1	-	15.666	-	FREEWAY_GENERAL	Urban	F	1011101000000001	0000000000000000	-	-	-	-	-	-	-	-	-	-	Terminate	
Unknown	0.98335	10/22/0116 08:24.38	00000059	0.003	Inter828t1-2	1.610	1	2	0.000	24.444	-217.6	0.000	0.000	D	F	0.0	359.946	0.169	0.067	1905.910	404.969	0.020	-	0.004	0.003	-	-	-	CAR1	-	15.761	-	FREEWAY_GENERAL	Urban	F	1111101000000001	0000000000000000	-	-	-	-	-	-	-	-	-	-	Terminate	
Unknown	1.00002	10/22/0116 08:24.38	00000060	0.003	Inter828t1-2	1.610	1	2	0.000	24.444	-217.7	0.002	0.000	D	F	0.0	359.946	0.170	0.064	1905.910	404.969	0.020	-	0.004	0.002	-	-	-	CAR1	-	15.857	-	FREEWAY_GENERAL	Urban	F	1011101000000001	0000000000000000	-	-	-	-	-	-	-	-	-	-	Terminate	
Unknown	1.01669	10/22/0116 08:24.38	00000061	0.003	Inter828t1-2	1.610	1	2	0.000	24.444	-217.8	0.000	0.000	D	F	0.0	359.946	0.171	0.061	1905.910	404.969	0.020	-	0.003	0.001	-	-	-	CAR1	-	15.956	-	FREEWAY_GENERAL	Urban	F	1011101000000001	0000000000000000	-	-	-	-	-	-	-	-	-	-	Terminate	
Unknown	1.03335	10/22/0116 08:24.38	00000062	0.003	Inter828t1-2	1.610	1	2	0.000	24.444	-217.8	0.000	0.000	D	F	0.0	359.946	0.172	0.058	1905.910	404.969	0.020	-	0.002	0.000	-	-	-	CAR1	-	16.055	-	FREEWAY_GENERAL	Urban	F	1011101000000001	0000000000000000	-	-	-	-	-	-	-	-	-	-	Terminate	
Unknown	1.05002	10/22/0116 08:24.38	00000063	0.003	Inter828t1-2	1.610	1	2	0.000	24.444	-217.9	0.000	0.000	D	F	0.0	359.946	0.173	0.056	1905.910	404.969	0.020	-	0.001	-0.001	-	-	-	CAR1	-	16.157	-	FREEWAY_GENERAL	Urban	F	1011101000000001	0000000000000000	-	-	-	-	-	-	-	-	-	-	Terminate	
Unknown	1.06669	10/22/0116 08:24.38	00000064	0.003	Inter828t1-2	1.610	1	2	0.000	24.444	-218.0	0.000	0.000	D	F	0.0	359.946	0.174	0.053	1905.910	404.969	0.021	-	0.000	-0.002	-	-	-	CAR1	-	16.260	-	FREEWAY_GENERAL	Urban	F	1011101000000001	0000000000000000	-	-	-	-	-	-	-	-	-	-	Terminate	
Unknown	1.08335	10/22/0116 08:24.38	00000065	0.002	Inter828t1-2	1.610	1	2	0.000	24.444	-218.1	0.000	0.000	D	F	0.0	359.946	0.175	0.050	1905.910	404.969	0.021	-	-0.000	-0.003	-	-	-	CAR1	-	16.365	-	FREEWAY_GENERAL	Urban	F	1011101000000001	0000000000000000	-	-	-	-	-	-	-	-	-	-	Terminate	
Unknown	1.10002	10/22/0116 08:24.38	00000066	0.002	Inter828t1-2	1.610	1	2	0.000	24.444	-218.2	0.000	0.000	D	F	0.0	359.946	0.176	0.047	1905.910	404.969	0.021	-	-0.001	-0.004	-	-	-	CAR1	-	16.472	-	FREEWAY_GENERAL	Urban	F	1011101000000001	0000000000000000	-	-	-	-	-	-	-	-	-	-	Terminate	
Unknown	1.11669	10/22/0116 08:24.38	00000067	0.002	Inter828t1-2	1.610	1	2	0.000	24.444	-218.3	0.000	0.000	D	F	0.0	359.946	0.177	0.045	1905.910	404.969	0.021	-	-0.002	-0.004	-	-	-	CAR1	-	16.580	-	FREEWAY_GENERAL	Urban	F	1111101000000001	0000000000000000	-	-	-	-	-	-	-	-	-	-	Terminate	
Unknown	1.13336	10/22/0116 08:24.38	00000068	0.002	Inter828t1-2	1.610	1	2	0.000	24.444	-218.4	0.000	0.000	D	F	0.0	359.947	0.178	0.042	1905.910	404.969	0.021	-	-0.002	-0.005	-	-	-	CAR1	-	16.690	-	FREEWAY_GENERAL	Urban	F	1011101000000001	0000000000000000	-	-	-	-	-	-	-	-	-	-	Terminate	
Unknown	1.15002	10/22/0116 08:24.38	00000069	0.002	Inter828t1-2	1.610	1	2	0.000	24.444	-218.5	0.002	0.000	D	F	0.0	359.947	0.179	0.040	1905.910	404.969	0.021	-	-0.002	-0.005	-	-	-	CAR1	-	16.801	-	FREEWAY_GENERAL	Urban	F	1011101000000001	0000000000000000	-	-	-	-	-	-	-	-	-	-	Terminate	
Unknown	1.16669	10/22/0116 08:24.38	00000070	0.002	Inter828t1-2	1.611	1	2	0.000	24.444	-218.6	0.000	0.000	D	F	0.0	359.948	0.179	0.037	1905.911	404.969	0.022	-	-0.002	-0.005	-	-	-	CAR1	-	16.915	-	FREEWAY_GENERAL	Urban	F	1011101000000001	0000000000000000	-	-	-	-	-	-	-	-	-	-	Terminate	
Unknown	1.18336	10/22/0116 08:24.38	00000071	0.002	Inter828t1-2	1.611	1	2	0.000	24.444	-218.7	0.000	0.000	D	F	0.0	359.948	0.180	0.035	1905.911	404.969	0.022	-	-0.002	-0.004	-	-	-	CAR1	-	17.029	-	FREEWAY_GENERAL	Urban	F	1011101000000001	0000000000000000	-	-	-	-	-	-	-	-	-	-	Terminate	
Unknown	1.20002	10/22/0116 08:24.38	00000072	0.002	Inter828t1-2	1.611	1	2	0.000	24.444	-218.8	0.000	0.000	D	F	0.0	359.948	0.181	0.032	1905.911	404.969	0.022	-	-0.002	-0.004	-	-	-	CAR1	-	17.146	-	FREEWAY_GENERAL	Urban	F	1111101000000001	0000000000000000	-	-	-	-	-	-	-	-	-	-	Terminate	
Unknown	1.21669	10/22/0116 08:24.38	00000073	0.002	Inter828t1-2	1.611	1	2	0.000	24.444	-218.8	0.000	0.000	D	F	0.0	359.949	0.182	0.030	1905.911	404.969	0.022	-	-0.002	-0.003	-	-	-	CAR1	-	17.264	-	FREEWAY_GENERAL	Urban	F	1011101000000001	0000000000000000	-	-	-	-	-	-	-	-	-	-	Terminate	
Unknown	1.23336	10/22/0116 08:24.38	00000074	0.002	Inter828t1-2	1.611	1	2	0.000	24.444	-218.9	0.000	0.000	D	F	0.0	359.949	0.183	0.028	1905.911	404.969	0.022	-	-0.002	-0.003	-	-	-	CAR1	-	17.384	-	FREEWAY_GENERAL	Urban	F	1011101000000001	0000000000000000	-	-	-	-	-	-	-	-	-	-	Terminate	
Unknown	1.25003	10/22/0116 08:24.38	00000075	0.002	Inter828t1-2	1.611	1	2	0.000	24.444	-219.0	0.000	0.000	D	F	0.0	0.000	0.184	0.025	1905.911	404.970	0.022	-	-0.002	-0.003	-	-	-	CAR1	-	17.506	-	FREEWAY_GENERAL	Urban	F	1011101000000001	0000000000000000	-	-	-	-	-	-	-	-	-	-	Terminate	
Unknown	1.26669	10/22/0116 08:24.38	00000076	0.002	Inter828t1-2	1.611	1	2	0.000	24.444	-219.1	0.000	0.000	D	F	0.0	0.000	0.185	0.023	1905.911	404.970	0.023	-	-0.001	-0.002	-	-	-	CAR1	-	17.629	-	FREEWAY_GENERAL	Urban	F	1011101000000001	0000000000000000	-	-	-	-	-	-	-	-	-	-	Terminate	
Unknown	1.28336	10/22/0116 08:24.38	00000077	0.002	Inter828t1-2	1.611	1	2	0.000	24.444	-219.2	0.000	0.000	D	F	0.0	0.000	0.186	0.021	1905.911	404.970	0.023	-	-0.001	-0.002	-	-	-	CAR1	-	17.754	-	FREEWAY_GENERAL	Urban	F	1111101000000001	0000000000000000	-	-	-	-	-	-	-	-	-	-	Terminate	
Unknown	1.30003	10/22/0116 08:24.38	00000078	0.002	Inter828t1-2	1.611	1	2	0.000	24.444	-219.2	0.002	0.000	D	F	0.0	0.000	0.186	0.020	1905.911	404.970	0.023	-	-0.001	-0.002	-	-	-	CAR1	-	17.880	-	FREEWAY_GENERAL	Urban	F	1111101000000001	0000000000000000	-	-	-	-	-	-	-	-	-	-	Terminate	
Unknown	1.31669	10/22/0116 08:24.38	00000079	0.002	Inter828t1-2	1.611	1	2	0.000	24.444	-219.3	0.002	0.000	D	F	0.0	0.000	0.187	0.018	1905.911	404.970	0.023	-	-0.001	-0.002	-	-	-	CAR1	-	18.009	-	FREEWAY_GENERAL	Urban	F	1011101000000001	0000000000000000	-	-	-	-	-	-	-	-	-	-	Terminate	
Unknown	1.33336	10/22/0116 08:24.38	00000080	0.002	Inter828t1-2	1.611	1	2	0.000	24.444	-219.4	0.005	0.000	D	F	0.0	0.000	0.188	0.016	1905.911	404.970	0.023	-	-0.001	-0.001	-	-	-	CAR1	-	18.139	-	FREEWAY_GENERAL	Urban	F	1011101000000001	0000000000000000	-	-	-	-	-	-	-	-	-	-	Terminate	
Unknown	1.35003	10/22/0116 08:24.38	00000081	0.002	Inter828t1-2	1.611	1	2	0.000	24.444	-219.5	0.005	0.000	D	F	0.0	0.000	0.188	0.015	1905.911	404.970	0.023	-	-0.001	-0.002	-	-	-	CAR1	-	18.270	-	FREEWAY_GENERAL	Urban	F	1011101000000001	0000000000000000	-	-	-	-	-	-	-	-	-	-	Terminate	
Unknown	1.36669	10/22/0116 08:24.38	00000082	0.002	Inter828t1-2	1.611	1	2	0.000	24.444	-219.6	0.000	0.000	D	F	0.0	0.000	0.189	0.014	1905.911	404.970	0.023	-	-0.001	-0.002	-	-	-	CAR1	-	18.403	-	FREEWAY_GENERAL	Urban	F	1011101000000001	0000000000000000	-	-	-	-	-	-	-	-	-	-	Terminate	
Unknown	1.38336	10/22/0116 08:24.38	00000083	0.002	Inter828t1-2	1.611	1	2	0.000	24.444	-219.6	0.000	0.000	D	F	0.0	0.000	0.189	0.012	1905.911	404.970	0.023	-	-0.001	-0.002	-	-	-	CAR1	-	18.538	-	FREEWAY_GENERAL	Urban	F	1011101000000001	0000000000000000	-	-	-	-	-	-	-	-	-	-	Terminate	
Unknown	1.40003	10/22/0116 08:24.38	00000084	0.002	Inter828t1-2	1.611	1	2	0.000	24.444	-219.7	0.000	0.000	D	F	0.0	0.000	0.190	0.011	1905.911	404.970	0.024	-	-0.001	-0.002	-	-	-	CAR1	-	18.675	-	FREEWAY_GENERAL	Urban	F	1011101000000001	0000000000000000	-	-	-	-	-	-	-	-	-	-	Terminate	
Unknown	1.41669	10/22/0116 08:24.38	00000085	0.002	Inter828t1-2	1.611	1	2	0.000	24.444	-219.7	0.000	0.000	D	F	0.0	0.000	0.190	0.010	1905.911	404.970	0.024	-	-0.001	-0.002	-	-	-	CAR1	-	18.813	-	FREEWAY_GENERAL	Urban	F	1111101000000001	0000000000000000	-	-	-	-	-	-	-	-	-	-	Terminate	
Unknown	1.43336	10/22/0116 08:24.38	00000086	0.001	Inter828t1-2	1.611	1	2	0.000	24.444	-219.7	0.000	0.000	D	F	0.0	0.000	0.191	0.009	1905.911	404.970	0.024	-	-0.001	-0.002	-	-	-	CAR1	-	18.953	-	FREEWAY_GENERAL	Urban	F	1111101000000001	0000000000000000	-	-	-	-	-	-	-	-	-	-	Terminate	
Unknown	1.45003	10/22/0116 08:24.38	00000087	0.001	Inter828t1-2	1.611	1	2	0.000	24.444	-219.7	0.000	0.000	D	F	0.0	0.000	0.191	0.009	1905.911	404.970	0.024	-	-0.001	-0.002	-	-	-	CAR1	-	19.095	-	FREEWAY_GENERAL	Urban	F	1111101000000001	0000000000000000	-	-	-	-	-	-	-	-	-	-	Terminate	
Unknown	1.46670	10/22/0116 08:24.38	00000088	0.001	Inter828t1-2	1.611	1	2	0.000	24.444	-219.7	0.000	0.000	D	F	0.0	0.000	0.192	0.008	1905.911	404.970	0.024	-	-0.001	-0.003	-	-	-	CAR1	-	19.238	-	FREEWAY_GENERAL	Urban	F	1111101000000001	0000000000000000	-	-	-	-	-	-	-	-	-	-	Terminate	
Unknown	1.48336	10/22/0116 08:24.38	00000089	0.001	Inter828t1-2	1.611	1	2	0.000	24.444	-219.7	0.000	0.000	D	F	0.0	0.000	0.192	0.007	1905.911	404.970	0.024	-	-0.001	-0.003	-	-	-	CAR1	-	19.383	-	FREEWAY_GENERAL	Urban	F	1011101000000001	0000000000000000	-	-	-	-	-	-	-	-	-	-	Terminate	
Unknown	1.50003	10/22/0116 08:24.38	00000090	0.001	Inter828t1-2	1.611	1	2	0.000	24.444	-219.7	0.000	0.000	D	F	0.0	0.000	0.192	0.006	1905.911	404.970	0.024	-	-0.002	-0.003	-	-	-	CAR1	-	19.530	-	FREEWAY_GENERAL	Urban	F	1011101000000001	0000000000000000	-	-	-	-	-	-	-	-	-	-	Terminate	
Unknown	1.51670	10/22/0116 08:24.38	00000091	0.001	Inter828t1-2	1.611	1	2	0.000	24.444	-219.6	0.000	0.000	D	F	0.0	0.000	0.193	0.006	1905.911	404.970	0.024	-	-0.002	-0.003	-	-	-	CAR1	-	19.678	-	FREEWAY_GENERAL	Urban	F	1011101000000001	0000000000000000	-	-	-	-	-	-	-	-	-	-	Terminate	
Unknown	1.53336	10/22/0116 08:24.39	00000092	0.001	Inter828t1-2	1.611	1	2	0.000	24.444	-219.6	0.000	0.000	D	F	0.0	0.000	0.193	0.005	1905.911	404.970	0.024	-	-0.002	-0.002	-	-	-	CAR1	-	19.828	-	FREEWAY_GENERAL	Urban	F	1111101000000001	0000000000000000	-	-	-	-	-	-	-	-	-	-	Terminate	
Unknown	1.55003	10/22/0116 08:24.39	00000093	0.001	Inter828t1-2	1.611	1	2	0.000	24.444	-219.5	0.000	0.000	D	F	0.0	0.000	0.194	0.005	1905.911	404.970	0.025	-	-0.002	-0.002	-	-	-	CAR1	-	19.980	-	FREEWAY_GENERAL	Urban	F	1011101000000001	0000000000000000	-	-	-	-	-	-	-	-	-	-	Terminate	
Unknown	1.56670	10/22/0116 08:24.39	00000094	0.001	Inter828t1-2	1.611	1	2	0.000	24.444	-219.4	0.000	0.000	D	F	0.0	0.000	0.194	0.004	1905.911	404.970	0.025	-	-0.002	-0.002	-	-	-	CAR1	-	20.133	-	FREEWAY_GENERAL	Urban	F	1111101000000001	0000000000000000	-	-	-	-	-	-	-	-	-	-	Terminate	
Unknown	1.58336	10/22/0116 08:24.39	00000095	0.001	Inter828t1-2	1.611	1	2	0.000	24.444	-219.4	0.000	0.000	D	F	0.0	0.000	0.195	0.004	1905.911	404.970	0.025	-	-0.001	-0.002	-	-	-	CAR1	-	20.288	-	FREEWAY_GENERAL	Urban	F	1111101000000001	0000000000000000	-	-	-	-	-	-	-	-	-	-	Terminate	
Unknown	1.60003	10/22/0116 08:24.39	00000096	0.001	Inter828t1-2	1.611	1	2	0.000	24.444	-219.3	0.000	0.000	D	F	0.0	0.000	0.195	0.004	1905.911	404.970	0.025	-	-0.001	-0.002	-	-	-	CAR1	-	20.444	-	FREEWAY_GENERAL	Urban	F	1111101000000001	0000000000000000	-	-	-	-	-	-	-	-	-	-	Terminate	
Unknown	1.61670	10/22/0116 08:24.39	00000097	0.001	Inter828t1-2	1.611	1	2	0.000	24.444	-219.3	0.000	0.000	D	F	0.0	0.000	0.196	0.003	1905.911	404.970	0.025	-	-0.001	-0.002	-	-	-	CAR1	-	20.603	-	FREEWAY_GENERAL	Urban	F	1011101000000001	0000000000000000	-	-	-	-	-	-	-	-	-	-	Terminate	
Unknown	1.63337	10/22/0116 08:24.39	00000098	0.001	Inter828t1-2	1.611	1	2	0.000	24.444	-219.3	0.000	0.000	D	F	0.0	0.000	0.196	0.003	1905.911	404.970	0.025	-	-0.001	-0.002	-	-	-	CAR1	-	20.763	-	FREEWAY_GENERAL	Urban	F	1111101000000001	0000000000000000	-	-	-	-	-	-	-	-	-	-	Terminate	
Unknown	1.65003	10/22/0116 08:24.39	00000099	0.001	Inter828t1-2	1.611	1	2	0.000	24.444	-219.2	0.002	0.000	D	F	0.0	0.000	0.196	0.003	1905.911	404.970	0.025	-	-0.001	-0.001	-	-	-	CAR1	-	20.924	-	FREEWAY_GENERAL	Urban	F	1011101000000001	0000000000000000	-	-	-	-	-	-	-	-	-	-	Terminate	
Unknown	1.66670	10/22/0116 08:24.39	00000100	0.001	Inter828t1-2	1.611	1	2	0.000	24.444	-219.3	0.000	0.000	D	F	0.0	0.000	0.197	0.003	1905.911	404.970	0.025	-	-0.001	-0.001	-	-	-	CAR1	-	21.088	-	FREEWAY_GENERAL	Urban	F	1011101000000001	0000000000000000	-	-	-	-	-	-	-	-	-	-	Terminate	
Unknown	1.68337	10/22/0116 08:24.39	00000101	0.001	Inter828t1-2	1.611	1	2	0.000	24.444	-219.3	0.000	0.000	D	F	0.0	0.000	0.197	0.002	1905.911	404.970	0.025	-	-0.001	-0.001	-	-	-	CAR1	-	21.253	-	FREEWAY_GENERAL	Urban	F	1111101000000001	0000000000000000	-	-	-	-	-	-	-	-	-	-	Terminate	
Unknown	1.70003	10/22/0116 08:24.39	00000102	0.001	Inter828t1-2	1.611	1	2	0.000	24.444	-219.3	0.000	0.000	D	F	0.0	0.000	0.197	0.002	1905.911	404.970	0.025	-	-0.001	-0.001	-	-	-	CAR1	-	21.419	-	FREEWAY_GENERAL	Urban	F	1011101000000001	0000000000000000	-	-	-	-	-	-	-	-	-	-	Terminate	
Unknown	1.71670	10/22/0116 08:24.39	00000103	0.001	Inter828t1-2	1.611	1	2	0.000	24.444	-219.3	0.000	0.000	D	F	0.0	0.000	0.198	0.002	1905.911	404.970	0.025	-	-0.001	-0.001	-	-	-	CAR1	-	21.588	-	FREEWAY_GENERAL	Urban	F	1011101000000001	0000000000000000	-	-	-	-	-	-	-	-	-	-	Terminate	
Unknown	1.73337	10/22/0116 08:24.39	00000104	0.001	Inter828t1-2	1.611	1	2	0.000	24.444	-219.3	0.000	0.000	D	F	0.0	0.000	0.198	0.002	1905.911	404.970	0.025	-	-0.001	-0.001	-	-	-	CAR1	-	21.758	-	FREEWAY_GENERAL	Urban	F	1011101000000001	0000000000000000	-	-	-	-	-	-	-	-	-	-	Terminate	
Unknown	1.75004	10/22/0116 08:24.39	00000105	0.001	Inter828t1-2	1.611	1	2	0.000	24.444	-219.4	0.000	0.000	D	F	0.0	0.000	0.198	0.002	1905.911	404.970	0.026	-	-0.000	-0.001	-	-	-	CAR1	-	21.929	-	FREEWAY_GENERAL	Urban	F	1011101000000001	0000000000000000	-	-	-	-	-	-	-	-	-	-	Terminate	
Unknown	1.76670	10/22/0116 08:24.39	00000106	0.001	Inter828t1-2	1.611	1	2	0.000	24.444	-219.4	0.004	0.000	D	F	0.0	0.000	0.199	0.002	1905.911	404.970	0.026	-	-0.000	-0.001	-	-	-	CAR1	-	22.102	-	FREEWAY_GENERAL	Urban	F	1011101000000001	0000000000000000	-	-	-	-	-	-	-	-	-	-	Terminate	
Unknown	1.78337	10/22/0116 08:24.39	00000107	0.001	Inter828t1-2	1.611	1	2	0.000	24.444	-219.4	0.000	0.000	D	F	0.0	0.000	0.199	0.002	1905.911	404.970	0.026	-	-0.000	-0.002	-	-	-	CAR1	-	22.277	-	FREEWAY_GENERAL	Urban	F	1011101000000001	0000000000000000	-	-	-	-	-	-	-	-	-	-	Terminate	
Unknown	1.80004	10/22/0116 08:24.39	00000108	0.001	Inter828t1-2	1.611	1	2	0.000	24.444	-219.4	0.000	0.000	D	F	0.0	0.000	0.199	0.002	1905.911	404.970	0.026	-	-0.000	-0.002	-	-	-	CAR1	-	22.454	-	FREEWAY_GENERAL	Urban	F	1011101000000001	0000000000000000	-	-	-	-	-	-	-	-	-	-	Terminate	
Unknown	1.81670	10/22/0116 08:24.39	00000109	0.001	Inter828t1-2	1.611	1	2	0.000	24.444	-219.3	0.007	0.000	D	F	0.0	0.000	0.199	0.002	1905.911	404.970	0.026	-	-0.000	-0.002	-	-	-	CAR1	-	22.632	-	FREEWAY_GENERAL	Urban	F	1011101000000001	0000000000000000	-	-	-	-	-	-	-	-	-	-	Terminate	
Unknown	1.83337	10/22/0116 08:24.39	00000110	0.001	Inter828t1-2	1.611	1	2	0.000	24.444	-219.3	0.009	0.000	D	F	0.0	0.000	0.200	0.002	1905.911	404.970	0.026	-	-0.000	-0.002	-	-	-	CAR1	-	22.812	-	FREEWAY_GENERAL	Urban	F	1011101000000001	0000000000000000	-	-	-	-	-	-	-	-	-	-	Terminate	
Unknown	1.85004	10/22/0116 08:24.39	00000111	0.001	Inter828t1-2	1.611	1	2	0.000	24.444	-219.3	0.009	0.000	D	F	0.0	0.000	0.200	0.002	1905.911	404.970	0.026	-	-0.000	-0.002	-	-	-	CAR1	-	22.994	-	FREEWAY_GENERAL	Urban	F	1111101000000001	0000000000000000	-	-	-	-	-	-	-	-	-	-	Terminate	
Unknown	1.86670	10/22/0116 08:24.39	00000112	0.001	Inter828t1-2	1.611	1	2	0.000	24.444	-219.3	0.004	0.000	D	F	0.0	0.000	0.200	0.002	1905.911	404.970	0.026	-	-0.000	-0.001	-	-	-	CAR1	-	23.177	-	FREEWAY_GENERAL	Urban	F	1011101000000001	0000000000000000	-	-	-	-	-	-	-	-	-	-	Terminate	
Unknown	1.88337	10/22/0116 08:24.39	00000113	0.001	Inter828t1-2	1.611	1	2	0.000	24.444	-219.3	0.007	0.000	D	F	0.0	0.000	0.201	0.002	1905.911	404.970	0.026	-	-0.001	-0.001	-	-	-	CAR1	-	23.362	-	FREEWAY_GENERAL	Urban	F	1011101000000001	0000000000000000	-	-	-	-	-	-	-	-	-	-	Terminate	
Unknown	1.90004	10/22/0116 08:24.39	00000114	0.001	Inter828t1-2	1.611	1	2	0.000	24.444	-219.2	0.007	0.000	D	F	0.0	0.000	0.201	0.002	1905.911	404.970	0.026	-	-0.001	-0.001	-	-	-	CAR1	-	23.549	-	FREEWAY_GENERAL	Urban	F	1011101000000001	0000000000000000	-	-	-	-	-	-	-	-	-	-	Terminate	
Unknown	1.91671	10/22/0116 08:24.39	00000115	0.001	Inter828t1-2	1.611	1	2	0.000	24.444	-219.2	0.011	0.000	D	F	0.0	0.000	0.201	0.002	1905.911	404.970	0.026	-	-0.001	-0.001	-	-	-	CAR1	-	23.737	-	FREEWAY_GENERAL	Urban	F	1011101000000001	0000000000000000	-	-	-	-	-	-	-	-	-	-	Terminate	
Unknown	1.93337	10/22/0116 08:24.39	00000116	0.001	Inter828t1-2	1.611	1	2	0.000	24.444	-219.2	0.016	0.000	D	F	0.0	0.000	0.201	0.003	1905.911	404.970	0.026	-	-0.001	-0.001	-	-	-	CAR1	-	23.927	-	FREEWAY_GENERAL	Urban	F	1011101000000001	0000000000000000	-	-	-	-	-	-	-	-	-	-	Terminate	
Unknown	1.95004	10/22/0116 08:24.39	00000117	0.001	Inter828t1-2	1.611	1	2	0.000	24.444	-219.2	0.018	0.000	D	F	0.0	0.000	0.202	0.003	1905.911	404.970	0.026	-	-0.001	-0.001	-	-	-	CAR1	-	24.119	-	FREEWAY_GENERAL	Urban	F	1111101000000001	0000000000000000	-	-	-	-	-	-	-	-	-	-	Terminate	
Unknown	1.96671	10/22/0116 08:24.39	00000118	0.001	Inter828t1-2	1.611	1	2	0.000	24.444	-219.2	0.014	0.000	D	F	0.0	0.000	0.202	0.003	1905.911	404.970	0.026	-	-0.001	-0.001	-	-	-	CAR1	-	24.312	-	FREEWAY_GENERAL	Urban	F	1011101000000001	0000000000000000	-	-	-	-	-	-	-	-	-	-	Terminate	
Unknown	1.98337	10/22/0116 08:24.39	00000119	0.001	Inter828t1-2	1.611	1	2	0.000	24.444	-219.1	0.012	0.000	D	F	0.0	0.000	0.202	0.003	1905.911	404.971	0.026	-	-0.000	-0.001	-	-	-	CAR1	-	24.507	-	FREEWAY_GENERAL	Urban	F	1011101000000001	0000000000000000	-	-	-	-	-	-	-	-	-	-	Terminate	
Unknown	2.00004	10/22/0116 08:24.39	00000120	0.001	Inter828t1-2	1.611	1	2	0.000	24.444	-219.1	0.012	0.000	D	F	0.0	0.000	0.202	0.003	1905.911	404.971	0.026	-	-0.000	-0.001	-	-	-	CAR1	-	24.704	-	FREEWAY_GENERAL	Urban	F	1111101000000001	0000000000000000	-	-	-	-	-	-	-	-	-	-	Terminate	
Unknown	2.01671	10/22/0116 08:24.39	00000121	0.001	Inter828t1-2	1.611	1	2	0.000	24.444	-219.1	0.007	0.000	D	F	0.0	0.000	0.203	0.003	1905.911	404.971	0.026	-	-0.000	-0.001	-	-	-	CAR1	-	24.902	-	FREEWAY_GENERAL	Urban	F	1011101000000001	0000000000000000	-	-	-	-	-	-	-	-	-	-	Terminate	
Unknown	2.03337	10/22/0116 08:24.39	00000122	0.001	Inter828t1-2	1.611	1	2	0.000	24.444	-219.1	0.009	0.000	D	F	0.0	0.000	0.203	0.003	1905.911	404.971	0.027	-	-0.000	-0.001	-	-	-	CAR1	-	25.102	-	FREEWAY_GENERAL	Urban	F	1011101000000001	0000000000000000	-	-	-	-	-	-	-	-	-	-	Terminate	
Unknown	2.05004	10/22/0116 08:24.39	00000123	0.001	Inter828t1-2	1.611	1	2	0.000	24.444	-219.2	0.014	0.000	D	F	0.0	0.000	0.203	0.003	1905.911	404.971	0.027	-	-0.000	-0.001	-	-	-	CAR1	-	25.304	-	FREEWAY_GENERAL	Urban	F	1111101000000001	0000000000000000	-	-	-	-	-	-	-	-	-	-	Terminate	
Unknown	2.06671	10/22/0116 08:24.39	00000124	0.001	Inter828t1-2	1.611	1	2	0.000	24.444	-219.2	0.018	0.000	D	F	0.0	0.000	0.203	0.003	1905.911	404.971	0.027	-	-0.000	-0.001	-	-	-	CAR1	-	25.507	-	FREEWAY_GENERAL	Urban	F	1111101000000001	0000000000000000	-	-	-	-	-	-	-	-	-	-	Terminate	
Unknown	2.08337	10/22/0116 08:24.39	00000125	0.000	Inter828t1-2	1.611	1	2	0.000	24.444	-219.2	0.025	0.000	D	F	0.0	0.000	0.203	0.003	1905.911	404.971	0.027	-	-0.000	-0.001	-	-	-	CAR1	-	25.712	-	FREEWAY_GENERAL	Urban	F	1011101000000001	0000000000000000	-	-	-	-	-	-	-	-	-	-	Terminate	
Unknown	2.10004	10/22/0116 08:24.39	00000126	0.000	Inter828t1-2	1.611	1	2	0.000	24.444	-219.2	0.026	0.000	D	F	0.0	0.000	0.204	0.003	1905.911	404.971	0.027	-	-0.000	-0.001	-	-	-	CAR1	-	25.919	-	FREEWAY_GENERAL	Urban	F	1111101000000001	0000000000000000	-	-	-	-	-	-	-	-	-	-	Terminate	
Unknown	2.11671	10/22/0116 08:24.39	00000127	0.000	Inter828t1-2	1.611	1	2	0.000	24.444	-219.2	0.023	0.000	D	F	0.0	0.000	0.204	0.003	1905.911	404.971	0.027	-	-0.000	-0.001	-	-	-	CAR1	-	26.127	-	FREEWAY_GENERAL	Urban	F	1011101000000001	0000000000000000	-	-	-	-	-	-	-	-	-	-	Terminate	
Unknown	2.13338	10/22/0116 08:24.39	00000128	0.000	Inter828t1-2	1.611	1	2	0.000	24.444	-219.2	0.026	0.000	D	F	0.0	0.000	0.204	0.004	1905.911	404.971	0.027	-	-0.000	-0.001	-	-	-	CAR1	-	26.337	-	FREEWAY_GENERAL	Urban	F	1011101000000001	0000000000000000	-	-	-	-	-	-	-	-	-	-	Terminate	
Unknown	2.15004	10/22/0116 08:24.39	00000129	0.000	Inter828t1-2	1.611	1	2	0.000	24.444	-219.2	0.018	0.000	D	F	0.0	0.000	0.204	0.004	1905.911	404.971	0.027	-	-0.000	-0.001	-	-	-	CAR1	-	26.549	-	FREEWAY_GENERAL	Urban	F	1011101000000001	0000000000000000	-	-	-	-	-	-	-	-	-	-	Terminate	
Unknown	2.16671	10/22/0116 08:24.39	00000130	0.000	Inter828t1-2	1.611	1	2	0.000	24.444	-219.2	0.011	0.000	D	F	0.0	0.000	0.204	0.004	1905.911	404.971	0.027	-	-0.000	-0.001	-	-	-	CAR1	-	26.762	-	FREEWAY_GENERAL	Urban	F	1011101000000001	0000000000000000	-	-	-	-	-	-	-	-	-	-	Terminate	
Unknown	2.18338	10/22/0116 08:24.39	00000131	0.000	Inter828t1-2	1.611	1	2	0.000	24.444	-219.1	0.004	0.000	D	F	0.0	0.000	0.204	0.004	1905.911	404.971	0.027	-	-0.000	-0.001	-	-	-	CAR1	-	26.977	-	FREEWAY_GENERAL	Urban	F	1111101000000001	0000000000000000	-	-	-	-	-	-	-	-	-	-	Terminate	
Unknown	2.20004	10/22/0116 08:24.39	00000132	0.000	Inter828t1-2	1.611	1	2	0.000	24.444	-219.1	0.000	0.000	D	F	0.0	0.000	0.205	0.004	1905.911	404.971	0.027	-	-0.000	-0.001	-	-	-	CAR1	-	27.194	-	FREEWAY_GENERAL	Urban	F	1111101000000001	0000000000000000	-	-	-	-	-	-	-	-	-	-	Terminate	
Unknown	2.21671	10/22/0116 08:24.39	00000133	0.000	Inter828t1-2	1.611	1	2	0.000	24.444	-219.1	0.000	0.000	D	F	0.0	0.000	0.205	0.004	1905.911	404.971	0.027	-	-0.000	-0.001	-	-	-	CAR1	-	27.412	-	FREEWAY_GENERAL	Urban	F	1111101000000001	0000000000000000	-	-	-	-	-	-	-	-	-	-	Terminate	
Unknown	2.23338	10/22/0116 08:24.39	00000134	0.000	Inter828t1-2	1.611	1	2	0.000	24.444	-219.1	0.000	0.000	D	F	0.0	0.000	0.205	0.004	1905.911	404.971	0.027	-	-0.000	-0.001	-	-	-	CAR1	-	27.632	-	FREEWAY_GENERAL	Urban	F	1011101000000001	0000000000000000	-	-	-	-	-	-	-	-	-	-	Terminate	
Unknown	2.25005	10/22/0116 08:24.39	00000135	0.000	Inter828t1-2	1.611	1	2	0.000	24.444	-219.1	0.000	0.000	D	F	0.0	0.000	0.205	0.004	1905.911	404.971	0.027	-	-0.000	-0.001	-	-	-	CAR1	-	27.854	-	FREEWAY_GENERAL	Urban	F	1011101000000001	0000000000000000	-	-	-	-	-	-	-	-	-	-	Terminate	
Unknown	2.26671	10/22/0116 08:24.39	00000136	0.000	Inter828t1-2	1.611	1	2	0.000	24.444	-219.1	0.000	0.000	D	F	0.0	0.000	0.205	0.004	1905.911	404.971	0.027	-	-0.000	-0.001	-	-	-	CAR1	-	28.077	-	FREEWAY_GENERAL	Urban	F	1011101000000001	0000000000000000	-	-	-	-	-	-	-	-	-	-	Terminate	
Unknown	2.28338	10/22/0116 08:24.39	00000137	0.000	Inter828t1-2	1.611	1	2	0.000	24.444	-219.1	0.000	0.000	D	F	0.0	0.000	0.205	0.004	1905.911	404.971	0.027	-	-0.000	-0.001	-	-	-	CAR1	-	28.302	-	FREEWAY_GENERAL	Urban	F	1111101000000001	0000000000000000	-	-	-	-	-	-	-	-	-	-	Terminate	
Unknown	2.30005	10/22/0116 08:24.39	00000138	0.000	Inter828t1-2	1.611	1	2	0.000	24.444	-219.1	0.000	0.000	D	F	0.0	0.000	0.205	0.004	1905.911	404.971	0.027	-	-0.000	-0.001	-	-	-	CAR1	-	28.529	-	FREEWAY_GENERAL	Urban	F	1011101000000001	0000000000000000	-	-	-	-	-	-	-	-	-	-	Terminate	
Unknown	2.31671	10/22/0116 08:24.39	00000139	0.000	Inter828t1-2	1.611	1	2	0.000	24.444	-219.2	0.000	0.000	D	F	0.0	0.000	0.206	0.004	1905.911	404.971	0.027	-	-0.000	-0.001	-	-	-	CAR1	-	28.757	-	FREEWAY_GENERAL	Urban	F	1111101000000001	0000000000000000	-	-	-	-	-	-	-	-	-	-	Terminate	
Unknown	2.33338	10/22/0116 08:24.39	00000140	0.000	Inter828t1-2	1.611	1	2	0.000	24.444	-219.2	0.000	0.000	D	F	0.0	0.000	0.206	0.004	1905.911	404.971	0.027	-	-0.000	-0.001	-	-	-	CAR1	-	28.987	-	FREEWAY_GENERAL	Urban	F	1011101000000001	0000000000000000	-	-	-	-	-	-	-	-	-	-	Terminate	
Unknown	2.35005	10/22/0116 08:24.39	00000141	0.000	Inter828t1-2	1.611	1	2	0.000	24.444	-219.1	0.000	0.000	D	F	0.0	0.000	0.206	0.004	1905.911	404.971	0.027	-	-0.000	-0.001	-	-	-	CAR1	-	29.219	-	FREEWAY_GENERAL	Urban	F	1011101000000001	0000000000000000	-	-	-	-	-	-	-	-	-	-	Terminate	
Unknown	2.36671	10/22/0116 08:24.39	00000142	0.000	Inter828t1-2	1.611	1	2	0.000	24.444	-219.1	0.000	0.000	D	F	0.0	0.000	0.206	0.004	1905.911	404.971	0.027	-	-0.000	-0.001	-	-	-	CAR1	-	29.452	-	FREEWAY_GENERAL	Urban	F	1011101000000001	0000000000000000	-	-	-	-	-	-	-	-	-	-	Terminate	
Unknown	2.38338	10/22/0116 08:24.39	00000143	0.000	Inter828t1-2	1.611	1	2	0.000	24.444	-219.1	0.000	0.000	D	F	0.0	0.000	0.206	0.004	1905.911	404.971	0.027	-	-0.000	-0.001	-	-	-	CAR1	-	29.687	-	FREEWAY_GENERAL	Urban	F	1011101000000001	0000000000000000	-	-	-	-	-	-	-	-	-	-	Terminate	
Unknown	2.40005	10/22/0116 08:24.39	00000144	0.000	Inter828t1-2	1.611	1	2	0.000	24.444	-219.1	0.000	0.000	D	F	0.0	0.000	0.206	0.004	1905.911	404.971	0.027	-	-0.000	-0.001	-	-	-	CAR1	-	29.924	-	FREEWAY_GENERAL	Urban	F	1011101000000001	0000000000000000	-	-	-	-	-	-	-	-	-	-	Terminate	
Unknown	2.41671	10/22/0116 08:24.39	00000145	0.000	Inter828t1-2	1.611	1	2	0.000	24.444	-219.1	0.000	0.000	D	F	0.0	0.000	0.206	0.004	1905.911	404.971	0.027	-	-0.000	-0.001	-	-	-	CAR1	-	30.162	-	FREEWAY_GENERAL	Urban	F	1011101000000001	0000000000000000	-	-	-	-	-	-	-	-	-	-	Terminate	
Unknown	2.43338	10/22/0116 08:24.39	00000146	0.000	Inter828t1-2	1.612	1	2	0.000	24.444	-219.1	0.000	0.000	D	F	0.0	0.000	0.207	0.004	1905.912	404.971	0.027	-	-0.000	-0.001	-	-	-	CAR1	-	30.402	-	FREEWAY_GENERAL	Urban	F	1111101000000001	0000000000000000	-	-	-	-	-	-	-	-	-	-	Terminate	
Unknown	2.45005	10/22/0116 08:24.39	00000147	0.000	Inter828t1-2	1.612	1	2	0.000	24.444	-219.1	0.000	0.000	D	F	0.0	0.000	0.207	0.004	1905.912	404.971	0.027	-	-0.000	-0.001	-	-	-	CAR1	-	30.644	-	FREEWAY_GENERAL	Urban	F	1111101000000001	0000000000000000	-	-	-	-	-	-	-	-	-	-	Terminate	
Unknown	2.46672	10/22/0116 08:24.39	00000148	0.000	Inter828t1-2	1.612	1	2	0.000	24.444	-219.0	0.000	0.000	D	F	0.0	0.000	0.207	0.004	1905.912	404.971	0.027	-	-0.000	-0.001	-	-	-	CAR1	-	30.887	-	FREEWAY_GENERAL	Urban	F	1011101000000001	0000000000000000	-	-	-	-	-	-	-	-	-	-	Terminate	
Unknown	2.48338	10/22/0116 08:24.39	00000149	0.000	Inter828t1-2	1.612	1	2	0.000	24.444	-219.0	0.000	0.000	D	F	0.0	0.000	0.207	0.004	1905.912	404.971	0.027	-	-0.000	-0.001	-	-	-	CAR1	-	31.132	-	FREEWAY_GENERAL	Urban	F	1011101000000001	0000000000000000	-	-	-	-	-	-	-	-	-	-	Terminate	
Unknown	2.50005	10/22/0116 08:24.39	00000150	0.000	Inter828t1-2	1.612	1	2	0.000	24.444	-219.0	0.000	0.000	D	F	0.0	0.000	0.207	0.004	1905.912	404.971	0.027	-	-0.000	-0.001	-	-	-	CAR1	-	31.379	-	FREEWAY_GENERAL	Urban	F	1011101000000001	0000000000000000	-	-	-	-	-	-	-	-	-	-	Terminate	
Unknown	2.51672	10/22/0116 08:24.39	00000151	0.000	Inter828t1-2	1.612	1	2	0.000	24.444	-218.9	0.000	0.000	D	F	0.0	0.000	0.207	0.004	1905.912	404.971	0.027	-	-0.000	-0.001	-	-	-	CAR1	-	31.627	-	FREEWAY_GENERAL	Urban	F	1011101000000001	0000000000000000	-	-	-	-	-	-	-	-	-	-	Terminate	
Unknown	2.53338	10/22/0116 08:24.40	00000152	0.000	Inter828t1-2	1.612	1	2	0.000	24.444	-218.9	0.000	0.000	D	F	0.0	0.000	0.207	0.004	1905.912	404.971	0.028	-	-0.000	-0.000	-	-	-	CAR1	-	31.877	-	FREEWAY_GENERAL	Urban	F	1111101000000001	0000000000000000	-	-	-	-	-	-	-	-	-	-	Terminate	
Unknown	2.55005	10/22/0116 08:24.40	00000153	0.000	Inter828t1-2	1.612	1	2	0.000	24.444	-218.9	0.000	0.000	D	F	0.0	0.000	0.207	0.004	1905.912	404.971	0.028	-	-0.000	-0.000	-	-	-	CAR1	-	32.129	-	FREEWAY_GENERAL	Urban	F	1011101000000001	0000000000000000	-	-	-	-	-	-	-	-	-	-	Terminate	
Unknown	2.56672	10/22/0116 08:24.40	00000154	0.000	Inter828t1-2	1.612	1	2	0.000	24.444	-218.8	0.000	0.000	D	F	0.0	0.000	0.207	0.004	1905.912	404.971	0.028	-	-0.000	-0.000	-	-	-	CAR1	-	32.382	-	FREEWAY_GENERAL	Urban	F	1011101000000001	0000000000000000	-	-	-	-	-	-	-	-	-	-	Terminate	
Unknown	2.58338	10/22/0116 08:24.40	00000155	0.000	Inter828t1-2	1.612	1	2	0.000	24.444	-218.8	0.000	0.000	D	F	0.0	0.000	0.208	0.004	1905.912	404.971	0.028	-	-0.000	-0.000	-	-	-	CAR1	-	32.637	-	FREEWAY_GENERAL	Urban	F	1011101000000001	0000000000000000	-	-	-	-	-	-	-	-	-	-	Terminate	
Unknown	2.60005	10/22/0116 08:24.40	00000156	0.000	Inter828t1-2	1.612	1	2	0.000	24.444	-218.7	0.000	0.000	D	F	0.0	0.000	0.208	0.004	1905.912	404.971	0.028	-	-0.000	-0.000	-	-	-	CAR1	-	32.894	-	FREEWAY_GENERAL	Urban	F	1111101000000001	0000000000000000	-	-	-	-	-	-	-	-	-	-	Terminate	
Unknown	2.61672	10/22/0116 08:24.40	00000157	0.000	Inter828t1-2	1.612	1	2	0.000	24.444	-218.7	0.000	0.000	D	F	0.0	0.000	0.208	0.004	1905.912	404.971	0.028	-	-0.000	-0.000	-	-	-	CAR1	-	33.152	-	FREEWAY_GENERAL	Urban	F	1011101000000001	0000000000000000	-	-	-	-	-	-	-	-	-	-	Terminate	
Unknown	2.63339	10/22/0116 08:24.40	00000158	0.000	Inter828t1-2	1.612	1	2	0.000	24.444	-218.7	0.000	0.000	D	F	0.0	0.000	0.208	0.004	1905.912	404.971	0.028	-	-0.000	-0.000	-	-	-	CAR1	-	33.412	-	FREEWAY_GENERAL	Urban	F	1011101000000001	0000000000000000	-	-	-	-	-	-	-	-	-	-	Terminate	
Unknown	2.65005	10/22/0116 08:24.40	00000159	0.000	Inter828t1-2	1.612	1	2	0.000	24.444	-218.6	0.000	0.000	D	F	0.0	0.000	0.208	0.004	1905.912	404.971	0.028	-	-0.000	-0.000	-	-	-	CAR1	-	33.674	-	FREEWAY_GENERAL	Urban	F	1011101000000001	0000000000000000	-	-	-	-	-	-	-	-	-	-	Terminate	
Unknown	2.66672	10/22/0116 08:24.40	00000160	0.000	Inter828t1-2	1.612	1	2	0.000	24.444	-218.6	0.000	0.000	D	F	0.0	0.000	0.208	0.004	1905.912	404.971	0.028	-	-0.000	-0.000	-	-	-	CAR1	-	33.937	-	FREEWAY_GENERAL	Urban	F	1011101000000001	0000000000000000	-	-	-	-	-	-	-	-	-	-	Terminate	
Unknown	2.68339	10/22/0116 08:24.40	00000161	0.000	Inter828t1-2	1.612	1	2	0.000	24.444	-218.5	0.000	0.000	D	F	0.0	0.000	0.208	0.004	1905.912	404.971	0.028	-	-0.000	-0.000	-	-	-	CAR1	-	34.202	-	FREEWAY_GENERAL	Urban	F	1111101000000001	0000000000000000	-	-	-	-	-	-	-	-	-	-	Terminate	
Unknown	2.70005	10/22/0116 08:24.40	00000162	0.000	Inter828t1-2	1.612	1	2	0.000	24.444	-218.5	0.000	0.000	D	F	0.0	0.000	0.208	0.004	1905.912	404.971	0.028	-	-0.000	-0.000	-	-	-	CAR1	-	32.109	-	FREEWAY_GENERAL	Urban	F	1111101000000001	0000000000000000	-	-	-	-	-	-	-	-	-	-	Terminate	
Unknown	2.71672	10/22/0116 08:24.40	00000163	0.000	Inter828t1-2	1.612	1	2	0.000	24.444	-218.4	0.000	0.000	D	F	0.0	0.000	0.208	0.004	1905.912	404.971	0.028	-	-0.000	-0.000	-	-	-	CAR1	-	32.378	-	FREEWAY_GENERAL	Urban	F	1011101000000001	0000000000000000	-	-	-	-	-	-	-	-	-	-	Terminate	
Unknown	2.73339	10/22/0116 08:24.40	00000164	0.000	Inter828t1-2	1.612	1	2	0.000	24.444	-218.4	0.000	0.000	D	F	0.0	0.000	0.208	0.004	1905.912	404.971	0.028	-	-0.000	-0.000	-	-	-	CAR1	-	32.648	-	FREEWAY_GENERAL	Urban	F	1011101000000001	0000000000000000	-	-	-	-	-	-	-	-	-	-	Terminate	
Unknown	2.75006	10/22/0116 08:24.40	00000165	0.000	Inter828t1-2	1.612	1	2	0.000	24.444	-218.3	0.000	0.000	D	F	0.0	0.000	0.208	0.004	1905.912	404.971	0.028	-	-0.000	-0.000	-	-	-	CAR1	-	32.919	-	FREEWAY_GENERAL	Urban	F	1011101000000001	0000000000000000	-	-	-	-	-	-	-	-	-	-	Terminate	
Unknown	2.76672	10/22/0116 08:24.40	00000166	0.000	Inter828t1-2	1.612	1	2	0.000	24.444	-218.2	0.000	0.000	D	F	0.0	0.000	0.208	0.004	1905.912	404.971	0.028	-	-0.000	-0.000	-	-	-	CAR1	-	33.193	-	FREEWAY_GENERAL	Urban	F	1111101000000001	0000000000000000	-	-	-	-	-	-	-	-	-	-	Terminate	
Unknown	2.78339	10/22/0116 08:24.40	00000167	0.000	Inter828t1-2	1.612	1	2	0.000	24.444	-218.2	0.000	0.000	D	F	0.0	0.000	0.209	0.004	1905.912	404.971	0.028	-	-0.000	-0.000	-	-	-	CAR1	-	33.468	-	FREEWAY_GENERAL	Urban	F	1011101000000001	0000000000000000	-	-	-	-	-	-	-	-	-	-	Terminate	
Unknown	2.80006	10/22/0116 08:24.40	00000168	0.000	Inter828t1-2	1.612	1	2	0.000	24.444	-218.1	0.000	0.000	D	F	0.0	0.000	0.209	0.004	1905.912	404.971	0.028	-	-0.000	-0.000	-	-	-	CAR1	-	33.744	-	FREEWAY_GENERAL	Urban	F	1011101000000001	0000000000000000	-	-	-	-	-	-	-	-	-	-	Terminate	
Unknown	2.81672	10/22/0116 08:24.40	00000169	0.000	Inter828t1-2	1.612	1	2	0.000	24.444	-218.1	0.000	0.000	D	F	0.0	0.000	0.209	0.004	1905.912	404.971	0.028	-	-0.000	-0.000	-	-	-	CAR1	-	34.023	-	FREEWAY_GENERAL	Urban	F	1011101000000001	0000000000000000	-	-	-	-	-	-	-	-	-	-	Terminate	
Unknown	2.83339	10/22/0116 08:24.40	00000170	0.000	Inter828t1-2	1.612	1	2	0.000	24.444	-218.0	0.000	0.000	D	F	0.0	0.000	0.209	0.004	1905.912	404.971	0.028	-	-0.000	-0.000	-	-	-	CAR1	-	34.303	-	FREEWAY_GENERAL	Urban	F	1111101000000001	0000000000000000	-	-	-	-	-	-	-	-	-	-	Terminate	
Unknown	2.85006	10/22/0116 08:24.40	00000171	0.000	Inter828t1-2	1.612	1	2	0.000	24.444	-218.0	0.000	0.000	D	F	0.0	0.000	0.209	0.004	1905.912	404.971	0.028	-	-0.000	-0.000	-	-	-	CAR1	-	34.584	-	FREEWAY_GENERAL	Urban	F	1011101000000001	0000000000000000	-	-	-	-	-	-	-	-	-	-	Terminate	
Unknown	2.86672	10/22/0116 08:24.40	00000172	0.000	Inter828t1-2	1.612	1	2	0.000	24.444	-217.9	0.000	0.000	D	F	0.0	0.000	0.209	0.004	1905.912	404.971	0.028	-	-0.000	-0.000	-	-	-	CAR1	-	34.868	-	FREEWAY_GENERAL	Urban	F	1011101000000001	0000000000000000	-	-	-	-	-	-	-	-	-	-	Terminate	
Unknown	2.88339	10/22/0116 08:24.40	00000173	0.000	Inter828t1-2	1.612	1	2	0.000	24.444	-217.9	0.000	0.000	D	F	0.0	0.000	0.209	0.004	1905.912	404.971	0.028	-	-0.000	-0.000	-	-	-	CAR1	-	35.153	-	FREEWAY_GENERAL	Urban	F	1011101000000001	0000000000000000	-	-	-	-	-	-	-	-	-	-	Terminate	
Unknown	2.90006	10/22/0116 08:24.40	00000174	0.000	Inter828t1-2	1.612	1	2	0.000	24.444	-217.9	0.000	0.000	D	F	0.0	0.000	0.209	0.004	1905.912	404.971	0.028	-	-0.000	-0.000	-	-	-	CAR1	-	35.439	-	FREEWAY_GENERAL	Urban	F	1011101000000001	0000000000000000	-	-	-	-	-	-	-	-	-	-	Terminate	
Unknown	2.91672	10/22/0116 08:24.40	00000175	0.000	Inter828t1-2	1.612	1	2	0.000	24.444	-217.9	0.000	0.000	D	F	0.0	0.000	0.209	0.004	1905.912	404.971	0.028	-	-0.000	-0.000	-	-	-	CAR1	-	35.728	-	FREEWAY_GENERAL	Urban	F	1111101000000001	0000000000000000	-	-	-	-	-	-	-	-	-	-	Terminate	
Unknown	2.93339	10/22/0116 08:24.40	00000176	0.000	Inter828t1-2	1.612	1	2	0.000	24.444	-217.9	0.000	0.000	D	F	0.0	0.000	0.209	0.004	1905.912	404.971	0.028	-	-0.000	-0.000	-	-	-	CAR1	-	36.018	-	FREEWAY_GENERAL	Urban	F	1011101000000001	0000000000000000	-	-	-	-	-	-	-	-	-	-	Terminate	
Unknown	2.95006	10/22/0116 08:24.40	00000177	0.000	Inter828t1-2	1.612	1	2	0.000	24.444	-217.8	0.000	0.000	D	F	0.0	0.000	0.209	0.004	1905.912	404.971	0.028	-	-0.000	-0.000	-	-	-	CAR1	-	36.309	-	FREEWAY_GENERAL	Urban	F	1011101000000001	0000000000000000	-	-	-	-	-	-	-	-	-	-	Terminate	
Unknown	2.96673	10/22/0116 08:24.40	00000178	0.000	Inter828t1-2	1.612	1	2	0.000	24.444	-217.8	0.000	0.000	D	F	0.0	0.000	0.209	0.004	1905.912	404.971	0.028	-	-0.000	-0.000	-	-	-	CAR1	-	36.603	-	FREEWAY_GENERAL	Urban	F	1011101000000001	0000000000000000	-	-	-	-	-	-	-	-	-	-	Terminate	
Unknown	2.98339	10/22/0116 08:24.40	00000179	0.000	Inter828t1-2	1.612	1	2	0.000	24.444	-217.8	0.000	0.000	D	F	0.0	0.000	0.209	0.004	1905.912	404.971	0.028	-	-0.000	-0.000	-	-	-	CAR1	-	36.898	-	FREEWAY_GENERAL	Urban	F	1111101000000001	0000000000000000	-	-	-	-	-	-	-	-	-	-	Terminate	
Unknown	3.00006	10/22/0116 08:24.40	00000180	0.000	Inter828t1-2	1.612	1	2	0.000	24.444	-217.7	0.000	0.000	D	F	0.0	0.000	0.209	0.004	1905.912	404.971	0.028	-	-0.000	-0.000	-	-	-	CAR1	-	37.194	-	FREEWAY_GENERAL	Urban	F	1011101000000001	0000000000000000	-	-	-	-	-	-	-	-	-	-	Terminate	
Unknown	3.01673	10/22/0116 08:24.40	00000181	0.000	Inter828t1-2	1.612	1	2	0.000	24.444	-217.7	0.000	0.000	D	F	0.0	0.000	0.209	0.004	1905.912	404.971	0.028	-	-0.000	-0.000	-	-	-	CAR1	-	37.493	-	FREEWAY_GENERAL	Urban	F	1011101000000001	0000000000000000	-	-	-	-	-	-	-	-	-	-	Terminate	
Unknown	3.03339	10/22/0116 08:24.40	00000182	0.000	Inter828t1-2	1.612	1	2	0.000	24.444	-217.6	0.000	0.000	D	F	0.0	0.000	0.209	0.003	1905.912	404.971	0.028	-	-0.000	-0.000	-	-	-	CAR1	-	37.793	-	FREEWAY_GENERAL	Urban	F	1011101000000001	0000000000000000	-	-	-	-	-	-	-	-	-	-	Terminate	
Unknown	3.05006	10/22/0116 08:24.40	00000183	0.000	Inter828t1-2	1.612	1	2	0.000	24.444	-217.6	0.000	0.000	D	F	0.0	0.000	0.210	0.003	1905.912	404.971	0.028	-	-0.000	-0.000	-	-	-	CAR1	-	38.094	-	FREEWAY_GENERAL	Urban	F	1011101000000001	0000000000000000	-	-	-	-	-	-	-	-	-	-	Terminate	
Unknown	3.06673	10/22/0116 08:24.40	00000184	0.000	Inter828t1-2	1.612	1	2	0.000	24.444	-217.5	0.000	0.000	D	F	0.0	0.000	0.210	0.003	1905.912	404.971	0.028	-	-0.000	-0.000	-	-	-	CAR1	-	38.398	-	FREEWAY_GENERAL	Urban	F	1111101000000001	0000000000000000	-	-	-	-	-	-	-	-	-	-	Terminate	
Unknown	3.08340	10/22/0116 08:24.40	00000185	0.000	Inter828t1-2	1.612	1	2	0.000	24.444	-217.5	0.000	0.000	D	F	0.0	0.000	0.210	0.003	1905.912	404.971	0.028	-	-0.000	-0.000	-	-	-	CAR1	-	38.703	-	FREEWAY_GENERAL	Urban	F	1111101000000001	0000000000000000	-	-	-	-	-	-	-	-	-	-	Terminate	
Unknown	3.10006	10/22/0116 08:24.40	00000186	0.000	Inter828t1-2	1.612	1	2	0.000	24.444	-217.5	0.000	0.000	D	F	0.0	0.000	0.210	0.003	1905.912	404.971	0.028	-	-0.000	-0.000	-	-	-	CAR1	-	39.009	-	FREEWAY_GENERAL	Urban	F	1011101000000001	0000000000000000	-	-	-	-	-	-	-	-	-	-	Terminate	
Unknown	3.11673	10/22/0116 08:24.40	00000187	0.000	Inter828t1-2	1.612	1	2	0.000	24.444	-217.4	0.000	0.000	D	F	0.0	0.000	0.210	0.003	1905.912	404.971	0.028	-	-0.000	-0.000	-	-	-	CAR1	-	39.318	-	FREEWAY_GENERAL	Urban	F	1011101000000001	0000000000000000	-	-	-	-	-	-	-	-	-	-	Terminate	
Unknown	3.13340	10/22/0116 08:24.40	00000188	0.000	Inter828t1-2	1.612	1	2	0.000	24.444	-217.4	0.000	0.000	D	F	0.0	0.000	0.210	0.003	1905.912	404.971	0.028	-	-0.000	-0.000	-	-	-	CAR1	-	39.628	-	FREEWAY_GENERAL	Urban	F	1011101000000001	0000000000000000	-	-	-	-	-	-	-	-	-	-	Terminate	
Unknown	3.15006	10/22/0116 08:24.40	00000189	0.000	Inter828t1-2	1.612	1	2	0.000	24.444	-217.4	0.000	0.000	D	F	0.0	0.000	0.210	0.003	1905.912	404.971	0.028	-	-0.000	-0.000	-	-	-	CAR1	-	39.939	-	FREEWAY_GENERAL	Urban	F	1111101000000001	0000000000000000	-	-	-	-	-	-	-	-	-	-	Terminate	
Unknown	3.16673	10/22/0116 08:24.40	00000190	0.000	Inter828t1-2	1.612	1	2	0.000	24.444	-217.4	0.000	0.000	N	F	0.0	0.000	0.210	0.003	1905.912	404.971	0.028	-	-0.000	-0.000	-	-	-	CAR1	-	40.253	-	FREEWAY_GENERAL	Urban	F	1011101000000001	0000000000000000	-	-	-	-	-	-	-	-	-	-	Terminate	
Unknown	3.18340	10/22/0116 08:24.40	00000191	0.000	Inter828t1-2	1.612	1	2	0.000	24.444	-217.4	0.000	0.000	N	F	0.0	0.000	0.210	0.003	1905.912	404.971	0.028	-	-0.000	-0.000	-	-	-	CAR1	-	40.568	-	FREEWAY_GENERAL	Urban	F	1011101000000001	0000000000000000	-	-	-	-	-	-	-	-	-	-	Terminate	
Unknown	3.20006	10/22/0116 08:24.40	00000192	0.000	Inter828t1-2	1.612	1	2	0.000	24.444	-217.4	0.000	0.000	N	F	0.0	0.000	0.210	0.003	1905.912	404.971	0.028	-	-0.000	-0.000	-	-	-	CAR1	-	40.884	-	FREEWAY_GENERAL	Urban	F	1011101000000001	0000000000000000	-	-	-	-	-	-	-	-	-	-	Terminate	
Unknown	3.21673	10/22/0116 08:24.40	00000193	0.000	Inter828t1-2	1.612	1	2	0.000	24.444	-217.4	0.000	0.000	R	F	0.0	0.000	0.210	0.003	1905.912	404.971	0.028	-	-0.000	-0.000	-	-	-	CAR1	-	41.202	-	FREEWAY_GENERAL	Urban	F	1011101000000001	0000000000000000	-	-	-	-	-	-	-	-	-	-	Terminate	
Unknown	3.23340	10/22/0116 08:24.40	00000194	0.000	Inter828t1-2	1.612	1	2	0.000	24.444	-217.4	0.000	0.000	R	F	0.0	0.000	0.210	0.003	1905.912	404.971	0.028	-	-0.000	-0.000	-	-	-	CAR1	-	41.522	-	FREEWAY_GENERAL	Urban	F	1111101000000001	0000000000000000	-	-	-	-	-	-	-	-	-	-	Terminate	
Unknown	3.25007	10/22/0116 08:24.40	00000195	0.000	Inter828t1-2	1.612	1	2	0.000	24.444	-217.4	0.000	0.000	R	F	0.0	0.000	0.210	0.003	1905.912	404.971	0.028	-	-0.000	-0.000	-	-	-	CAR1	-	41.844	-	FREEWAY_GENERAL	Urban	F	1011101000000001	0000000000000000	-	-	-	-	-	-	-	-	-	-	Terminate	
Unknown	3.26673	10/22/0116 08:24.40	00000196	0.000	Inter828t1-2	1.612	1	2	0.000	24.444	-217.4	0.000	0.000	P	F	0.0	0.000	0.210	0.003	1905.912	404.971	0.028	-	-0.000	-0.000	-	-	-	CAR1	-	42.167	-	FREEWAY_GENERAL	Urban	F	1011101000000001	0000000000000000	-	-	-	-	-	-	-	-	-	-	Terminate	
Unknown	3.28340	10/22/0116 08:24.40	00000197	0.000	Inter828t1-2	1.612	1	2	0.000	24.444	-217.4	0.000	0.000	P	F	0.0	0.000	0.210	0.003	1905.912	404.971	0.028	-	-0.000	-0.000	-	-	-	CAR1	-	42.492	-	FREEWAY_GENERAL	Urban	F	1011101000000001	0000000000000000	-	-	-	-	-	-	-	-	-	-	Terminate	
Unknown	3.30007	10/22/0116 08:24.40	00000198	0.000	Inter828t1-2	1.612	1	2	0.000	24.444	-217.3	0.000	0.000	P	F	0.0	0.000	0.210	0.003	1905.912	404.971	0.028	-	-0.000	-0.000	-	-	-	CAR1	-	42.819	-	FREEWAY_GENERAL	Urban	F	1011101000000001	0000000000000000	-	-	-	-	-	-	-	-	-	-	Terminate	
Unknown	3.31673	10/22/0116 08:24.40	00000199	-0.000	Inter828t1-2	1.612	1	2	0.000	24.444	-217.3	0.000	0.000	P	F	0.0	0.000	0.210	0.003	1905.912	404.971	0.028	-	-0.000	-0.000	-	-	-	CAR1	-	43.147	-	FREEWAY_GENERAL	Urban	F	1111101000000001	0000000000000000	-	-	-	-	-	-	-	-	-	-	Terminate	
Unknown	3.33340	10/22/0116 08:24.40	00000200	-0.000	Inter828t1-2	1.612	1	2	0.000	24.444	-217.2	0.000	0.000	P	F	0.0	0.000	0.210	0.003	1905.912	404.971	0.028	-	-0.000	-0.000	-	-	-	CAR1	-	43.477	-	FREEWAY_GENERAL	Urban	F	1111101000000001	0000000000000000	-	-	-	-	-	-	-	-	-	-	Terminate	
Unknown	3.35007	10/22/0116 08:24.40	00000201	-0.000	Inter828t1-2	1.612	1	2	0.000	24.444	-217.2	0.000	0.000	P	F	0.0	0.000	0.210	0.003	1905.912	404.971	0.028	-	-0.000	-0.000	-	-	-	CAR1	-	43.808	-	FREEWAY_GENERAL	Urban	F	1011101000000001	0000000000000000	-	-	-	-	-	-	-	-	-	-	Terminate	
Unknown	3.36673	10/22/0116 08:24.40	00000202	-0.000	Inter828t1-2	1.612	1	2	0.000	24.444	-217.1	0.000	0.000	P	F	0.0	0.000	0.210	0.003	1905.912	404.971	0.028	-	-0.000	-0.000	-	-	-	CAR1	-	44.141	-	FREEWAY_GENERAL	Urban	F	1011101000000001	0000000000000000	-	-	-	-	-	-	-	-	-	-	Terminate	
Unknown	3.38340	10/22/0116 08:24.40	00000203	-0.000	Inter828t1-2	1.612	1	2	0.000	24.444	-217.1	0.000	0.000	P	F	0.0	0.000	0.210	0.003	1905.912	404.971	0.028	-	-0.000	-0.000	-	-	-	CAR1	-	44.476	-	FREEWAY_GENERAL	Urban	F	1111101000000001	0000000000000000	-	-	-	-	-	-	-	-	-	-	Terminate	
Unknown	3.40007	10/22/0116 08:24.40	00000204	-0.000	Inter828t1-2	1.612	1	2	0.000	24.444	-217.1	0.000	0.000	P	F	0.0	0.000	0.210	0.003	1905.912	404.971	0.028	-	-0.000	-0.000	-	-	-	CAR1	-	44.813	-	FREEWAY_GENERAL	Urban	F	1011101000000001	0000000000000000	-	-	-	-	-	-	-	-	-	-	Terminate	
Unknown	3.41673	10/22/0116 08:24.40	00000205	-0.000	Inter828t1-2	1.612	1	2	0.000	24.444	-217.0	0.000	0.000	P	F	0.0	0.000	0.210	0.002	1905.912	404.971	0.028	-	-0.000	-0.000	-	-	-	CAR1	-	45.151	-	FREEWAY_GENERAL	Urban	F	1011101000000001	0000000000000000	-	-	-	-	-	-	-	-	-	-	Terminate	
Unknown	3.43340	10/22/0116 08:24.40	00000206	-0.000	Inter828t1-2	1.612	1	2	0.000	24.444	-217.1	0.000	0.000	P	F	0.0	0.000	0.210	0.002	1905.912	404.971	0.028	-	-0.000	-0.000	-	-	-	CAR1	-	45.491	-	FREEWAY_GENERAL	Urban	F	1011101000000001	0000000000000000	-	-	-	-	-	-	-	-	-	-	Terminate	
Unknown	3.45007	10/22/0116 08:24.40	00000207	-0.000	Inter828t1-2	1.612	1	2	0.000	24.444	-217.1	0.000	0.000	P	F	0.0	0.000	0.210	0.002	1905.912	404.971	0.028	-	-0.000	-0.000	-	-	-	CAR1	-	45.832	-	FREEWAY_GENERAL	Urban	F	1011101000000001	0000000000000000	-	-	-	-	-	-	-	-	-	-	Terminate	
Unknown	3.46674	10/22/0116 08:24.40	00000208	-0.000	Inter828t1-2	1.612	1	2	0.000	24.444	-217.1	0.000	0.000	P	F	0.0	0.000	0.210	0.002	1905.912	404.971	0.028	-	-0.000	-0.000	-	-	-	CAR1	-	46.175	-	FREEWAY_GENERAL	Urban	F	1011101000000001	0000000000000000	-	-	-	-	-	-	-	-	-	-	Terminate	
Unknown	3.48340	10/22/0116 08:24.40	00000209	-0.000	Inter828t1-2	1.612	1	2	0.000	24.444	-217.2	0.000	0.000	P	F	0.0	0.000	0.210	0.002	1905.912	404.971	0.028	-	-0.000	-0.000	-	-	-	CAR1	-	46.520	-	FREEWAY_GENERAL	Urban	F	1011101000000001	0000000000000000	-	-	-	-	-	-	-	-	-	-	Terminate	
Unknown	3.50007	10/22/0116 08:24.40	00000210	-0.000	Inter828t1-2	1.612	1	2	0.000	24.444	-217.2	0.000	0.000	P	F	0.0	0.000	0.210	0.002	1905.912	404.971	0.028	-	-0.000	-0.000	-	-	-	CAR1	-	46.866	-	FREEWAY_GENERAL	Urban	F	1011101000000001	0000000000000000	-	-	-	-	-	-	-	-	-	-	Terminate	
