"Name"	"Project"	"Time"	ZoneName	Time	SystemTime	Frame	Velocity	LaneName	LanePos	LaneIndex	LaneCount	LaneHeading	SpeedLimit	Steer	Accel	Brake	Gear	Horn	SubjectEngineRPM	SubjectHeading	SubjectPitch	SubjectRoll	SubjectX	SubjectY	SubjectZ	Signal	LatAccel	LongAccel	Collision	CollisionAngle	CollisionVelocity	VehAhead	HeadwayTime	HeadwayDist	TTC	TerrainType	CultureType	Slip	DigitalInputs	DigitalInputs2	ActiveTrigger	EntityName	DistToEntity	TimeToEntity	EntityVelocity	EntityAccel	EntityHeading	EntityX	EntityY	EntityZ	GrabData	
"Student16Mode3"	"Tanvi_6"	"Dec 01, 2016 09:51:31 AM"	Unknown	0.98335	11/01/0116 09:51.36	00000059	0.002	Inter625t13-0	-0.088	1	2	0.000	11.111	2.5	0.000	0.000	D	F	0.0	0.001	0.153	-0.001	1503.500	523.206	0.019	-	-0.000	0.000	-	-	-	-	-	-	-	PAVEMENT_GENERAL	Urban	F	1011101000011101	0000000000010000	-	car	928.855	774735.750	0.000	0.000	180.000	696.000	987.000	-0.000	Terminate	
"Student16Mode3"	"Tanvi_6"	"Dec 01, 2016 09:51:31 AM"	Unknown	1.98337	11/01/0116 09:51.37	00000119	0.000	Inter625t13-0	-0.088	1	2	0.000	11.111	2.5	0.000	0.000	D	F	0.0	0.000	0.197	-0.000	1503.500	523.208	0.026	-	0.000	-0.001	-	-	-	-	-	-	-	PAVEMENT_GENERAL	Urban	F	1011101000011101	0000000000010000	-	car	928.855	4213740.500	0.000	0.000	180.000	696.000	987.000	-0.000	Terminate	
"Student16Mode3"	"Tanvi_6"	"Dec 01, 2016 09:51:31 AM"	Unknown	2.98339	11/01/0116 09:51.38	00000179	-0.000	Inter625t13-0	-0.088	1	2	0.000	11.111	2.5	0.000	0.000	D	F	0.0	0.000	0.207	-0.000	1503.500	523.208	0.028	-	0.000	-0.000	-	-	-	-	-	-	-	PAVEMENT_GENERAL	Urban	F	1011101000011101	0000000000010000	-	car	928.854	-116009888.000	0.000	0.000	180.000	696.000	987.000	-0.000	Terminate	
"Student16Mode3"	"Tanvi_6"	"Dec 01, 2016 09:51:31 AM"	Unknown	3.98341	11/01/0116 09:51.39	00000239	-0.000	Inter625t13-0	-0.088	1	2	0.000	11.111	2.5	0.005	0.000	D	F	0.0	0.000	0.210	-0.000	1503.500	523.208	0.028	-	0.000	-0.000	-	-	-	-	-	-	-	PAVEMENT_GENERAL	Urban	F	1011101000011101	0000000000010000	-	car	928.854	-22305828.000	0.000	0.000	180.000	696.000	987.000	-0.000	Terminate	
"Student16Mode3"	"Tanvi_6"	"Dec 01, 2016 09:51:31 AM"	Unknown	4.98343	11/01/0116 09:51.40	00000299	-0.000	Inter625t13-0	-0.088	1	2	0.000	11.111	2.5	0.005	0.000	D	F	0.0	0.000	0.210	-0.000	1503.500	523.208	0.028	-	0.000	0.000	-	-	-	-	-	-	-	PAVEMENT_GENERAL	Urban	F	1011101000011101	0000000000010000	-	car	928.854	-24858700.000	0.000	0.000	180.000	696.000	987.000	-0.000	Terminate	
"Student16Mode3"	"Tanvi_6"	"Dec 01, 2016 09:51:31 AM"	Unknown	5.98345	11/01/0116 09:51.41	00000359	-0.000	Inter625t13-0	-0.088	1	2	0.000	11.111	2.5	0.011	0.000	D	F	0.0	0.000	0.209	-0.000	1503.500	523.208	0.028	-	0.000	0.000	-	-	-	-	-	-	-	PAVEMENT_GENERAL	Urban	F	1011101000011101	0000000000010000	-	car	928.855	-34383560.000	0.000	0.000	180.000	696.000	987.000	-0.000	Terminate	
"Student16Mode3"	"Tanvi_6"	"Dec 01, 2016 09:51:31 AM"	Unknown	6.98347	11/01/0116 09:51.42	00000419	-0.000	Inter625t13-0	-0.088	1	2	0.000	11.111	2.5	0.012	0.000	D	F	0.0	0.000	0.209	-0.000	1503.500	523.208	0.028	-	0.000	0.000	-	-	-	-	-	-	-	PAVEMENT_GENERAL	Urban	F	1011101000011101	0000000000010000	-	car	928.855	-48194908.000	0.000	0.000	180.000	696.000	987.000	-0.000	Terminate	
"Student16Mode3"	"Tanvi_6"	"Dec 01, 2016 09:51:31 AM"	Unknown	7.98349	11/01/0116 09:51.43	00000479	-0.000	Inter625t13-0	-0.088	1	2	0.000	11.111	2.5	0.012	0.000	D	F	0.0	0.000	0.209	0.000	1503.500	523.208	0.028	-	0.000	0.000	-	-	-	-	-	-	-	PAVEMENT_GENERAL	Urban	F	1011101000011101	0000000000010000	-	car	928.855	-64939380.000	0.000	0.000	180.000	696.000	987.000	-0.000	Terminate	
"Student16Mode3"	"Tanvi_6"	"Dec 01, 2016 09:51:31 AM"	Unknown	8.98351	11/01/0116 09:51.44	00000539	-0.000	Inter625t13-0	-0.088	1	2	0.000	11.111	2.5	0.019	0.000	D	F	0.0	0.000	0.209	0.000	1503.500	523.208	0.028	-	0.000	0.000	-	-	-	-	-	-	-	PAVEMENT_GENERAL	Urban	F	1111101000011101	0000000000010000	-	car	928.855	-83369680.000	0.000	0.000	180.000	696.000	987.000	-0.000	Terminate	
"Student16Mode3"	"Tanvi_6"	"Dec 01, 2016 09:51:31 AM"	Unknown	9.98353	11/01/0116 09:51.45	00000599	-0.000	Inter625t13-0	-0.088	1	2	0.000	11.111	2.5	0.120	0.000	D	F	0.0	0.000	0.209	0.000	1503.500	523.208	0.028	-	0.000	0.000	-	-	-	-	-	-	-	PAVEMENT_GENERAL	Urban	F	1011101000011101	0000000000010000	-	car	928.855	-102684224.000	0.000	0.000	180.000	696.000	987.000	-0.000	Terminate	
"Student16Mode3"	"Tanvi_6"	"Dec 01, 2016 09:51:31 AM"	Unknown	10.98355	11/01/0116 09:51.46	00000659	0.118	Inter625t13-0	-0.088	1	2	0.000	11.111	2.5	0.146	0.000	D	F	194.4	0.001	0.200	0.000	1503.500	523.221	0.019	-	0.001	0.647	-	-	-	-	-	-	-	PAVEMENT_GENERAL	Urban	F	1011101000011111	0000000000010000	-	car	928.848	15771.301	0.000	0.000	180.000	696.000	987.000	-0.000	Terminate	
"Student16Mode3"	"Tanvi_6"	"Dec 01, 2016 09:51:31 AM"	Unknown	11.98357	11/01/0116 09:51.47	00000719	3.085	Inter625t13-0	-0.082	1	2	0.000	11.111	12.3	0.160	0.000	D	F	1516.2	0.168	0.215	-0.015	1503.506	524.824	0.013	-	0.099	2.583	-	-	-	-	-	-	-	PAVEMENT_GENERAL	Urban	F	1011101000011101	0000000000010000	-	car	928.056	608.756	0.000	0.000	180.000	696.000	987.000	-0.000	Terminate	
"Student16Mode3"	"Tanvi_6"	"Dec 01, 2016 09:51:31 AM"	Unknown	12.98359	11/01/0116 09:51.48	00000779	5.886	Inter625t13-0	0.034	1	2	0.000	11.111	14.2	0.279	0.000	D	F	2080.1	1.867	0.225	-0.013	1503.622	529.300	0.013	-	0.141	2.637	-	-	-	-	-	-	-	PAVEMENT_GENERAL	Urban	F	1011101000011101	0000000000010000	-	car	925.942	338.683	0.000	0.000	180.000	696.000	987.000	-0.000	Terminate	
"Student16Mode3"	"Tanvi_6"	"Dec 01, 2016 09:51:31 AM"	Unknown	13.98361	11/01/0116 09:51.49	00000839	8.420	Inter625t49-0	0.339	1	1	0.006	11.111	-2.8	0.335	0.000	D	F	2692.7	2.393	0.224	0.011	1503.927	536.434	0.014	-	-0.063	2.629	-	-	-	-	-	-	-	PAVEMENT_GENERAL	Urban	F	1011101000011101	0000000000010000	-	car	922.711	243.418	0.000	0.000	180.000	696.000	987.000	-0.000	Terminate	
"Student16Mode3"	"Tanvi_6"	"Dec 01, 2016 09:51:31 AM"	Unknown	14.98363	11/01/0116 09:51.50	00000899	10.847	Inter625t49-0	0.701	1	1	0.007	11.111	-2.5	0.367	0.000	D	F	2261.5	1.948	0.211	0.012	1504.290	546.147	0.017	-	-0.085	1.743	-	-	-	-	-	-	-	PAVEMENT_GENERAL	Urban	F	1011101000011101	0000000000010000	-	car	918.338	188.691	0.000	0.000	180.000	696.000	987.000	-0.000	Terminate	
"Student16Mode3"	"Tanvi_6"	"Dec 01, 2016 09:51:31 AM"	Unknown	15.98365	11/01/0116 09:51.51	00000959	12.393	Inter625t49-0	1.032	1	1	0.006	11.111	-6.9	0.376	0.000	D	F	2304.2	1.257	0.211	0.036	1504.623	557.782	0.020	-	-0.256	1.449	-	-	-	11	12.940	160.364	-	PAVEMENT_GENERAL	Urban	F	1011101000011101	0000000000010000	-	car	913.118	163.974	0.000	0.000	180.000	696.000	987.000	-0.000	Terminate	
"Student16Mode3"	"Tanvi_6"	"Dec 01, 2016 09:51:31 AM"	Unknown	16.98367	11/01/0116 09:51.52	00001019	13.805	Inter625t49-0	1.184	1	1	0.005	11.111	-5.4	0.390	0.000	D	F	2479.2	0.152	0.210	0.033	1504.776	570.883	0.020	-	-0.247	1.397	-	-	-	11	11.962	165.129	-	PAVEMENT_GENERAL	Urban	F	1011101000011101	0000000000010000	-	car	907.185	144.387	0.000	0.000	180.000	696.000	987.000	-0.000	Terminate	
"Student16Mode3"	"Tanvi_6"	"Dec 01, 2016 09:51:31 AM"	Unknown	17.98369	11/01/0116 09:51.53	00001079	15.149	Inter625t15-0	1.139	1	2	0.000	11.111	-2.5	0.307	0.000	D	F	2617.0	359.556	0.203	0.018	1504.733	585.377	0.021	-	-0.131	1.192	-	-	-	11	11.123	168.510	-	PAVEMENT_GENERAL	Urban	F	1011101000011101	0000000000010000	-	car	900.608	131.606	0.000	0.000	180.000	696.000	987.000	-0.000	Terminate	
"Student16Mode3"	"Tanvi_6"	"Dec 01, 2016 09:51:31 AM"	Unknown	18.98371	11/01/0116 09:51.54	00001139	16.157	Inter614t1-0	0.953	1	2	0.000	11.111	-3.5	0.252	0.000	D	F	2103.1	358.997	0.197	0.028	1504.546	601.078	0.023	-	-0.194	0.673	-	-	-	-	-	-	-	PAVEMENT_GENERAL	Urban	F	1011101000011101	0000000000010000	-	car	893.566	123.873	0.000	0.000	180.000	696.000	987.000	-0.000	Terminate	
"Student16Mode3"	"Tanvi_6"	"Dec 01, 2016 09:51:31 AM"	Unknown	19.98373	11/01/0116 09:51.55	00001199	16.628	Inter614t1-0	0.654	1	2	0.000	11.111	2.2	0.159	0.000	D	F	1891.8	359.150	0.198	-0.020	1504.248	617.515	0.025	-	0.141	0.229	-	-	-	-	-	-	-	PAVEMENT_GENERAL	Urban	F	1011101000011101	0000000000010000	-	car	886.338	124.188	0.000	0.000	180.000	696.000	987.000	-0.000	Terminate	
"Student16Mode3"	"Tanvi_6"	"Dec 01, 2016 09:51:31 AM"	Unknown	20.98375	11/01/0116 09:51.56	00001259	16.739	Inter614t1-0	0.460	1	2	0.000	11.111	1.5	0.141	0.000	D	F	1862.2	359.536	0.193	-0.011	1504.053	634.200	0.026	-	0.094	0.100	-	-	-	-	-	-	-	PAVEMENT_GENERAL	Urban	F	1011101000011101	0000000000010000	-	car	879.353	128.905	0.000	0.000	180.000	696.000	987.000	-0.000	Terminate	
"Student16Mode3"	"Tanvi_6"	"Dec 01, 2016 09:51:31 AM"	Unknown	21.98377	11/01/0116 09:51.57	00001319	16.863	Inter614t1-0	0.358	1	2	0.000	11.111	2.5	0.150	0.000	D	F	1885.0	359.852	0.193	-0.019	1503.951	650.998	0.026	-	0.135	0.126	-	-	-	-	-	-	-	PAVEMENT_GENERAL	Urban	F	1011101000011101	0000000000010000	-	car	872.673	133.944	0.000	0.000	180.000	696.000	987.000	-0.000	Terminate	
"Student16Mode3"	"Tanvi_6"	"Dec 01, 2016 09:51:31 AM"	Unknown	22.98379	11/01/0116 09:51.58	00001379	17.017	Inter614t1-0	0.372	1	2	0.000	11.111	2.4	0.155	0.000	D	F	1908.7	0.251	0.194	-0.019	1503.965	667.934	0.026	-	0.123	0.144	-	-	-	-	-	-	-	PAVEMENT_GENERAL	Urban	F	1011101000011101	0000000000010000	-	car	866.324	140.168	0.000	0.000	180.000	696.000	987.000	-0.000	Terminate	
"Student16Mode3"	"Tanvi_6"	"Dec 01, 2016 09:51:31 AM"	Unknown	23.98381	11/01/0116 09:51.59	00001439	17.244	Inter614t1-0	0.501	1	2	0.000	11.111	0.6	0.168	0.000	D	F	1950.0	0.617	0.192	-0.009	1504.094	685.052	0.025	-	0.065	0.216	-	-	-	-	-	-	-	PAVEMENT_GENERAL	Urban	F	1011101000011101	0000000000010000	-	car	860.304	146.778	0.000	0.000	180.000	696.000	987.000	-0.000	Terminate	
"Student16Mode3"	"Tanvi_6"	"Dec 01, 2016 09:51:31 AM"	Unknown	24.98383	11/01/0116 09:52.00	00001499	17.429	Inter614t1-0	0.699	1	2	0.000	11.111	-0.1	0.146	0.000	D	F	1929.0	0.721	0.192	-0.003	1504.292	702.396	0.026	-	0.020	0.119	-	-	-	-	-	-	-	PAVEMENT_GENERAL	Urban	F	1111101000011101	0000000000010000	-	car	854.575	153.115	0.000	0.000	180.000	696.000	987.000	-0.000	Terminate	
"Student16Mode3"	"Tanvi_6"	"Dec 01, 2016 09:51:31 AM"	Unknown	25.98385	11/01/0116 09:52.01	00001559	17.554	Inter614t1-0	0.893	1	2	0.000	11.111	-1.5	0.153	0.000	D	F	1943.0	0.520	0.193	0.010	1504.487	719.886	0.026	-	-0.078	0.126	-	-	-	-	-	-	-	PAVEMENT_GENERAL	Urban	F	1011101000011101	0000000000010000	-	car	849.110	158.557	0.000	0.000	180.000	696.000	987.000	-0.000	Terminate	
"Student16Mode3"	"Tanvi_6"	"Dec 01, 2016 09:51:31 AM"	Unknown	26.98387	11/01/0116 09:52.02	00001619	17.696	Inter614t1-0	0.988	1	2	0.000	11.111	-1.8	0.159	0.000	D	F	1963.1	0.000	0.193	0.021	1504.582	737.509	0.026	-	-0.156	0.148	-	-	-	-	-	-	-	PAVEMENT_GENERAL	Urban	F	1011101000011101	0000000000010000	-	car	843.838	161.636	0.000	0.000	180.000	696.000	987.000	-0.000	Terminate	
"Student16Mode3"	"Tanvi_6"	"Dec 01, 2016 09:51:31 AM"	Unknown	27.98389	11/01/0116 09:52.03	00001679	17.798	Inter614t1-0	0.956	1	2	0.000	11.111	-0.3	0.131	0.000	D	F	1930.7	359.802	0.189	0.003	1504.549	755.271	0.026	-	-0.027	-0.012	-	-	-	-	-	-	-	PAVEMENT_GENERAL	Urban	F	1011101000011101	0000000000010000	-	car	838.741	169.013	0.000	0.000	180.000	696.000	987.000	-0.000	Terminate	
"Student16Mode3"	"Tanvi_6"	"Dec 01, 2016 09:51:31 AM"	Unknown	28.98391	11/01/0116 09:52.04	00001739	17.798	Inter614t1-0	0.885	1	2	0.000	11.111	-0.2	0.131	0.000	D	F	1933.7	359.735	0.191	0.002	1504.478	773.069	0.027	-	-0.014	-0.007	-	-	-	-	-	-	-	PAVEMENT_GENERAL	Urban	F	1011101000011101	0000000000010000	-	car	833.944	180.025	0.000	0.000	180.000	696.000	987.000	-0.000	Terminate	
"Student16Mode3"	"Tanvi_6"	"Dec 01, 2016 09:51:31 AM"	Unknown	29.98393	11/01/0116 09:52.05	00001799	17.856	Inter614t1-0	0.794	1	2	0.000	11.111	-0.2	0.162	0.000	D	F	1975.6	359.662	0.193	0.002	1504.388	790.883	0.026	-	-0.021	0.139	-	-	-	-	-	-	-	PAVEMENT_GENERAL	Urban	F	1011101000011101	0000000000010000	-	car	829.477	192.359	0.000	0.000	180.000	696.000	987.000	-0.000	Terminate	
"Student16Mode3"	"Tanvi_6"	"Dec 01, 2016 09:51:31 AM"	Unknown	30.98395	11/01/0116 09:52.06	00001859	18.059	Inter612t1-0	0.685	1	2	0.000	11.111	0.8	0.190	0.000	D	F	2048.0	359.663	0.193	-0.004	1504.278	808.830	0.026	-	0.033	0.249	-	-	-	-	-	-	-	PAVEMENT_GENERAL	Urban	F	1011101000011101	0000000000010000	-	car	825.323	206.800	0.000	0.000	180.000	696.000	987.000	-0.000	Terminate	
"Student16Mode3"	"Tanvi_6"	"Dec 01, 2016 09:51:31 AM"	Unknown	31.98397	11/01/0116 09:52.07	00001919	18.330	Inter612t1-0	0.594	1	2	0.000	11.111	0.5	0.183	0.000	D	F	2059.4	359.776	0.192	-0.004	1504.187	827.028	0.025	-	0.035	0.238	-	-	-	-	-	-	-	PAVEMENT_GENERAL	Urban	F	1011101000011101	0000000000010000	-	car	821.508	226.347	0.000	0.000	180.000	696.000	987.000	-0.000	Terminate	
"Student16Mode3"	"Tanvi_6"	"Dec 01, 2016 09:51:31 AM"	Unknown	32.98399	11/01/0116 09:52.08	00001979	18.558	Inter612t1-0	0.531	1	2	0.000	11.111	0.3	0.176	0.000	D	F	2054.5	359.847	0.191	-0.003	1504.124	845.472	0.026	-	0.021	0.208	-	-	-	-	-	-	-	PAVEMENT_GENERAL	Urban	F	1011101000011101	0000000000010000	-	car	818.064	251.702	0.000	0.000	180.000	696.000	987.000	-0.000	Terminate	
"Student16Mode3"	"Tanvi_6"	"Dec 01, 2016 09:51:31 AM"	Unknown	33.98401	11/01/0116 09:52.09	00002039	18.711	Inter612t1-0	0.490	1	2	0.000	11.111	0.9	0.168	0.000	D	F	2058.3	359.917	0.191	-0.007	1504.083	864.109	0.026	-	0.044	0.137	-	-	-	-	-	-	-	PAVEMENT_GENERAL	Urban	F	1011101000011101	0000000000010000	-	car	815.014	286.991	0.000	0.000	180.000	696.000	987.000	-0.000	Terminate	
"Student16Mode3"	"Tanvi_6"	"Dec 01, 2016 09:51:31 AM"	Unknown	34.98403	11/01/0116 09:52.10	00002099	18.890	Inter612t1-0	0.490	1	2	0.000	11.111	1.0	0.180	0.000	D	F	2087.0	0.135	0.191	-0.011	1504.083	882.905	0.026	-	0.077	0.194	-	-	-	-	-	-	-	PAVEMENT_GENERAL	Urban	F	1011101000011101	0000000000010000	-	car	812.401	342.906	0.000	0.000	180.000	696.000	987.000	-0.000	Terminate	
"Student16Mode3"	"Tanvi_6"	"Dec 01, 2016 09:51:31 AM"	Unknown	35.98405	11/01/0116 09:52.11	00002159	19.054	Inter612t1-0	0.555	1	2	0.000	11.111	-1.4	0.171	0.000	D	F	2092.0	0.234	0.190	0.006	1504.148	901.881	0.026	-	-0.037	0.144	-	-	-	-	-	-	-	PAVEMENT_GENERAL	Urban	F	1011101000011101	0000000000010000	-	car	810.259	422.340	0.000	0.000	180.000	696.000	987.000	-0.000	Terminate	
"Student16Mode3"	"Tanvi_6"	"Dec 01, 2016 09:51:31 AM"	Unknown	36.98407	11/01/0116 09:52.12	00002219	19.201	Inter612t1-0	0.615	1	2	0.000	11.111	-0.2	0.160	0.000	D	F	2091.6	0.183	0.189	-0.001	1504.208	921.010	0.026	-	0.007	0.098	-	-	-	-	-	-	-	PAVEMENT_GENERAL	Urban	F	1011101000011101	0000000000010000	-	car	808.538	538.495	0.000	0.000	180.000	696.000	987.000	-0.000	Terminate	
"Student16Mode3"	"Tanvi_6"	"Dec 01, 2016 09:51:31 AM"	Unknown	37.98409	11/01/0116 09:52.13	00002279	19.305	Inter612t1-0	0.661	1	2	0.000	11.111	0.5	0.176	0.000	D	F	2120.1	0.098	0.190	-0.002	1504.254	940.260	0.026	-	0.009	0.130	-	-	-	-	-	-	-	PAVEMENT_GENERAL	Urban	F	1011101000011101	0000000000010000	-	car	807.245	746.298	0.000	0.000	180.000	696.000	987.000	-0.000	Terminate	
"Student16Mode3"	"Tanvi_6"	"Dec 01, 2016 09:51:31 AM"	Unknown	38.98411	11/01/0116 09:52.14	00002339	19.546	Inter612t1-0	0.703	1	2	0.000	11.111	-0.5	0.198	0.000	D	F	2163.5	0.129	0.191	0.004	1504.296	959.683	0.026	-	-0.020	0.249	-	-	-	-	-	-	-	PAVEMENT_GENERAL	Urban	F	1011101000011101	0000000000010000	-	car	806.398	1308.378	0.000	0.000	180.000	696.000	987.000	-0.000	Terminate	
"Student16Mode3"	"Tanvi_6"	"Dec 01, 2016 09:51:31 AM"	Unknown	39.98413	11/01/0116 09:52.15	00002399	19.787	Inter612t1-0	0.740	1	2	0.000	11.111	0.3	0.198	0.000	D	F	2185.5	0.112	0.190	-0.002	1504.333	979.350	0.026	-	0.016	0.241	-	-	-	-	-	-	-	PAVEMENT_GENERAL	Urban	F	1011101000011101	0000000000010000	-	car	806.010	5426.654	0.000	0.000	180.000	696.000	987.000	-0.000	Terminate	
"Student16Mode3"	"Tanvi_6"	"Dec 01, 2016 09:51:31 AM"	Unknown	40.98415	11/01/0116 09:52.16	00002459	20.028	Inter612t1-0	0.785	1	2	0.000	11.111	-0.6	0.196	0.000	D	F	2209.3	0.141	0.188	0.001	1504.378	999.257	0.026	-	-0.012	0.233	-	-	-	-	-	-	-	PAVEMENT_GENERAL	Urban	F	1011101000011101	0000000000010000	-	car	806.111	-2283.726	0.000	0.000	180.000	696.000	987.000	-0.000	Terminate	
"Student16Mode3"	"Tanvi_6"	"Dec 01, 2016 09:51:31 AM"	Unknown	41.98417	11/01/0116 09:52.17	00002519	20.182	Inter613t1-0	0.805	1	2	0.000	11.111	-0.2	0.169	0.000	D	F	2189.3	0.000	0.188	0.004	1504.398	1019.378	0.026	-	-0.032	0.084	-	-	-	-	-	-	-	PAVEMENT_GENERAL	Urban	F	1011101000011101	0000000000010000	-	car	806.686	-1013.863	0.000	0.000	180.000	696.000	987.000	-0.000	Terminate	
"Student16Mode3"	"Tanvi_6"	"Dec 01, 2016 09:51:31 AM"	Unknown	42.98419	11/01/0116 09:52.18	00002579	20.230	Inter613t1-0	0.791	1	2	0.000	11.111	0.2	0.141	0.000	D	F	1716.0	359.949	0.185	-0.002	1504.384	1039.597	0.027	-	0.004	-0.047	-	-	-	-	-	-	-	PAVEMENT_GENERAL	Urban	F	1011101000011101	0000000000010000	-	car	807.734	-623.477	0.000	0.000	180.000	696.000	987.000	-0.000	Terminate	
"Student16Mode3"	"Tanvi_6"	"Dec 01, 2016 09:51:31 AM"	Unknown	43.98421	11/01/0116 09:52.19	00002639	20.194	Inter613t1-0	0.779	1	2	0.000	11.111	0.1	0.178	0.000	D	F	1782.0	0.000	0.190	-0.001	1504.372	1059.799	0.027	-	0.011	0.083	-	-	-	-	-	-	-	PAVEMENT_GENERAL	Urban	F	1011101000011101	0000000000010000	-	car	809.284	-447.633	0.000	0.000	180.000	696.000	987.000	-0.000	Terminate	
"Student16Mode3"	"Tanvi_6"	"Dec 01, 2016 09:51:31 AM"	Unknown	44.98423	11/01/0116 09:52.20	00002699	20.283	Inter613t1-0	0.779	1	2	0.000	11.111	0.2	0.178	0.000	D	F	1781.4	0.019	0.188	-0.002	1504.372	1080.036	0.026	-	0.012	0.084	-	-	-	-	-	-	-	PAVEMENT_GENERAL	Urban	F	1011101000011101	0000000000010000	-	car	811.349	-348.874	0.000	0.000	180.000	696.000	987.000	-0.000	Terminate	
"Student16Mode3"	"Tanvi_6"	"Dec 01, 2016 09:51:31 AM"	Unknown	45.98425	11/01/0116 09:52.21	00002759	20.458	Inter613t1-0	0.793	1	2	0.000	11.111	0.4	0.228	0.000	D	F	1909.3	0.073	0.190	-0.004	1504.386	1100.390	0.026	-	0.026	0.257	-	-	-	-	-	-	-	PAVEMENT_GENERAL	Urban	F	1011101000011101	0000000000010000	-	car	813.940	-283.859	0.000	0.000	180.000	696.000	987.000	-0.000	Terminate	
"Student16Mode3"	"Tanvi_6"	"Dec 01, 2016 09:51:31 AM"	Unknown	46.98427	11/01/0116 09:52.22	00002819	20.699	Inter613t1-0	0.834	1	2	0.000	11.111	0.7	0.206	0.000	D	F	1876.3	0.175	0.189	-0.005	1504.427	1120.980	0.026	-	0.040	0.189	-	-	-	-	-	-	-	PAVEMENT_GENERAL	Urban	F	1011101000011101	0000000000010000	-	car	817.094	-237.081	0.000	0.000	180.000	696.000	987.000	-0.000	Terminate	
"Student16Mode3"	"Tanvi_6"	"Dec 01, 2016 09:51:31 AM"	Unknown	47.98429	11/01/0116 09:52.23	00002879	20.503	Inter613t1-0	0.913	1	2	0.000	11.111	0.3	0.000	0.000	D	F	1397.9	0.257	0.180	-0.001	1504.507	1141.672	0.029	-	0.013	-0.611	-	-	-	-	-	-	-	PAVEMENT_GENERAL	Urban	F	1011101000011101	0000000000010000	-	car	820.809	-208.184	0.000	0.000	180.000	696.000	987.000	-0.000	Terminate	
"Student16Mode3"	"Tanvi_6"	"Dec 01, 2016 09:51:31 AM"	Unknown	48.98431	11/01/0116 09:52.24	00002939	19.455	Inter613t1-0	1.020	1	2	0.000	11.111	0.0	0.000	0.257	D	F	1281.8	0.382	0.087	-0.003	1504.613	1161.830	0.032	-	0.029	-3.362	-	-	-	-	-	-	-	PAVEMENT_GENERAL	Urban	F	1011101000011101	0000000000010000	-	car	824.937	-194.650	0.000	0.000	180.000	696.000	987.000	-0.000	Terminate	
"Student16Mode3"	"Tanvi_6"	"Dec 01, 2016 09:51:31 AM"	Unknown	49.98433	11/01/0116 09:52.25	00002999	15.735	Inter613t1-0	1.156	1	2	0.000	11.111	2.6	0.000	0.203	D	F	1044.0	0.644	0.151	-0.021	1504.750	1179.340	0.034	L	0.135	-3.089	-	-	-	-	-	-	-	PAVEMENT_GENERAL	Urban	F	1011101000111101	0000000000010000	-	car	828.947	-217.439	0.000	0.000	180.000	696.000	987.000	-0.000	Terminate	
"Student16Mode3"	"Tanvi_6"	"Dec 01, 2016 09:51:31 AM"	Unknown	50.98435	11/01/0116 09:52.26	00003059	11.614	Inter613t1-0	1.326	1	2	0.000	11.111	-4.7	0.000	0.424	D	F	1004.6	0.525	0.046	0.027	1504.919	1193.214	0.040	L	-0.161	-5.326	-	-	-	-	-	-	-	PAVEMENT_GENERAL	Urban	F	1011101000111101	0000000000010000	-	car	832.431	-280.108	0.000	0.000	180.000	696.000	987.000	-0.000	Terminate	
"Student16Mode3"	"Tanvi_6"	"Dec 01, 2016 09:51:31 AM"	Unknown	51.98437	11/01/0116 09:52.27	00003119	8.417	Inter615t9-0	1.227	1	2	0.000	11.111	-27.7	0.000	0.000	D	F	826.7	357.800	0.184	0.082	1504.820	1202.675	0.028	L	-0.660	-0.490	-	-	-	-	-	-	-	PAVEMENT_GENERAL	Urban	F	1011101000111101	0000000000010000	-	car	834.723	-450.011	0.000	0.000	180.000	696.000	987.000	-0.000	Terminate	
"Student16Mode3"	"Tanvi_6"	"Dec 01, 2016 09:51:31 AM"	Unknown	52.98439	11/01/0116 09:52.28	00003179	8.650	Inter615t9-0	0.501	1	2	0.000	11.111	-21.5	0.168	0.000	D	F	1533.2	353.423	0.209	0.059	1504.094	1211.057	0.023	L	-0.499	0.664	-	-	-	-	-	-	-	PAVEMENT_GENERAL	Urban	F	1011101000111101	0000000000010000	-	car	836.221	-623.477	0.000	0.000	180.000	696.000	987.000	-0.000	Terminate	
"Student16Mode3"	"Tanvi_6"	"Dec 01, 2016 09:51:31 AM"	Unknown	53.98441	11/01/0116 09:52.29	00003239	9.120	Inter615t31-0	-0.496	1	1	356.405	11.111	0.4	0.000	0.000	D	F	872.4	352.488	0.193	-0.004	1502.926	1219.953	0.026	-	0.019	-0.269	-	-	-	22	5.989	54.617	5.989	PAVEMENT_GENERAL	Urban	F	1111101000011101	0000000000010000	-	car	837.519	-614.760	0.000	0.000	180.000	696.000	987.000	-0.000	Terminate	
"Student16Mode3"	"Tanvi_6"	"Dec 01, 2016 09:51:31 AM"	Unknown	54.98443	11/01/0116 09:52.30	00003299	9.233	Inter615t31-0	-1.163	1	1	354.980	11.111	17.5	0.079	0.000	D	F	1293.9	353.249	0.202	-0.061	1501.767	1229.020	0.025	-	0.442	0.178	-	-	-	22	4.928	45.501	4.928	PAVEMENT_GENERAL	Urban	F	1111101000011101	0000000000010000	-	car	838.969	-524.991	0.000	0.000	180.000	696.000	987.000	-0.000	Terminate	
"Student16Mode3"	"Tanvi_6"	"Dec 01, 2016 09:51:31 AM"	Unknown	55.98445	11/01/0116 09:52.31	00003359	9.210	Inter615t31-0	-1.247	1	1	354.985	11.111	23.4	0.000	0.000	D	F	902.9	356.401	0.181	-0.094	1500.967	1238.261	0.028	-	0.651	-0.499	-	-	-	22	3.927	36.168	3.927	PAVEMENT_GENERAL	Urban	F	1011101000011101	0000000000010000	-	car	840.911	-384.513	0.000	0.000	180.000	696.000	987.000	-0.000	Terminate	
"Student16Mode3"	"Tanvi_6"	"Dec 01, 2016 09:51:31 AM"	Unknown	56.98447	11/01/0116 09:52.32	00003419	7.911	Inter615t31-0	-0.594	1	1	356.355	11.111	12.9	0.000	0.161	D	F	760.0	359.703	0.156	-0.038	1500.738	1247.060	0.033	-	0.289	-2.531	-	-	-	22	3.470	27.450	3.470	PAVEMENT_GENERAL	Urban	F	1111101000011101	0000000000010000	-	car	843.356	-352.346	0.000	0.000	180.000	696.000	987.000	-0.000	Terminate	
"Student16Mode3"	"Tanvi_6"	"Dec 01, 2016 09:51:31 AM"	Unknown	57.98449	11/01/0116 09:52.33	00003479	4.996	Inter615t31-0	-0.007	1	1	356.903	11.111	4.2	0.000	0.206	D	F	477.5	1.065	0.156	-0.002	1500.811	1253.561	0.034	L	0.017	-3.030	-	-	-	22	4.201	20.986	4.201	PAVEMENT_GENERAL	Urban	F	1011101000111101	0000000000010000	-	car	845.447	-509.716	0.000	0.000	180.000	696.000	987.000	-0.000	Terminate	
"Student16Mode3"	"Tanvi_6"	"Dec 01, 2016 09:51:31 AM"	Unknown	58.98451	11/01/0116 09:52.34	00003539	2.412	Inter615t31-0	0.268	1	1	356.903	11.111	2.1	0.000	0.137	D	F	477.5	1.306	0.175	-0.003	1500.892	1257.164	0.032	L	0.003	-2.085	-	-	-	22	7.211	17.393	7.211	PAVEMENT_GENERAL	Urban	F	1011101000111101	0000000000010000	-	car	846.663	-1033.236	0.000	0.000	180.000	696.000	987.000	-0.000	Terminate	
"Student16Mode3"	"Tanvi_6"	"Dec 01, 2016 09:51:31 AM"	Unknown	59.98453	11/01/0116 09:52.35	00003599	1.102	Inter615t31-0	0.391	1	1	356.903	11.111	2.2	0.000	0.009	D	F	477.5	1.361	0.226	-0.000	1500.930	1258.734	0.029	L	0.001	-0.222	-	-	-	22	14.365	15.827	14.365	PAVEMENT_GENERAL	Urban	F	1011101000111101	0000000000010000	-	car	847.200	-2246.742	0.000	0.000	180.000	696.000	987.000	-0.000	Terminate	
"Student16Mode3"	"Tanvi_6"	"Dec 01, 2016 09:51:31 AM"	Unknown	60.98455	11/01/0116 09:52.36	00003659	0.969	Inter615t31-0	0.473	1	1	356.903	11.111	3.9	0.000	0.000	D	F	477.5	1.420	0.202	-0.000	1500.957	1259.764	0.027	L	0.003	-0.110	-	-	-	22	15.281	14.800	15.281	PAVEMENT_GENERAL	Urban	F	1011101000111101	0000000000010000	-	car	847.555	-2541.595	0.000	0.000	180.000	696.000	987.000	-0.000	Terminate	
"Student16Mode3"	"Tanvi_6"	"Dec 01, 2016 09:51:31 AM"	Unknown	61.98457	11/01/0116 09:52.37	00003719	0.877	Inter615t31-0	0.549	1	1	356.903	11.111	4.5	0.000	0.000	D	F	477.5	1.523	0.203	0.001	1500.983	1260.683	0.027	L	-0.004	-0.076	-	-	-	22	15.829	13.883	15.829	PAVEMENT_GENERAL	Urban	F	1011101000111101	0000000000010000	-	car	847.876	-2786.400	0.000	0.000	180.000	696.000	987.000	-0.000	Terminate	
"Student16Mode3"	"Tanvi_6"	"Dec 01, 2016 09:51:31 AM"	Unknown	62.98459	11/01/0116 09:52.38	00003779	0.709	Inter615t31-0	0.614	1	1	356.903	11.111	-9.3	0.000	0.027	D	F	477.5	1.474	0.199	-0.000	1501.004	1261.502	0.027	L	-0.001	-0.243	-	-	-	22	18.472	13.097	38.255	PAVEMENT_GENERAL	Urban	F	1011101000111101	0000000000010000	-	car	848.159	-3447.520	0.000	0.000	180.000	696.000	987.000	-0.000	Terminate	
"Student16Mode3"	"Tanvi_6"	"Dec 01, 2016 09:51:31 AM"	Unknown	63.98461	11/01/0116 09:52.39	00003839	0.633	Inter615t31-0	0.662	1	1	356.903	11.111	-4.2	0.007	0.000	D	F	477.5	1.371	0.204	-0.000	1501.017	1262.148	0.026	L	0.002	-0.001	-	-	-	22	21.804	13.803	-	PAVEMENT_GENERAL	Urban	F	1011101000111101	0000000000010000	-	car	848.380	-3873.747	0.000	0.000	180.000	696.000	987.000	-0.000	Terminate	
"Student16Mode3"	"Tanvi_6"	"Dec 01, 2016 09:51:31 AM"	Unknown	64.98463	11/01/0116 09:52.40	00003899	2.561	Inter615t31-0	0.769	1	1	356.903	11.111	-0.2	0.086	0.000	D	F	1251.2	1.339	0.201	-0.001	1501.049	1263.542	0.016	L	-0.001	1.958	-	-	-	22	6.156	15.764	-	PAVEMENT_GENERAL	Urban	F	1011101000111101	0000000000010000	-	car	848.862	-955.689	0.000	0.000	180.000	696.000	987.000	-0.000	Terminate	
"Student16Mode3"	"Tanvi_6"	"Dec 01, 2016 09:51:31 AM"	Unknown	65.98465	11/01/0116 09:52.41	00003959	4.239	Inter615t31-0	1.037	1	1	356.903	11.111	2.2	0.108	0.000	D	F	1499.1	1.392	0.213	-0.004	1501.131	1266.981	0.019	L	0.025	1.339	-	-	-	22	3.609	15.300	-	PAVEMENT_GENERAL	Urban	F	1011101000111101	0000000000010000	-	car	850.064	-570.811	0.000	0.000	180.000	696.000	987.000	-0.000	Terminate	
"Student16Mode3"	"Tanvi_6"	"Dec 01, 2016 09:51:31 AM"	Unknown	66.98467	11/01/0116 09:52.42	00004019	5.554	Inter615t11-0	1.186	LT1	2	0.000	11.111	-11.8	0.159	0.000	D	F	1815.5	1.293	0.216	0.029	1501.249	1271.861	0.020	L	-0.184	1.408	-	-	-	22	3.628	20.152	-	PAVEMENT_GENERAL	Urban	F	1011101000111101	0000000000010000	-	car	851.790	-432.383	0.000	0.000	180.000	696.000	987.000	-0.000	Terminate	
"Student16Mode3"	"Tanvi_6"	"Dec 01, 2016 09:51:31 AM"	Unknown	67.98470	11/01/0116 09:52.43	00004079	6.566	Inter615t11-0	1.029	LT1	2	0.000	11.111	-56.0	0.115	0.000	D	F	1450.0	356.602	0.212	0.106	1501.091	1278.025	0.023	L	-0.814	0.656	-	-	-	22	3.534	23.202	-	PAVEMENT_GENERAL	Urban	F	1011101000111101	0000000000010000	-	car	853.717	-458.485	0.000	0.000	180.000	696.000	987.000	-0.000	Terminate	
"Student16Mode3"	"Tanvi_6"	"Dec 01, 2016 09:51:31 AM"	Unknown	68.98471	11/01/0116 09:52.44	00004139	8.291	Inter615t65-0	0.190	1	1	347.499	11.111	-99.2	0.328	0.000	D	F	1943.3	346.526	0.217	0.284	1499.878	1285.285	0.018	L	-2.127	1.769	-	-	-	22	3.260	27.031	-	PAVEMENT_GENERAL	Urban	F	1011101000111101	0000000000010000	-	car	855.075	-860.445	0.000	0.000	180.000	696.000	987.000	-0.000	Terminate	
"Student16Mode3"	"Tanvi_6"	"Dec 01, 2016 09:51:31 AM"	Unknown	69.98473	11/01/0116 09:52.45	00004199	9.920	Inter615t65-0	-0.174	1	1	326.936	11.111	-148.8	0.344	0.000	D	F	2083.8	326.542	0.223	0.558	1496.085	1293.541	0.023	L	-4.188	1.412	-	-	-	22	3.024	30.000	-	PAVEMENT_GENERAL	Urban	F	1011101000111101	0000000000010000	-	car	854.439	398.103	0.000	0.000	180.000	696.000	987.000	-0.000	Terminate	
"Student16Mode3"	"Tanvi_6"	"Dec 01, 2016 09:51:31 AM"	Unknown	70.98476	11/01/0116 09:52.46	00004259	11.249	Inter615t65-0	-0.934	1	1	300.432	11.111	-150.6	0.346	0.000	D	F	2198.4	299.538	0.214	0.659	1488.231	1300.532	0.027	L	-5.162	1.205	-	-	-	22	2.725	30.655	-	PAVEMENT_GENERAL	Urban	F	1011101000111101	0000000000010000	-	car	849.657	120.359	0.000	0.000	180.000	696.000	987.000	-0.000	Terminate	
"Student16Mode3"	"Tanvi_6"	"Dec 01, 2016 09:51:31 AM"	Unknown	71.98477	11/01/0116 09:52.47	00004319	12.488	Inter615t3-3	0.316	1	2	270.000	11.111	-86.7	0.363	0.000	D	F	2304.2	275.941	0.189	0.483	1476.930	1303.847	0.024	L	-3.917	1.309	-	-	-	22	2.973	37.121	-	PAVEMENT_GENERAL	Urban	F	1011101000111101	0000000000010000	-	car	840.400	76.237	0.000	0.000	180.000	696.000	987.000	-0.000	Terminate	
"Student16Mode3"	"Tanvi_6"	"Dec 01, 2016 09:51:31 AM"	Unknown	72.98479	11/01/0116 09:52.48	00004379	13.646	Inter615t19-0	0.265	1	1	270.072	11.111	21.8	0.265	0.000	D	F	2371.7	267.635	0.206	-0.132	1463.840	1303.799	0.022	-	0.636	1.011	-	-	-	22	3.079	42.010	-	PAVEMENT_GENERAL	Urban	F	1011101000011101	0000000000010000	-	car	828.267	64.615	0.000	0.000	180.000	696.000	987.000	-0.000	Terminate	
"Student16Mode3"	"Tanvi_6"	"Dec 01, 2016 09:51:31 AM"	Unknown	73.98481	11/01/0116 09:52.49	00004439	14.675	Inter615t19-0	0.111	1	1	270.111	11.111	1.2	0.268	0.000	D	F	2521.9	270.530	0.204	-0.021	1449.680	1303.661	0.022	-	0.176	1.013	-	-	-	22	3.196	46.906	-	PAVEMENT_GENERAL	Urban	F	1011101000011101	0000000000010000	-	car	815.142	60.486	0.000	0.000	180.000	696.000	987.000	-0.000	Terminate	
"Student16Mode3"	"Tanvi_6"	"Dec 01, 2016 09:51:31 AM"	Unknown	74.98483	11/01/0116 09:52.50	00004499	15.672	Inter615t19-0	0.310	1	1	270.063	11.111	1.6	0.235	0.000	D	F	2221.7	271.303	0.198	-0.018	1434.496	1303.890	0.022	-	0.147	0.787	-	-	-	22	3.277	51.350	-	PAVEMENT_GENERAL	Urban	F	1011101000011101	0000000000010000	-	car	801.255	56.199	0.000	0.000	180.000	696.000	987.000	-0.000	Terminate	
"Student16Mode3"	"Tanvi_6"	"Dec 01, 2016 09:51:31 AM"	Unknown	75.98486	11/01/0116 09:52.51	00004559	16.140	Inter615t19-0	0.672	1	1	270.061	11.111	-1.5	0.157	0.000	D	F	1857.3	271.326	0.196	0.010	1418.539	1304.270	0.026	-	-0.071	0.197	-	-	-	22	3.291	53.111	-	PAVEMENT_GENERAL	Urban	F	1011101000011101	0000000000010000	-	car	786.768	53.799	0.000	0.000	180.000	696.000	987.000	-0.000	Terminate	
"Student16Mode3"	"Tanvi_6"	"Dec 01, 2016 09:51:31 AM"	Unknown	76.98487	11/01/0116 09:52.52	00004619	16.335	Inter615t1-2	1.005	1	2	270.000	11.111	-5.2	0.150	0.000	D	F	1849.3	270.991	0.194	0.028	1402.306	1304.605	0.026	-	-0.197	0.165	-	-	-	22	3.487	56.959	-	PAVEMENT_GENERAL	Urban	F	1011101000011101	0000000000010000	-	car	772.070	52.238	0.000	0.000	180.000	696.000	987.000	-0.000	Terminate	
"Student16Mode3"	"Tanvi_6"	"Dec 01, 2016 09:51:31 AM"	Unknown	77.98489	11/01/0116 09:52.53	00004679	16.666	Inter616t1-2	1.134	1	2	270.000	11.111	-4.7	0.190	0.000	D	F	1946.9	269.892	0.196	0.036	1385.814	1304.741	0.025	-	-0.284	0.336	-	-	-	22	3.778	62.960	-	PAVEMENT_GENERAL	Urban	F	1011101000011101	0000000000010000	-	car	757.116	49.973	0.000	0.000	180.000	696.000	987.000	-0.000	Terminate	
"Student16Mode3"	"Tanvi_6"	"Dec 01, 2016 09:51:31 AM"	Unknown	78.98492	11/01/0116 09:52.54	00004739	16.982	Inter616t1-2	0.977	1	2	270.000	11.111	-6.1	0.196	0.000	D	F	1979.8	268.894	0.195	0.047	1368.992	1304.584	0.025	-	-0.344	0.339	-	-	-	22	3.902	66.257	-	PAVEMENT_GENERAL	Urban	F	1011101000011101	0000000000010000	-	car	741.802	47.874	0.000	0.000	180.000	696.000	987.000	-0.000	Terminate	
"Student16Mode3"	"Tanvi_6"	"Dec 01, 2016 09:51:31 AM"	Unknown	79.98493	11/01/0116 09:52.55	00004799	17.311	Inter616t1-2	0.582	1	2	270.000	11.111	1.6	0.192	0.000	D	F	2000.3	268.787	0.195	-0.016	1351.847	1304.188	0.025	-	0.129	0.319	-	-	-	22	3.999	69.228	-	PAVEMENT_GENERAL	Urban	F	1011101000011101	0000000000010000	-	car	726.162	46.135	0.000	0.000	180.000	696.000	987.000	-0.000	Terminate	
"Student16Mode3"	"Tanvi_6"	"Dec 01, 2016 09:51:31 AM"	Unknown	80.98495	11/01/0116 09:52.56	00004859	17.636	Inter616t1-2	0.237	1	2	270.000	11.111	3.4	0.198	0.000	D	F	2031.9	268.931	0.195	-0.015	1334.378	1303.843	0.025	-	0.099	0.329	-	-	-	22	4.056	71.529	-	PAVEMENT_GENERAL	Urban	F	1011101000011101	0000000000010000	-	car	710.323	44.560	0.000	0.000	180.000	696.000	987.000	-0.000	Terminate	
"Student16Mode3"	"Tanvi_6"	"Dec 01, 2016 09:51:31 AM"	Unknown	81.98497	11/01/0116 09:52.57	00004919	18.035	Inter616t1-2	0.078	1	2	270.000	11.111	2.4	0.224	0.000	D	F	2103.1	270.290	0.194	-0.035	1316.554	1303.684	0.025	-	0.312	0.435	-	-	-	22	4.028	72.651	-	PAVEMENT_GENERAL	Urban	F	1011101000011101	0000000000010000	-	car	694.330	43.335	0.000	0.000	180.000	696.000	987.000	-0.000	Terminate	
"Student16Mode3"	"Tanvi_6"	"Dec 01, 2016 09:51:31 AM"	Unknown	82.98499	11/01/0116 09:52.58	00004979	18.491	Inter616t1-2	0.252	1	2	270.000	11.111	4.4	0.240	0.000	D	F	2147.9	271.030	0.194	-0.038	1298.294	1303.859	0.024	-	0.294	0.462	-	-	-	22	3.922	72.530	95.554	PAVEMENT_GENERAL	Urban	F	1011101000011101	0000000000010000	-	car	678.197	41.845	0.000	0.000	180.000	696.000	987.000	-0.000	Terminate	
"Student16Mode3"	"Tanvi_6"	"Dec 01, 2016 09:51:31 AM"	Unknown	83.98502	11/01/0116 09:52.59	00005039	18.776	Inter616t1-2	0.664	1	2	270.000	11.111	-2.6	0.011	0.000	D	F	1553.0	271.329	0.161	0.014	1279.598	1304.271	0.027	-	-0.117	-0.540	-	-	-	22	3.795	71.261	42.910	PAVEMENT_GENERAL	Urban	F	1011101000011101	0000000000010000	-	car	661.905	40.649	0.000	0.000	180.000	696.000	987.000	-0.000	Terminate	
"Student16Mode3"	"Tanvi_6"	"Dec 01, 2016 09:51:31 AM"	Unknown	84.98503	11/01/0116 09:53.00	00005099	18.258	Inter616t1-2	0.985	1	2	270.000	11.111	-1.0	0.000	0.000	D	F	1249.7	270.659	0.184	0.012	1261.065	1304.592	0.029	-	-0.109	-0.576	-	-	-	22	3.809	69.540	39.535	PAVEMENT_GENERAL	Urban	F	1011101000011101	0000000000010000	-	car	645.841	40.845	0.000	0.000	180.000	696.000	987.000	-0.000	Terminate	
"Student16Mode3"	"Tanvi_6"	"Dec 01, 2016 09:51:31 AM"	Unknown	85.98505	11/01/0116 09:53.01	00005159	17.441	Inter616t1-2	1.143	1	2	270.000	11.111	-3.8	0.000	0.066	D	F	1179.7	270.121	0.168	0.037	1243.144	1304.750	0.030	-	-0.259	-1.284	-	-	-	22	3.891	67.871	47.049	PAVEMENT_GENERAL	Urban	F	1011101000011101	0000000000010000	-	car	630.358	41.846	0.000	0.000	180.000	696.000	987.000	-0.000	Terminate	
"Student16Mode3"	"Tanvi_6"	"Dec 01, 2016 09:51:31 AM"	Unknown	86.98507	11/01/0116 09:53.02	00005219	15.420	Inter616t1-2	1.111	1	2	270.000	11.111	-1.6	0.000	0.152	D	F	1029.6	269.633	0.153	0.013	1226.628	1304.718	0.033	-	-0.095	-2.453	-	-	-	22	4.352	67.108	-	PAVEMENT_GENERAL	Urban	F	1011101000011101	0000000000010000	-	car	616.115	46.393	0.000	0.000	180.000	696.000	987.000	-0.000	Terminate	
"Student16Mode3"	"Tanvi_6"	"Dec 01, 2016 09:51:31 AM"	Unknown	87.98509	11/01/0116 09:53.03	00005279	14.228	Inter616t1-2	0.987	1	2	270.000	11.111	-1.1	0.000	0.000	D	F	970.3	269.414	0.192	0.007	1212.010	1304.593	0.029	-	-0.042	-0.521	-	-	-	22	4.763	67.761	-	PAVEMENT_GENERAL	Urban	F	1011101000011101	0000000000010000	-	car	603.554	49.502	0.000	0.000	180.000	696.000	987.000	-0.000	Terminate	
"Student16Mode3"	"Tanvi_6"	"Dec 01, 2016 09:51:31 AM"	Unknown	88.98512	11/01/0116 09:53.04	00005339	13.992	Inter617t1-2	0.816	1	2	270.000	11.111	-0.5	0.060	0.000	D	F	1221.8	269.217	0.196	0.003	1197.938	1304.422	0.027	-	-0.026	-0.169	-	-	-	22	4.905	68.634	-	PAVEMENT_GENERAL	Urban	F	1011101000011101	0000000000010000	-	car	591.525	49.598	0.000	0.000	180.000	696.000	987.000	-0.000	Terminate	
"Student16Mode3"	"Tanvi_6"	"Dec 01, 2016 09:51:31 AM"	Unknown	89.98513	11/01/0116 09:53.05	00005399	13.815	Inter617t1-2	0.626	1	2	270.000	11.111	-0.1	0.065	0.000	D	F	1232.6	269.244	0.194	-0.001	1184.037	1304.233	0.027	-	0.005	-0.175	-	-	-	22	5.026	69.432	-	PAVEMENT_GENERAL	Urban	F	1011101000011101	0000000000010000	-	car	579.720	49.628	0.000	0.000	180.000	696.000	987.000	-0.000	Terminate	
"Student16Mode3"	"Tanvi_6"	"Dec 01, 2016 09:51:31 AM"	Unknown	90.98515	11/01/0116 09:53.06	00005459	13.663	Inter617t1-2	0.447	1	2	270.000	11.111	1.4	0.081	0.000	D	F	1297.1	269.293	0.195	-0.006	1170.308	1304.053	0.027	-	0.048	-0.092	-	-	-	22	5.137	70.186	-	PAVEMENT_GENERAL	Urban	F	1011101000011101	0000000000010000	-	car	568.159	49.614	0.000	0.000	180.000	696.000	987.000	-0.000	Terminate	
"Student16Mode3"	"Tanvi_6"	"Dec 01, 2016 09:51:31 AM"	Unknown	91.98518	11/01/0116 09:53.07	00005519	13.733	Inter617t1-2	0.315	1	2	270.000	11.111	1.7	0.143	0.000	D	F	1663.9	269.606	0.200	-0.010	1156.637	1303.922	0.026	-	0.076	0.224	-	-	-	22	5.157	70.822	-	PAVEMENT_GENERAL	Urban	F	1011101000011101	0000000000010000	-	car	556.770	48.982	0.000	0.000	180.000	696.000	987.000	-0.000	Terminate	
"Student16Mode3"	"Tanvi_6"	"Dec 01, 2016 09:51:31 AM"	Unknown	92.98519	11/01/0116 09:53.08	00005579	14.022	Inter617t1-2	0.256	1	2	270.000	11.111	1.0	0.185	0.000	D	F	1801.1	269.879	0.203	-0.004	1142.777	1303.862	0.025	-	0.045	0.455	-	-	-	22	5.072	71.118	-	PAVEMENT_GENERAL	Urban	F	1011101000011101	0000000000010000	-	car	545.373	47.613	0.000	0.000	180.000	696.000	987.000	-0.000	Terminate	
"Student16Mode3"	"Tanvi_6"	"Dec 01, 2016 09:51:31 AM"	Unknown	93.98521	11/01/0116 09:53.09	00005639	14.447	Inter617t1-2	0.260	1	2	270.000	11.111	1.7	0.175	0.000	D	F	1797.5	270.196	0.199	-0.011	1128.539	1303.867	0.025	-	0.088	0.390	-	-	-	22	4.908	70.912	144.711	PAVEMENT_GENERAL	Urban	F	1011101000011101	0000000000010000	-	car	533.826	45.920	0.000	0.000	180.000	696.000	987.000	-0.000	Terminate	
"Student16Mode3"	"Tanvi_6"	"Dec 01, 2016 09:51:31 AM"	Unknown	94.98523	11/01/0116 09:53.10	00005699	14.787	Inter617t1-2	0.345	1	2	270.000	11.111	0.5	0.120	0.000	D	F	1677.7	270.464	0.195	-0.004	1113.901	1303.952	0.025	-	0.041	0.121	-	-	-	22	4.748	70.201	76.870	PAVEMENT_GENERAL	Urban	F	1011101000011101	0000000000010000	-	car	522.140	44.593	0.000	0.000	180.000	696.000	987.000	-0.000	Terminate	
"Student16Mode3"	"Tanvi_6"	"Dec 01, 2016 09:51:31 AM"	Unknown	95.98525	11/01/0116 09:53.11	00005759	14.938	Inter617t1-2	0.482	1	2	270.000	11.111	0.7	0.134	0.000	D	F	1725.8	270.601	0.194	-0.004	1099.044	1304.088	0.026	-	0.035	0.107	-	-	-	22	4.657	69.568	-	PAVEMENT_GENERAL	Urban	F	1011101000011101	0000000000010000	-	car	510.465	43.844	0.000	0.000	180.000	696.000	987.000	-0.000	Terminate	
"Student16Mode3"	"Tanvi_6"	"Dec 01, 2016 09:51:31 AM"	Unknown	96.98528	11/01/0116 09:53.12	00005819	15.071	Inter617t1-2	0.653	1	2	270.000	11.111	-0.1	0.139	0.000	D	F	1737.6	270.696	0.197	0.000	1084.026	1304.259	0.026	-	0.004	0.099	-	-	-	22	4.686	70.615	-	PAVEMENT_GENERAL	Urban	F	1111101000011101	0000000000010000	-	car	498.856	43.189	0.000	0.000	180.000	696.000	987.000	-0.000	Terminate	
"Student16Mode3"	"Tanvi_6"	"Dec 01, 2016 09:51:31 AM"	Unknown	97.98529	11/01/0116 09:53.13	00005879	15.358	Inter617t1-2	0.829	1	2	270.000	11.111	-0.6	0.120	0.000	D	F	1748.7	270.622	0.196	0.003	1068.824	1304.436	0.025	-	-0.027	0.248	-	-	-	-	-	-	-	PAVEMENT_GENERAL	Urban	F	1011101000011101	0000000000010000	-	car	487.297	42.065	0.000	0.000	180.000	696.000	987.000	-0.000	Terminate	
"Student16Mode3"	"Tanvi_6"	"Dec 01, 2016 09:51:31 AM"	Unknown	98.98531	11/01/0116 09:53.14	00005939	14.193	Inter617t1-2	0.960	1	2	270.000	11.111	-2.8	0.000	0.215	D	F	1352.4	270.259	0.115	0.018	1053.785	1304.567	0.033	-	-0.137	-3.229	-	-	-	-	-	-	-	PAVEMENT_GENERAL	Urban	F	1011101000011101	0000000000010000	-	car	476.032	45.028	0.000	0.000	180.000	696.000	987.000	-0.000	Terminate	
"Student16Mode3"	"Tanvi_6"	"Dec 01, 2016 09:51:31 AM"	Unknown	99.98534	11/01/0116 09:53.15	00005999	10.629	Inter617t1-2	0.962	1	2	270.000	11.111	-2.6	0.000	0.331	D	F	997.1	269.695	0.126	0.013	1041.255	1304.569	0.038	-	-0.104	-4.352	-	-	-	-	-	-	-	PAVEMENT_GENERAL	Urban	F	1011101000011101	0000000000010000	-	car	466.736	59.374	0.000	0.000	180.000	696.000	987.000	-0.000	Terminate	
"Student16Mode3"	"Tanvi_6"	"Dec 01, 2016 09:51:31 AM"	Unknown	100.98535	11/01/0116 09:53.16	00006059	7.024	Inter617t1-2	0.885	1	2	270.000	11.111	-1.7	0.000	0.021	D	F	690.9	269.319	0.209	0.004	1032.726	1304.492	0.031	-	-0.034	-0.922	-	-	-	-	-	-	-	PAVEMENT_GENERAL	Urban	F	1011101000011101	0000000000010000	-	car	460.443	89.102	0.000	0.000	180.000	696.000	987.000	-0.000	Terminate	
"Student16Mode3"	"Tanvi_6"	"Dec 01, 2016 09:51:31 AM"	Unknown	101.98537	11/01/0116 09:53.17	00006119	6.557	Inter617t1-2	0.792	1	2	270.000	11.111	1.8	0.000	0.000	D	F	644.4	269.185	0.198	-0.006	1025.938	1304.399	0.028	-	0.041	-0.465	-	-	-	-	-	-	-	PAVEMENT_GENERAL	Urban	F	1011101000011101	0000000000010000	-	car	455.463	95.102	0.000	0.000	180.000	696.000	987.000	-0.000	Terminate	
"Student16Mode3"	"Tanvi_6"	"Dec 01, 2016 09:51:31 AM"	Unknown	102.98539	11/01/0116 09:53.18	00006179	6.659	Inter617t1-2	0.727	1	2	270.000	11.111	4.4	0.201	0.000	D	F	1557.8	269.553	0.213	-0.009	1019.476	1304.334	0.023	-	0.067	0.942	-	-	-	-	-	-	-	PAVEMENT_GENERAL	Urban	F	1011101000011101	0000000000010000	-	car	450.782	94.115	0.000	0.000	180.000	696.000	987.000	-0.000	Terminate	
"Student16Mode3"	"Tanvi_6"	"Dec 01, 2016 09:51:31 AM"	Unknown	103.98541	11/01/0116 09:53.19	00006239	8.286	Inter617t1-2	0.736	1	2	270.000	11.111	6.6	0.261	0.000	D	F	1870.7	270.376	0.214	-0.019	1012.006	1304.343	0.019	-	0.144	1.549	-	-	-	-	-	-	-	PAVEMENT_GENERAL	Urban	F	1011101000011101	0000000000010000	-	car	445.487	76.701	0.000	0.000	180.000	696.000	987.000	-0.000	Terminate	
"Student16Mode3"	"Tanvi_6"	"Dec 01, 2016 09:51:31 AM"	Unknown	104.98544	11/01/0116 09:53.20	00006299	9.850	Inter617t1-2	0.893	1	2	270.000	11.111	5.5	0.342	0.000	D	F	2075.2	271.395	0.216	-0.020	1002.943	1304.500	0.019	-	0.159	1.625	-	-	-	-	-	-	-	PAVEMENT_GENERAL	Urban	F	1011101000011101	0000000000010000	-	car	439.252	65.837	0.000	0.000	180.000	696.000	987.000	-0.000	Terminate	
"Student16Mode3"	"Tanvi_6"	"Dec 01, 2016 09:51:31 AM"	Unknown	105.98545	11/01/0116 09:53.21	00006359	11.454	Inter618t1-0	0.546	1	2	269.997	24.444	0.6	0.354	0.000	D	F	2215.0	272.088	0.294	-0.037	992.282	1304.846	0.022	-	0.025	1.534	-	-	-	32	2.327	26.649	-	FREEWAY_SMOOTH	Urban	F	1011101000011101	0000000000010000	-	car	432.162	57.626	0.000	0.000	180.000	696.000	987.000	-0.000	Terminate	
"Student16Mode3"	"Tanvi_6"	"Dec 01, 2016 09:51:31 AM"	Unknown	106.98547	11/01/0116 09:53.22	00006419	12.905	Inter618t1-0	0.998	1	2	269.772	24.444	-5.7	0.346	0.000	D	F	2355.8	271.809	0.290	-0.178	980.097	1305.278	0.038	-	-0.225	1.388	-	-	-	31	1.939	25.023	-	FREEWAY_SMOOTH	Urban	F	1011101000011101	0000000000010000	-	car	424.269	51.206	0.000	0.000	180.000	696.000	987.000	-0.000	Terminate	
"Student16Mode3"	"Tanvi_6"	"Dec 01, 2016 09:51:31 AM"	Unknown	107.98550	11/01/0116 09:53.23	00006479	14.265	Inter618t1-0	1.387	1	2	269.168	24.444	-7.7	0.337	0.000	D	F	2523.0	270.486	0.293	-0.350	966.511	1305.551	0.059	-	-0.380	1.336	-	-	-	31	1.847	26.347	-	FREEWAY_SMOOTH	Urban	F	1011101000011101	0000000000010000	-	car	415.553	45.460	0.000	0.000	180.000	696.000	987.000	-0.000	Terminate	
"Student16Mode3"	"Tanvi_6"	"Dec 01, 2016 09:51:31 AM"	Unknown	108.98551	11/01/0116 09:53.24	00006539	15.576	Inter618t1-0	1.554	1	2	268.098	24.444	-8.3	0.333	0.000	D	F	2697.3	267.865	0.281	-0.519	951.589	1305.377	0.081	-	-0.676	1.294	-	-	-	31	1.782	27.752	-	FREEWAY_SMOOTH	Urban	F	1011101000011101	0000000000010000	-	car	405.917	39.810	0.000	0.000	180.000	696.000	987.000	-0.000	Terminate	
"Student16Mode3"	"Tanvi_6"	"Dec 01, 2016 09:51:31 AM"	Unknown	109.98553	11/01/0116 09:53.25	00006599	16.804	Inter618t1-0	1.507	1	2	266.448	24.444	-8.5	0.317	0.000	D	F	2862.8	266.341	0.285	-0.761	935.404	1304.579	0.103	-	-0.560	1.172	-	-	-	31	1.682	28.273	-	FREEWAY_SMOOTH	Urban	F	1011101000011101	0000000000010000	-	car	395.348	36.100	0.000	0.000	180.000	696.000	987.000	-0.000	Terminate	
"Student16Mode3"	"Tanvi_6"	"Dec 01, 2016 09:51:31 AM"	Unknown	110.98555	11/01/0116 09:53.26	00006659	17.926	Inter618t1-0	1.502	1	2	264.114	24.444	-11.9	0.305	0.000	D	F	3003.7	264.164	0.280	-0.968	918.084	1303.171	0.127	-	-0.799	1.061	-	-	-	31	1.586	28.427	634.812	FREEWAY_SMOOTH	Urban	F	1011101000011101	0000000000010000	-	car	384.015	32.705	0.000	0.000	180.000	696.000	987.000	-0.000	Terminate	
"Student16Mode3"	"Tanvi_6"	"Dec 01, 2016 09:51:31 AM"	Unknown	111.98557	11/01/0116 09:53.27	00006719	18.866	Inter618t1-0	1.522	1	2	261.007	24.444	-14.7	0.302	0.000	D	F	2282.4	260.984	0.264	-1.189	899.796	1300.837	0.155	-	-1.088	0.670	-	-	-	31	1.470	27.738	28.157	FREEWAY_SMOOTH	Urban	F	1011101000011101	0000000000010000	-	car	371.841	29.447	0.000	0.000	180.000	696.000	987.000	-0.000	Terminate	
"Student16Mode3"	"Tanvi_6"	"Dec 01, 2016 09:51:31 AM"	Unknown	112.98560	11/01/0116 09:53.28	00006779	19.436	Inter618t1-0	1.475	1	2	257.082	24.444	-21.1	0.295	0.000	D	F	2261.4	256.229	0.245	-1.361	880.990	1297.192	0.181	-	-1.793	0.560	-	-	-	31	1.358	26.395	16.970	FREEWAY_SMOOTH	Urban	F	1011101000011101	0000000000010000	-	car	358.806	26.300	0.000	0.000	180.000	696.000	987.000	-0.000	Terminate	
"Student16Mode3"	"Tanvi_6"	"Dec 01, 2016 09:51:31 AM"	Unknown	113.98561	11/01/0116 09:53.29	00006839	19.972	Inter618t1-0	1.210	1	2	252.428	24.444	-17.4	0.287	0.000	D	F	2299.6	251.504	0.157	-1.551	862.040	1291.798	0.190	-	-1.548	0.528	-	-	-	31	1.230	24.570	11.748	FREEWAY_SMOOTH	Urban	F	1011101000011101	0000000000010000	-	car	344.730	23.572	0.000	0.000	180.000	696.000	987.000	-0.000	Terminate	
"Student16Mode3"	"Tanvi_6"	"Dec 01, 2016 09:51:31 AM"	Unknown	114.98563	11/01/0116 09:53.30	00006899	20.476	Inter618t1-0	1.108	1	2	247.508	24.444	-17.5	0.250	0.000	D	F	2303.1	247.543	0.186	-1.568	843.061	1284.799	0.187	-	-1.464	0.437	-	-	-	31	1.060	21.707	8.365	FREEWAY_SMOOTH	Urban	F	1111101000011101	0000000000010000	-	car	329.772	21.425	0.000	0.000	180.000	696.000	987.000	-0.000	Terminate	
"Student16Mode3"	"Tanvi_6"	"Dec 01, 2016 09:51:31 AM"	Unknown	115.98566	11/01/0116 09:53.31	00006959	20.541	Inter618t1-0	1.197	1	2	242.498	24.444	-21.2	0.069	0.000	D	F	1599.4	242.043	0.153	-1.477	824.372	1276.216	0.193	-	-2.139	-0.288	-	-	-	31	0.925	19.010	7.146	FREEWAY_SMOOTH	Urban	F	1011101000011101	0000000000010000	-	car	314.066	19.432	0.000	0.000	180.000	696.000	987.000	-0.000	Terminate	
"Student16Mode3"	"Tanvi_6"	"Dec 01, 2016 09:51:31 AM"	Unknown	116.98567	11/01/0116 09:53.32	00007019	20.052	Inter618t1-0	1.020	1	2	237.552	24.444	-19.6	0.026	0.000	D	F	1371.4	236.217	0.129	-1.493	806.855	1265.941	0.189	-	-2.018	-0.503	-	-	-	31	1.056	21.165	9.750	FREEWAY_SMOOTH	Urban	F	1011101000011101	0000000000010000	-	car	297.802	18.031	0.000	0.000	180.000	696.000	987.000	-0.000	Terminate	
"Student16Mode3"	"Tanvi_6"	"Dec 01, 2016 09:51:31 AM"	Unknown	117.98569	11/01/0116 09:53.33	00007079	19.539	Inter618t1-0	0.598	1	2	232.735	24.444	-10.5	0.026	0.000	D	F	1343.7	231.373	0.132	-1.595	790.845	1254.311	0.176	-	-1.291	-0.478	-	-	-	32	1.953	38.158	-	FREEWAY_SMOOTH	Urban	F	1111101000011101	0000000000010000	-	car	281.279	16.945	0.000	0.000	180.000	696.000	987.000	-0.000	Terminate	
"Student16Mode3"	"Tanvi_6"	"Dec 01, 2016 09:51:31 AM"	Unknown	118.98571	11/01/0116 09:53.34	00007139	19.054	Inter618t1-0	0.441	1	2	228.027	24.444	-11.5	0.037	0.000	D	F	1359.9	228.229	0.185	-1.610	776.068	1241.908	0.171	-	-1.105	-0.456	-	-	-	32	2.051	39.072	-	FREEWAY_SMOOTH	Urban	F	1011101000011101	0000000000010000	-	car	264.828	16.179	0.000	0.000	180.000	696.000	987.000	-0.000	Terminate	
"Student16Mode3"	"Tanvi_6"	"Dec 01, 2016 09:51:31 AM"	Unknown	119.98573	11/01/0116 09:53.35	00007199	18.641	Inter618t1-0	0.703	1	2	223.425	24.444	-16.0	0.044	0.000	D	F	1368.5	224.535	0.211	-1.581	762.376	1228.961	0.179	-	-1.339	-0.402	-	-	-	32	2.153	40.140	-	FREEWAY_SMOOTH	Urban	F	1011101000011101	0000000000010000	-	car	248.541	15.273	0.000	0.000	180.000	696.000	987.000	-0.000	Terminate	
"Student16Mode3"	"Tanvi_6"	"Dec 01, 2016 09:51:31 AM"	Unknown	120.98576	11/01/0116 09:53.36	00007259	18.171	Inter618t1-0	1.086	1	2	218.933	24.444	-20.6	0.016	0.000	D	F	1240.1	219.811	0.199	-1.538	749.945	1215.373	0.191	-	-1.666	-0.524	-	-	-	31	0.606	11.020	38.053	FREEWAY_SMOOTH	Urban	F	1011101000011101	0000000000010000	-	car	232.299	14.288	0.000	0.000	180.000	696.000	987.000	-0.000	Terminate	
"Student16Mode3"	"Tanvi_6"	"Dec 01, 2016 09:51:31 AM"	Unknown	121.98577	11/01/0116 09:53.37	00007319	17.649	Inter618t1-0	1.155	1	2	214.571	24.444	-19.5	0.016	0.000	D	F	1204.9	213.696	0.139	-1.523	739.154	1201.085	0.193	-	-1.796	-0.511	-	-	-	31	0.618	10.913	-	FREEWAY_SMOOTH	Urban	F	1011101000011101	0000000000010000	-	car	216.031	13.230	0.000	0.000	180.000	696.000	987.000	-0.000	Terminate	
"Student16Mode3"	"Tanvi_6"	"Dec 01, 2016 09:51:31 AM"	Unknown	122.98579	11/01/0116 09:53.38	00007379	17.166	Inter618t1-0	0.838	1	2	210.320	24.444	-15.7	0.018	0.000	D	F	1179.1	208.997	0.138	-1.579	730.061	1186.246	0.183	-	-1.353	-0.467	-	-	-	32	2.740	47.042	-	FREEWAY_SMOOTH	Urban	F	1011101000011101	0000000000010000	-	car	199.777	12.330	0.000	0.000	180.000	696.000	987.000	-0.000	Terminate	
"Student16Mode3"	"Tanvi_6"	"Dec 01, 2016 09:51:31 AM"	Unknown	123.98581	11/01/0116 09:53.39	00007439	16.697	Inter618t1-0	0.478	1	2	206.200	24.444	-6.9	0.018	0.000	D	F	1155.3	205.449	0.160	-1.663	722.339	1171.181	0.172	-	-0.721	-0.466	-	-	-	32	3.014	50.323	-	FREEWAY_SMOOTH	Urban	F	1111101000011101	0000000000010000	-	car	183.696	11.523	0.000	0.000	180.000	696.000	987.000	-0.000	Terminate	
"Student16Mode3"	"Tanvi_6"	"Dec 01, 2016 09:51:31 AM"	Unknown	124.98583	11/01/0116 09:53.40	00007499	16.271	Inter618t1-0	0.429	1	2	202.190	24.444	-16.1	0.039	0.000	D	F	1221.6	202.241	0.183	-1.599	715.608	1156.146	0.171	-	-1.219	-0.370	-	-	-	32	3.309	53.840	-	FREEWAY_SMOOTH	Urban	F	1011101000011101	0000000000010000	-	car	167.919	10.717	0.000	0.000	180.000	696.000	987.000	-0.000	Terminate	
"Student16Mode3"	"Tanvi_6"	"Dec 01, 2016 09:51:31 AM"	Unknown	125.98586	11/01/0116 09:53.41	00007559	15.916	Inter618t1-0	0.436	1	2	198.276	24.444	-12.4	0.062	0.000	D	F	1283.7	198.566	0.192	-1.635	710.019	1141.064	0.170	-	-0.908	-0.294	-	-	-	32	3.642	57.969	-	FREEWAY_SMOOTH	Urban	F	1011101000011101	0000000000010000	-	car	152.341	9.838	0.000	0.000	180.000	696.000	987.000	-0.000	Terminate	
"Student16Mode3"	"Tanvi_6"	"Dec 01, 2016 09:51:31 AM"	Unknown	126.98587	11/01/0116 09:53.42	00007619	15.762	Inter618t1-0	0.540	1	2	194.433	24.444	-15.2	0.092	0.000	D	F	1410.6	194.849	0.121	-1.558	705.448	1125.919	0.168	-	-1.066	-0.099	-	-	-	-	-	-	-	FREEWAY_SMOOTH	Urban	F	1011101000011101	0000000000010000	-	car	136.880	8.845	0.000	0.000	180.000	696.000	987.000	-0.000	Terminate	
"Student16Mode3"	"Tanvi_6"	"Dec 01, 2016 09:51:31 AM"	Unknown	127.98589	11/01/0116 09:53.43	00007679	15.605	Inter618t1-0	0.602	1	2	190.976	24.444	-12.8	0.101	0.000	D	F	1422.6	191.091	0.133	-1.361	701.931	1110.638	0.152	-	-0.919	-0.095	-	-	-	-	-	-	-	FREEWAY_SMOOTH	Urban	F	1011101000011101	0000000000010000	-	car	121.421	7.864	0.000	0.000	180.000	696.000	987.000	-0.000	Terminate	
"Student16Mode3"	"Tanvi_6"	"Dec 01, 2016 09:51:31 AM"	Unknown	128.98592	11/01/0116 09:53.44	00007739	15.571	Inter618t1-0	0.635	1	2	188.013	24.444	-11.8	0.102	0.000	D	F	1442.4	188.282	0.131	-1.169	699.324	1095.274	0.134	-	-0.734	-0.038	-	-	-	-	-	-	-	FREEWAY_SMOOTH	Urban	F	1011101000011101	0000000000010000	-	car	105.966	6.850	0.000	0.000	180.000	696.000	987.000	-0.000	Terminate	
"Student16Mode3"	"Tanvi_6"	"Dec 01, 2016 09:51:31 AM"	Unknown	129.98593	11/01/0116 09:53.45	00007799	15.353	Inter618t1-0	0.668	1	2	185.507	24.444	-9.9	0.076	0.000	D	F	1284.9	185.532	0.122	-0.962	697.466	1079.894	0.118	-	-0.679	-0.276	-	-	-	-	-	-	-	FREEWAY_SMOOTH	Urban	F	1011101000011101	0000000000010000	-	car	90.546	5.917	0.000	0.000	180.000	696.000	987.000	-0.000	Terminate	
"Student16Mode3"	"Tanvi_6"	"Dec 01, 2016 09:51:31 AM"	Unknown	130.98595	11/01/0116 09:53.46	00007859	14.973	Inter618t1-0	0.635	1	2	183.510	24.444	-7.3	0.000	0.000	D	F	1021.1	183.293	0.115	-0.774	696.303	1064.731	0.100	-	-0.519	-0.540	-	-	-	-	-	-	-	FREEWAY_SMOOTH	Urban	F	1011101000011101	0000000000010000	-	car	75.372	5.041	0.000	0.000	180.000	696.000	987.000	-0.000	Terminate	
"Student16Mode3"	"Tanvi_6"	"Dec 01, 2016 09:51:31 AM"	Unknown	131.98598	11/01/0116 09:53.47	00007919	14.434	Inter618t1-0	0.562	1	2	182.000	24.444	-4.5	0.000	0.000	D	F	984.4	181.771	0.120	-0.592	695.671	1050.042	0.082	-	-0.306	-0.532	-	-	-	-	-	-	-	FREEWAY_SMOOTH	Urban	F	1011101000011101	0000000000010000	-	car	60.683	4.207	0.000	0.000	180.000	696.000	987.000	-0.000	Terminate	
"Student16Mode3"	"Tanvi_6"	"Dec 01, 2016 09:51:31 AM"	Unknown	132.98599	11/01/0116 09:53.48	00007979	12.068	Inter618t1-0	0.533	1	2	180.977	24.444	-3.2	0.000	0.242	D	F	1080.3	181.150	0.073	-0.427	695.352	1036.565	0.071	-	-0.108	-3.400	-	-	-	-	-	-	-	FREEWAY_SMOOTH	Urban	F	1011101000011101	0000000000010000	-	car	47.209	3.914	0.000	0.000	180.000	696.000	987.000	-0.000	Terminate	
"Student16Mode3"	"Tanvi_6"	"Dec 01, 2016 09:51:31 AM"	Unknown	133.98601	11/01/0116 09:53.49	00008039	9.203	Inter618t1-0	0.524	1	2	180.437	24.444	-9.8	0.000	0.116	D	F	889.1	180.108	0.105	-0.260	695.231	1026.079	0.058	-	-0.265	-2.072	-	-	-	-	-	-	-	FREEWAY_SMOOTH	Urban	F	1011101000011101	0000000000010000	-	car	36.732	4.066	0.167	2.000	180.000	696.000	986.995	-0.000	Terminate	
"Student16Mode3"	"Tanvi_6"	"Dec 01, 2016 09:51:31 AM"	Unknown	134.98604	11/01/0116 09:53.50	00008099	7.210	Inter618t1-0	0.383	1	2	180.157	24.444	-0.8	0.000	0.128	D	F	696.9	178.956	0.100	-0.177	695.330	1017.839	0.047	-	-0.016	-2.061	-	-	-	-	-	-	-	FREEWAY_SMOOTH	Urban	F	1011101000011101	0000000000010000	-	car	29.642	5.876	2.167	2.000	176.930	696.058	985.846	-0.000	Terminate	
"Student16Mode3"	"Tanvi_6"	"Dec 01, 2016 09:51:31 AM"	Unknown	135.98605	11/01/0116 09:53.51	00008159	6.375	Inter618t1-0	0.248	1	2	180.017	24.444	-0.4	0.025	0.000	D	F	666.5	178.949	0.130	-0.085	695.454	1011.183	0.036	-	-0.005	-0.462	-	-	-	-	-	-	-	FREEWAY_SMOOTH	Urban	F	1011101000011101	0000000000010000	-	car	26.134	11.827	4.167	2.000	176.987	696.236	982.701	-0.000	Terminate	
"Student16Mode3"	"Tanvi_6"	"Dec 01, 2016 09:51:31 AM"	Unknown	136.98607	11/01/0116 09:53.52	00008219	6.663	Inter618t1-0	0.116	1	2	180.000	24.444	-1.6	0.095	0.000	D	F	1267.6	178.800	0.174	0.000	695.584	1004.693	0.025	-	-0.026	0.436	-	-	-	-	-	-	-	FREEWAY_SMOOTH	Urban	F	1011101000011101	0000000000010000	-	car	24.792	49.923	6.167	2.000	179.002	696.375	977.552	-0.000	Terminate	
"Student16Mode3"	"Tanvi_6"	"Dec 01, 2016 09:51:31 AM"	Unknown	137.98610	11/01/0116 09:53.53	00008279	7.388	Inter686t1-0	0.658	1	1	180.000	11.111	-1.2	0.162	0.000	D	F	1591.3	178.715	0.201	0.004	695.738	997.741	0.021	-	-0.026	0.978	-	-	-	-	-	-	-	PAVEMENT_GENERAL	Urban	F	1011101000011101	0000000000010000	-	car	24.987	-32.164	8.167	2.000	179.993	696.400	970.402	-0.000	Terminate	
"Student16Mode3"	"Tanvi_6"	"Dec 01, 2016 09:51:31 AM"	Unknown	138.98611	11/01/0116 09:53.54	00008339	8.417	Inter686t1-0	0.481	1	1	180.000	11.111	0.7	0.196	0.000	D	F	1803.3	178.790	0.217	-0.000	695.916	989.852	0.021	-	0.014	1.236	-	-	-	car	2.837	23.881	-	PAVEMENT_GENERAL	Urban	F	1011101000011101	0000000000010000	-	car	26.245	-15.011	10.167	2.000	180.008	696.397	961.252	-0.000	Terminate	
"Student16Mode3"	"Tanvi_6"	"Dec 01, 2016 09:51:31 AM"	Unknown	139.98613	11/01/0116 09:53.55	00008399	9.388	Inter686t1-0	0.296	1	1	180.000	11.111	0.3	0.175	0.000	D	F	1805.4	178.822	0.207	0.000	696.100	980.921	0.022	-	0.006	0.857	-	-	-	car	2.780	26.101	-	PAVEMENT_GENERAL	Urban	F	1011101000011101	0000000000010000	-	car	28.462	-10.243	12.167	2.000	180.003	696.397	950.102	-0.000	Terminate	
"Student16Mode3"	"Tanvi_6"	"Dec 01, 2016 09:51:31 AM"	Unknown	140.98616	11/01/0116 09:53.56	00008459	10.363	Inter686t1-0	0.141	1	1	180.000	11.111	1.3	0.176	0.000	D	F	1874.6	179.327	0.206	-0.005	696.255	971.047	0.022	-	0.048	0.792	-	-	-	car	2.835	29.377	-	PAVEMENT_GENERAL	Urban	F	1011101000011101	0000000000010000	-	car	31.736	-8.343	14.167	2.000	180.003	696.397	936.951	-0.000	Terminate	
"Student16Mode3"	"Tanvi_6"	"Dec 01, 2016 09:51:31 AM"	Unknown	141.98618	11/01/0116 09:53.57	00008519	11.078	Inter686t1-0	0.037	1	1	180.000	11.111	1.7	0.180	0.000	D	F	1965.5	179.555	0.207	-0.007	696.359	960.323	0.023	-	0.057	0.724	-	-	-	car	3.051	33.804	-	PAVEMENT_GENERAL	Urban	F	1011101000011101	0000000000010000	-	car	36.164	-7.106	16.167	2.000	180.002	696.397	921.800	-0.000	Terminate	
"Student16Mode3"	"Tanvi_6"	"Dec 01, 2016 09:51:31 AM"	Unknown	142.98619	11/01/0116 09:53.58	00008579	11.797	Inter686t1-0	-0.031	1	1	180.000	11.111	-2.6	0.185	0.000	D	F	2058.1	179.640	0.206	0.013	696.427	948.888	0.023	-	-0.080	0.723	-	-	-	car	3.350	39.519	-	PAVEMENT_GENERAL	Urban	F	1011101000011101	0000000000010000	-	car	41.879	-6.591	18.150	1.000	180.002	696.397	904.650	-0.000	Terminate	
"Student16Mode3"	"Tanvi_6"	"Dec 01, 2016 09:51:31 AM"	Unknown	143.98621	11/01/0116 09:53.59	00008639	12.459	Inter686t1-0	-0.164	1	1	180.000	11.111	2.1	0.185	0.000	D	F	1752.2	179.158	0.204	-0.005	696.560	936.746	0.024	-	0.019	0.594	-	-	-	car	3.694	46.019	-	PAVEMENT_GENERAL	Urban	F	1011101000011101	0000000000010000	-	car	48.379	-7.246	19.134	0.500	180.002	696.397	886.008	-0.000	Terminate	
"Student16Mode3"	"Tanvi_6"	"Dec 01, 2016 09:51:31 AM"	Unknown	144.98624	11/01/0116 09:54.00	00008699	13.040	Inter686t1-0	-0.262	1	1	180.000	11.111	-0.3	0.187	0.000	D	F	1769.1	179.894	0.202	-0.002	696.658	923.995	0.024	-	0.037	0.559	-	-	-	car	4.038	52.648	-	PAVEMENT_GENERAL	Urban	F	1011101000011101	0000000000010000	-	car	55.008	-8.342	19.634	0.500	180.002	696.397	866.628	-0.000	Terminate	
"Student16Mode3"	"Tanvi_6"	"Dec 01, 2016 09:51:31 AM"	Unknown	145.98625	11/01/0116 09:54.01	00008759	13.588	Inter686t1-0	-0.307	1	1	180.000	11.111	0.6	0.201	0.000	D	F	1823.3	179.700	0.202	0.000	696.703	910.684	0.024	-	-0.009	0.585	-	-	-	car	4.358	59.217	-	PAVEMENT_GENERAL	Urban	F	1011101000011101	0000000000010000	-	car	61.577	-9.432	20.116	0.000	180.002	696.397	846.748	-0.000	Terminate	
"Student16Mode3"	"Tanvi_6"	"Dec 01, 2016 09:51:31 AM"	Unknown	146.98627	11/01/0116 09:54.02	00008819	14.268	Inter686t1-0	-0.327	1	1	180.000	11.111	3.9	0.265	0.000	D	F	1946.1	180.295	0.205	-0.025	696.723	896.773	0.023	-	0.198	0.769	-	-	-	car	4.585	65.422	-	PAVEMENT_GENERAL	Urban	F	1011101000011101	0000000000010000	-	car	67.783	-11.592	20.116	0.000	180.002	696.397	826.632	-0.000	Terminate	
"Student16Mode3"	"Tanvi_6"	"Dec 01, 2016 09:51:31 AM"	Unknown	147.98630	11/01/0116 09:54.03	00008879	15.052	Inter686t1-0	-0.176	1	1	180.000	11.111	1.0	0.289	0.000	D	F	2009.4	180.817	0.203	-0.008	696.573	882.113	0.023	-	0.069	0.785	-	-	-	car	4.709	70.878	-	PAVEMENT_GENERAL	Urban	F	1011101000011101	0000000000010000	-	car	73.238	-14.461	20.116	0.000	179.971	696.399	806.516	-0.000	Terminate	
"Student16Mode3"	"Tanvi_6"	"Dec 01, 2016 09:51:31 AM"	Unknown	148.98631	11/01/0116 09:54.04	00008939	15.822	Inter686t1-0	0.065	1	1	180.000	11.111	-1.8	0.305	0.000	D	F	2063.3	180.888	0.201	0.011	696.331	866.677	0.023	-	-0.075	0.764	-	-	-	car	4.776	75.558	-	PAVEMENT_GENERAL	Urban	F	1011101000011101	0000000000010000	-	car	77.918	-18.135	20.116	0.000	179.995	696.403	786.400	-0.000	Terminate	
"Student16Mode3"	"Tanvi_6"	"Dec 01, 2016 09:51:31 AM"	Unknown	149.98633	11/01/0116 09:54.05	00008999	16.606	Inter686t1-0	0.272	1	1	180.000	11.111	-1.3	0.321	0.000	D	F	2121.7	180.563	0.200	0.010	696.125	850.465	0.023	-	-0.081	0.770	-	-	-	car	4.785	79.462	-	PAVEMENT_GENERAL	Urban	F	1011101000011101	0000000000010000	-	car	81.822	-23.299	20.116	0.000	179.996	696.403	766.284	-0.000	Terminate	
"Student16Mode3"	"Tanvi_6"	"Dec 01, 2016 09:51:31 AM"	Unknown	150.98636	11/01/0116 09:54.06	00009059	17.314	Inter686t1-0	0.400	1	1	180.000	11.111	-1.4	0.273	0.000	D	F	2114.4	180.266	0.193	0.011	695.996	833.485	0.024	-	-0.083	0.590	-	-	-	car	4.771	82.598	-	PAVEMENT_GENERAL	Urban	F	1011101000011101	0000000000010000	-	car	84.958	-30.317	20.116	0.000	179.996	696.403	746.168	-0.000	Terminate	
"Student16Mode3"	"Tanvi_6"	"Dec 01, 2016 09:51:31 AM"	Unknown	151.98637	11/01/0116 09:54.07	00009119	17.837	Inter686t1-0	0.433	1	1	180.000	11.111	-1.7	0.231	0.000	D	F	2092.4	179.878	0.195	0.014	695.963	815.898	0.024	-	-0.118	0.474	-	-	-	car	4.773	85.126	-	PAVEMENT_GENERAL	Urban	F	1011101000011101	0000000000010000	-	car	87.487	-38.383	20.116	0.000	179.996	696.403	726.052	-0.000	Terminate	
"Student16Mode3"	"Tanvi_6"	"Dec 01, 2016 09:51:31 AM"	Unknown	152.98639	11/01/0116 09:54.08	00009179	18.277	Inter682t1-1	0.360	1	1	180.000	11.111	-1.3	0.217	0.000	D	F	2109.7	179.588	0.194	0.010	696.044	797.835	0.025	-	-0.079	0.402	-	-	-	car	4.770	87.180	-	PAVEMENT_GENERAL	Urban	F	1011101000011101	0000000000010000	-	car	89.540	-48.679	20.116	0.000	179.996	696.403	705.936	-0.000	Terminate	
"Student16Mode3"	"Tanvi_6"	"Dec 01, 2016 09:51:31 AM"	Unknown	153.98642	11/01/0116 09:54.09	00009239	18.660	Inter682t1-1	0.200	1	1	180.000	11.111	-0.6	0.213	0.000	D	F	2134.2	179.408	0.193	0.006	696.204	779.366	0.025	-	-0.043	0.371	-	-	-	car	4.760	88.827	-	PAVEMENT_GENERAL	Urban	F	1111101000011101	0000000000010000	-	car	91.187	-62.624	20.116	0.000	179.996	696.403	685.820	-0.000	Terminate	
