"Name"	"Project"	"Time"	ZoneName	Time	SystemTime	Frame	Velocity	LaneName	LanePos	LaneIndex	LaneCount	LaneHeading	SpeedLimit	Steer	Accel	Brake	Gear	Horn	SubjectEngineRPM	SubjectHeading	SubjectPitch	SubjectRoll	SubjectX	SubjectY	SubjectZ	Signal	LatAccel	LongAccel	Collision	CollisionAngle	CollisionVelocity	VehAhead	HeadwayTime	HeadwayDist	TTC	TerrainType	CultureType	Slip	DigitalInputs	DigitalInputs2	ActiveTrigger	EntityName	DistToEntity	TimeToEntity	EntityVelocity	EntityAccel	EntityHeading	EntityX	EntityY	EntityZ	GrabData	
"Student26Mode1"	"Seema_Shokoufeh_Track2"	"Feb 16, 2017 09:59:04 AM"	Unknown	0.98335	01/16/0117 09:59.09	00000059	0.002	Inter625t13-0	-0.088	1	2	0.000	11.111	7.6	0.000	0.000	D	F	0.0	0.002	0.153	-0.003	1503.500	523.206	0.019	-	-0.000	0.000	-	-	-	-	-	-	-	PAVEMENT_GENERAL	Urban	F	1011101000011101	0000000000010000	-	-	-	-	-	-	-	-	-	-	Terminate	
"Student26Mode1"	"Seema_Shokoufeh_Track2"	"Feb 16, 2017 09:59:04 AM"	Unknown	1.98337	01/16/0117 09:59.10	00000119	0.002	Inter625t13-0	-0.088	1	2	0.000	11.111	6.7	0.000	0.000	D	F	172.2	0.001	0.197	-0.000	1503.500	523.208	0.026	-	0.000	0.000	-	-	-	-	-	-	-	PAVEMENT_GENERAL	Urban	F	1011101000011111	0000000000010000	-	-	-	-	-	-	-	-	-	-	Terminate	
"Student26Mode1"	"Seema_Shokoufeh_Track2"	"Feb 16, 2017 09:59:04 AM"	Unknown	2.98339	01/16/0117 09:59.11	00000179	0.002	Inter625t13-0	-0.088	1	2	0.000	11.111	2.7	0.000	0.000	D	F	500.0	0.001	0.207	-0.000	1503.500	523.210	0.028	-	0.000	0.008	-	-	-	-	-	-	-	PAVEMENT_GENERAL	Urban	F	1011101000011101	0000000000010000	-	-	-	-	-	-	-	-	-	-	Terminate	
"Student26Mode1"	"Seema_Shokoufeh_Track2"	"Feb 16, 2017 09:59:04 AM"	Unknown	3.98341	01/16/0117 09:59.12	00000239	0.254	Inter625t13-0	-0.088	1	2	0.000	11.111	1.7	0.072	0.000	D	F	1028.2	0.002	0.251	-0.001	1503.500	523.248	0.022	-	0.002	1.488	-	-	-	-	-	-	-	PAVEMENT_GENERAL	Urban	F	1011101000011101	0000000000010000	-	-	-	-	-	-	-	-	-	-	Terminate	
"Student26Mode1"	"Seema_Shokoufeh_Track2"	"Feb 16, 2017 09:59:04 AM"	Unknown	4.98343	01/16/0117 09:59.13	00000299	2.237	Inter625t13-0	-0.086	1	2	0.000	11.111	1.2	0.093	0.000	D	F	1245.3	0.058	0.219	-0.001	1503.502	524.478	0.017	-	0.000	1.936	-	-	-	-	-	-	-	PAVEMENT_GENERAL	Urban	F	1011101000011101	0000000000010000	-	-	-	-	-	-	-	-	-	-	Terminate	
"Student26Mode1"	"Seema_Shokoufeh_Track2"	"Feb 16, 2017 09:59:04 AM"	Unknown	5.98345	01/16/0117 09:59.14	00000359	3.979	Inter625t13-0	-0.088	1	2	0.000	11.111	-1.2	0.115	0.000	D	F	1491.9	359.943	0.214	0.001	1503.500	527.628	0.019	-	-0.002	1.504	-	-	-	-	-	-	-	PAVEMENT_GENERAL	Urban	F	1011101000011101	0000000000010000	-	-	-	-	-	-	-	-	-	-	Terminate	
"Student26Mode1"	"Seema_Shokoufeh_Track2"	"Feb 16, 2017 09:59:04 AM"	Unknown	6.98347	01/16/0117 09:59.15	00000419	5.103	Inter625t13-0	-0.090	1	2	0.000	11.111	5.2	0.104	0.000	D	F	1622.3	0.032	0.210	-0.008	1503.498	532.222	0.022	-	0.061	0.938	-	-	-	-	-	-	-	PAVEMENT_GENERAL	Urban	F	1011101000011101	0000000000010000	-	-	-	-	-	-	-	-	-	-	Terminate	
"Student26Mode1"	"Seema_Shokoufeh_Track2"	"Feb 16, 2017 09:59:04 AM"	Unknown	7.98349	01/16/0117 09:59.16	00000479	6.007	Inter625t49-0	-0.039	1	1	0.006	11.111	10.4	0.106	0.000	D	F	1408.4	0.778	0.209	-0.020	1503.550	537.797	0.022	-	0.136	0.781	-	-	-	-	-	-	-	PAVEMENT_GENERAL	Urban	F	1011101000011101	0000000000010000	-	-	-	-	-	-	-	-	-	-	Terminate	
"Student26Mode1"	"Seema_Shokoufeh_Track2"	"Feb 16, 2017 09:59:04 AM"	Unknown	8.98351	01/16/0117 09:59.17	00000539	6.718	Inter625t49-0	0.124	1	1	0.007	11.111	-2.9	0.106	0.000	D	F	1434.3	1.573	0.209	0.012	1503.713	544.168	0.023	-	-0.062	0.666	-	-	-	-	-	-	-	PAVEMENT_GENERAL	Urban	F	1011101000011101	0000000000010000	-	-	-	-	-	-	-	-	-	-	Terminate	
"Student26Mode1"	"Seema_Shokoufeh_Track2"	"Feb 16, 2017 09:59:04 AM"	Unknown	9.98353	01/16/0117 09:59.18	00000599	7.352	Inter625t49-0	0.282	1	1	0.008	11.111	-5.0	0.109	0.000	D	F	1482.1	1.099	0.207	0.013	1503.871	551.202	0.023	-	-0.089	0.595	-	-	-	-	-	-	-	PAVEMENT_GENERAL	Urban	F	1011101000011101	0000000000010000	-	-	-	-	-	-	-	-	-	-	Terminate	
"Student26Mode1"	"Seema_Shokoufeh_Track2"	"Feb 16, 2017 09:59:04 AM"	Unknown	10.98355	01/16/0117 09:59.19	00000659	7.995	Inter625t49-0	0.382	1	1	0.006	11.111	-2.1	0.131	0.000	D	F	1586.7	0.641	0.207	0.005	1503.973	558.859	0.023	-	-0.044	0.687	-	-	-	-	-	-	-	PAVEMENT_GENERAL	Urban	F	1011101000011101	0000000000010000	-	-	-	-	-	-	-	-	-	-	Terminate	
"Student26Mode1"	"Seema_Shokoufeh_Track2"	"Feb 16, 2017 09:59:04 AM"	Unknown	11.98357	01/16/0117 09:59.20	00000719	8.598	Inter625t49-0	0.443	1	1	0.005	11.111	-1.9	0.120	0.000	D	F	1601.6	0.289	0.206	0.005	1504.035	567.168	0.024	-	-0.043	0.540	-	-	-	-	-	-	-	PAVEMENT_GENERAL	Urban	F	1011101000011101	0000000000010000	-	-	-	-	-	-	-	-	-	-	Terminate	
"Student26Mode1"	"Seema_Shokoufeh_Track2"	"Feb 16, 2017 09:59:04 AM"	Unknown	12.98359	01/16/0117 09:59.21	00000779	9.109	Inter625t49-0	0.469	1	1	0.005	11.111	0.9	0.122	0.000	D	F	1643.4	0.145	0.205	-0.006	1504.062	576.028	0.024	-	0.021	0.467	-	-	-	-	-	-	-	PAVEMENT_GENERAL	Urban	F	1011101000011101	0000000000010000	-	-	-	-	-	-	-	-	-	-	Terminate	
"Student26Mode1"	"Seema_Shokoufeh_Track2"	"Feb 16, 2017 09:59:04 AM"	Unknown	13.98361	01/16/0117 09:59.22	00000839	9.576	Inter625t15-0	0.498	1	2	0.000	11.111	-1.4	0.123	0.000	D	F	1700.9	0.157	0.205	0.006	1504.091	585.371	0.024	-	-0.036	0.470	-	-	-	-	-	-	-	PAVEMENT_GENERAL	Urban	F	1011101000011101	0000000000010000	-	-	-	-	-	-	-	-	-	-	Terminate	
"Student26Mode1"	"Seema_Shokoufeh_Track2"	"Feb 16, 2017 09:59:04 AM"	Unknown	14.98363	01/16/0117 09:59.23	00000899	10.001	Inter625t15-0	0.498	1	2	0.000	11.111	-2.3	0.118	0.000	D	F	1496.2	359.870	0.203	0.009	1504.091	595.166	0.024	-	-0.065	0.389	-	-	-	-	-	-	-	PAVEMENT_GENERAL	Urban	F	1011101000011101	0000000000010000	-	-	-	-	-	-	-	-	-	-	Terminate	
"Student26Mode1"	"Seema_Shokoufeh_Track2"	"Feb 16, 2017 09:59:04 AM"	Unknown	15.98365	01/16/0117 09:59.24	00000959	10.364	Inter614t1-0	0.440	1	2	0.000	11.111	-1.6	0.123	0.000	D	F	1479.8	359.535	0.203	0.007	1504.033	605.351	0.025	-	-0.051	0.354	-	-	-	-	-	-	-	PAVEMENT_GENERAL	Urban	F	1011101000011101	0000000000010000	-	-	-	-	-	-	-	-	-	-	Terminate	
"Student26Mode1"	"Seema_Shokoufeh_Track2"	"Feb 16, 2017 09:59:04 AM"	Unknown	16.98367	01/16/0117 09:59.25	00001019	10.706	Inter614t1-0	0.334	1	2	0.000	11.111	-0.8	0.136	0.000	D	F	1515.9	359.344	0.203	0.004	1503.927	615.886	0.025	-	-0.027	0.346	-	-	-	-	-	-	-	PAVEMENT_GENERAL	Urban	F	1011101000011101	0000000000010000	-	-	-	-	-	-	-	-	-	-	Terminate	
"Student26Mode1"	"Seema_Shokoufeh_Track2"	"Feb 16, 2017 09:59:04 AM"	Unknown	17.98369	01/16/0117 09:59.26	00001079	11.073	Inter614t1-0	0.195	1	2	0.000	11.111	-0.6	0.136	0.000	D	F	1537.3	359.219	0.201	0.003	1503.789	626.773	0.025	-	-0.022	0.353	-	-	-	-	-	-	-	PAVEMENT_GENERAL	Urban	F	1011101000011101	0000000000010000	-	-	-	-	-	-	-	-	-	-	Terminate	
"Student26Mode1"	"Seema_Shokoufeh_Track2"	"Feb 16, 2017 09:59:04 AM"	Unknown	18.98371	01/16/0117 09:59.27	00001139	11.527	Inter614t1-0	0.039	1	2	0.000	11.111	2.3	0.153	0.000	D	F	1607.5	359.290	0.204	-0.009	1503.632	638.068	0.024	-	0.078	0.449	-	-	-	-	-	-	-	PAVEMENT_GENERAL	Urban	F	1011101000011101	0000000000010000	-	-	-	-	-	-	-	-	-	-	Terminate	
"Student26Mode1"	"Seema_Shokoufeh_Track2"	"Feb 16, 2017 09:59:04 AM"	Unknown	19.98373	01/16/0117 09:59.28	00001199	11.955	Inter614t1-0	-0.056	1	2	0.000	11.111	3.1	0.152	0.000	D	F	1627.7	359.769	0.202	-0.014	1503.537	649.810	0.024	-	0.112	0.421	-	-	-	-	-	-	-	PAVEMENT_GENERAL	Urban	F	1011101000011101	0000000000010000	-	-	-	-	-	-	-	-	-	-	Terminate	
"Student26Mode1"	"Seema_Shokoufeh_Track2"	"Feb 16, 2017 09:59:04 AM"	Unknown	20.98375	01/16/0117 09:59.29	00001259	12.332	Inter614t1-0	-0.039	1	2	0.000	11.111	2.5	0.146	0.000	D	F	1621.5	0.342	0.201	-0.014	1503.554	661.961	0.025	-	0.104	0.332	-	-	-	-	-	-	-	PAVEMENT_GENERAL	Urban	F	1011101000011101	0000000000010000	-	-	-	-	-	-	-	-	-	-	Terminate	
"Student26Mode1"	"Seema_Shokoufeh_Track2"	"Feb 16, 2017 09:59:04 AM"	Unknown	21.98377	01/16/0117 09:59.30	00001319	12.680	Inter614t1-0	0.075	1	2	0.000	11.111	1.7	0.148	0.000	D	F	1649.8	0.693	0.201	-0.010	1503.668	674.467	0.025	-	0.075	0.346	-	-	-	-	-	-	-	PAVEMENT_GENERAL	Urban	F	1011101000011101	0000000000010000	-	-	-	-	-	-	-	-	-	-	Terminate	
"Student26Mode1"	"Seema_Shokoufeh_Track2"	"Feb 16, 2017 09:59:04 AM"	Unknown	22.98379	01/16/0117 09:59.31	00001379	13.009	Inter614t1-0	0.259	1	2	0.000	11.111	-1.9	0.148	0.000	D	F	1658.9	0.885	0.200	0.010	1503.852	687.313	0.025	-	-0.044	0.319	-	-	-	-	-	-	-	PAVEMENT_GENERAL	Urban	F	1011101000011101	0000000000010000	-	-	-	-	-	-	-	-	-	-	Terminate	
"Student26Mode1"	"Seema_Shokoufeh_Track2"	"Feb 16, 2017 09:59:04 AM"	Unknown	23.98381	01/16/0117 09:59.32	00001439	13.312	Inter614t1-0	0.416	1	2	0.000	11.111	-5.6	0.146	0.000	D	F	1667.8	0.391	0.200	0.026	1504.009	700.473	0.025	-	-0.211	0.293	-	-	-	-	-	-	-	PAVEMENT_GENERAL	Urban	F	1011101000011101	0000000000010000	-	-	-	-	-	-	-	-	-	-	Terminate	
"Student26Mode1"	"Seema_Shokoufeh_Track2"	"Feb 16, 2017 09:59:04 AM"	Unknown	24.98383	01/16/0117 09:59.33	00001499	13.593	Inter614t1-0	0.407	1	2	0.000	11.111	-1.8	0.146	0.000	D	F	1679.5	359.667	0.199	0.010	1504.000	713.927	0.025	-	-0.094	0.271	-	-	-	12	9.210	125.193	-	PAVEMENT_GENERAL	Urban	F	1011101000011101	0000000000010000	-	-	-	-	-	-	-	-	-	-	Terminate	
"Student26Mode1"	"Seema_Shokoufeh_Track2"	"Feb 16, 2017 09:59:04 AM"	Unknown	25.98385	01/16/0117 09:59.34	00001559	13.833	Inter614t1-0	0.283	1	2	0.000	11.111	-2.1	0.138	0.000	D	F	1668.7	359.274	0.198	0.011	1503.876	727.644	0.025	-	-0.093	0.214	-	-	-	12	9.408	130.141	-	PAVEMENT_GENERAL	Urban	F	1011101000011101	0000000000010000	-	-	-	-	-	-	-	-	-	-	Terminate	
"Student26Mode1"	"Seema_Shokoufeh_Track2"	"Feb 16, 2017 09:59:04 AM"	Unknown	26.98387	01/16/0117 09:59.35	00001619	14.035	Inter614t1-0	0.073	1	2	0.000	11.111	0.3	0.138	0.000	D	F	1679.3	359.103	0.198	-0.001	1503.667	741.578	0.026	-	0.010	0.199	-	-	-	12	9.743	136.748	-	PAVEMENT_GENERAL	Urban	F	1011101000011101	0000000000010000	-	-	-	-	-	-	-	-	-	-	Terminate	
"Student26Mode1"	"Seema_Shokoufeh_Track2"	"Feb 16, 2017 09:59:04 AM"	Unknown	27.98389	01/16/0117 09:59.36	00001679	14.229	Inter614t1-0	-0.140	1	2	0.000	11.111	0.5	0.138	0.000	D	F	1688.7	359.169	0.197	-0.003	1503.453	755.709	0.026	-	0.021	0.185	-	-	-	12	10.126	144.075	-	PAVEMENT_GENERAL	Urban	F	1011101000011101	0000000000010000	-	-	-	-	-	-	-	-	-	-	Terminate	
"Student26Mode1"	"Seema_Shokoufeh_Track2"	"Feb 16, 2017 09:59:04 AM"	Unknown	28.98391	01/16/0117 09:59.37	00001739	14.412	Inter614t1-0	-0.311	1	2	0.000	11.111	9.5	0.138	0.000	D	F	1694.0	359.722	0.197	-0.055	1503.282	770.029	0.026	-	0.395	0.178	-	-	-	12	10.528	151.732	-	PAVEMENT_GENERAL	Urban	F	1111101000011101	0000000000010000	-	-	-	-	-	-	-	-	-	-	Terminate	
"Student26Mode1"	"Seema_Shokoufeh_Track2"	"Feb 16, 2017 09:59:04 AM"	Unknown	29.98393	01/16/0117 09:59.38	00001799	14.578	Inter614t1-0	-0.153	1	2	0.000	11.111	4.2	0.136	0.000	D	F	1701.6	1.469	0.196	-0.032	1503.440	784.524	0.026	-	0.282	0.158	-	-	-	12	10.947	159.575	-	PAVEMENT_GENERAL	Urban	F	1011101000011101	0000000000010000	-	-	-	-	-	-	-	-	-	-	Terminate	
"Student26Mode1"	"Seema_Shokoufeh_Track2"	"Feb 16, 2017 09:59:04 AM"	Unknown	30.98395	01/16/0117 09:59.39	00001859	14.735	Inter614t1-0	0.243	1	2	0.000	11.111	-3.5	0.134	0.000	D	F	1709.9	1.390	0.197	0.022	1503.836	799.176	0.026	-	-0.159	0.148	-	-	-	12	11.194	164.936	-	PAVEMENT_GENERAL	Urban	F	1011101000011101	0000000000010000	-	-	-	-	-	-	-	-	-	-	Terminate	
"Student26Mode1"	"Seema_Shokoufeh_Track2"	"Feb 16, 2017 09:59:04 AM"	Unknown	31.98397	01/16/0117 09:59.40	00001919	14.879	Inter612t1-0	0.493	1	2	0.000	11.111	-5.8	0.136	0.000	D	F	1720.2	0.408	0.196	0.039	1504.086	813.982	0.026	-	-0.304	0.139	-	-	-	12	11.749	174.824	-	PAVEMENT_GENERAL	Urban	F	1011101000011101	0000000000010000	-	-	-	-	-	-	-	-	-	-	Terminate	
"Student26Mode1"	"Seema_Shokoufeh_Track2"	"Feb 16, 2017 09:59:04 AM"	Unknown	32.98399	01/16/0117 09:59.41	00001979	15.023	Inter612t1-0	0.534	1	2	0.000	11.111	1.6	0.139	0.000	D	F	1735.0	0.174	0.196	-0.010	1504.127	828.932	0.026	-	0.080	0.148	-	-	-	12	12.130	182.228	-	PAVEMENT_GENERAL	Urban	F	1011101000011101	0000000000010000	-	-	-	-	-	-	-	-	-	-	Terminate	
"Student26Mode1"	"Seema_Shokoufeh_Track2"	"Feb 16, 2017 09:59:04 AM"	Unknown	33.98401	01/16/0117 09:59.42	00002039	15.161	Inter612t1-0	0.621	1	2	0.000	11.111	1.6	0.136	0.000	D	F	1744.2	0.503	0.196	-0.011	1504.214	844.024	0.026	-	0.084	0.136	-	-	-	12	12.499	189.489	-	PAVEMENT_GENERAL	Urban	F	1011101000011101	0000000000010000	-	-	-	-	-	-	-	-	-	-	Terminate	
"Student26Mode1"	"Seema_Shokoufeh_Track2"	"Feb 16, 2017 09:59:04 AM"	Unknown	34.98403	01/16/0117 09:59.43	00002099	15.300	Inter612t1-0	0.789	1	2	0.000	11.111	0.8	0.138	0.000	D	F	1758.0	0.754	0.196	-0.006	1504.382	859.253	0.026	-	0.048	0.140	-	-	-	12	12.850	196.613	-	PAVEMENT_GENERAL	Urban	F	1011101000011101	0000000000010000	-	-	-	-	-	-	-	-	-	-	Terminate	
"Student26Mode1"	"Seema_Shokoufeh_Track2"	"Feb 16, 2017 09:59:04 AM"	Unknown	35.98405	01/16/0117 09:59.44	00002159	15.440	Inter612t1-0	0.989	1	2	0.000	11.111	-9.7	0.138	0.000	D	F	1768.0	0.544	0.195	0.052	1504.582	874.622	0.026	-	-0.364	0.138	-	-	-	12	13.186	203.598	-	PAVEMENT_GENERAL	Urban	F	1011101000011101	0000000000010000	-	-	-	-	-	-	-	-	-	-	Terminate	
"Student26Mode1"	"Seema_Shokoufeh_Track2"	"Feb 16, 2017 09:59:04 AM"	Unknown	36.98407	01/16/0117 09:59.45	00002219	15.576	Inter612t1-0	0.955	1	2	0.000	11.111	-3.1	0.143	0.000	D	F	1779.9	359.404	0.195	0.021	1504.549	890.130	0.026	-	-0.169	0.136	-	-	-	12	13.511	210.444	-	PAVEMENT_GENERAL	Urban	F	1011101000011101	0000000000010000	-	-	-	-	-	-	-	-	-	-	Terminate	
"Student26Mode1"	"Seema_Shokoufeh_Track2"	"Feb 16, 2017 09:59:04 AM"	Unknown	37.98409	01/16/0117 09:59.46	00002279	15.709	Inter612t1-0	0.749	1	2	0.000	11.111	4.2	0.143	0.000	D	F	1792.3	359.262	0.195	-0.022	1504.343	905.771	0.026	-	0.149	0.135	-	-	-	12	13.824	217.156	-	PAVEMENT_GENERAL	Urban	F	1011101000011101	0000000000010000	-	-	-	-	-	-	-	-	-	-	Terminate	
"Student26Mode1"	"Seema_Shokoufeh_Track2"	"Feb 16, 2017 09:59:04 AM"	Unknown	38.98411	01/16/0117 09:59.47	00002339	15.843	Inter612t1-0	0.677	1	2	0.000	11.111	5.0	0.139	0.000	D	F	1799.9	0.330	0.195	-0.037	1504.271	921.547	0.026	-	0.295	0.132	-	-	-	12	14.122	223.733	-	PAVEMENT_GENERAL	Urban	F	1011101000011101	0000000000010000	-	-	-	-	-	-	-	-	-	-	Terminate	
"Student26Mode1"	"Seema_Shokoufeh_Track2"	"Feb 16, 2017 09:59:04 AM"	Unknown	39.98413	01/16/0117 09:59.48	00002399	15.970	Inter612t1-0	0.877	1	2	0.000	11.111	-4.8	0.143	0.000	D	F	1810.2	0.973	0.195	0.023	1504.471	937.452	0.026	-	-0.110	0.124	-	-	-	12	14.414	230.182	-	PAVEMENT_GENERAL	Urban	F	1011101000011101	0000000000010000	-	-	-	-	-	-	-	-	-	-	Terminate	
"Student26Mode1"	"Seema_Shokoufeh_Track2"	"Feb 16, 2017 09:59:04 AM"	Unknown	40.98415	01/16/0117 09:59.49	00002459	16.090	Inter612t1-0	1.002	1	2	0.000	11.111	-5.7	0.143	0.000	D	F	1814.0	359.831	0.194	0.043	1504.595	953.483	0.026	-	-0.325	0.115	-	-	-	12	14.699	236.505	-	PAVEMENT_GENERAL	Urban	F	1011101000011101	0000000000010000	-	-	-	-	-	-	-	-	-	-	Terminate	
"Student26Mode1"	"Seema_Shokoufeh_Track2"	"Feb 16, 2017 09:59:04 AM"	Unknown	41.98417	01/16/0117 09:59.50	00002519	16.195	Inter612t1-0	0.839	1	2	0.000	11.111	-2.3	0.138	0.000	D	F	1817.1	359.042	0.195	0.019	1504.432	969.626	0.026	-	-0.152	0.106	-	-	-	12	14.987	242.716	-	PAVEMENT_GENERAL	Urban	F	1011101000011101	0000000000010000	-	-	-	-	-	-	-	-	-	-	Terminate	
"Student26Mode1"	"Seema_Shokoufeh_Track2"	"Feb 16, 2017 09:59:04 AM"	Unknown	42.98419	01/16/0117 09:59.51	00002579	16.303	Inter612t1-0	0.610	1	2	0.000	11.111	9.1	0.143	0.000	D	F	1831.1	359.930	0.194	-0.075	1504.204	985.872	0.026	-	0.567	0.108	-	-	-	-	-	-	-	PAVEMENT_GENERAL	Urban	F	1011101000011101	0000000000010000	-	-	-	-	-	-	-	-	-	-	Terminate	
"Student26Mode1"	"Seema_Shokoufeh_Track2"	"Feb 16, 2017 09:59:04 AM"	Unknown	43.98421	01/16/0117 09:59.52	00002639	16.411	Inter613t1-0	0.808	1	2	0.000	11.111	0.7	0.141	0.000	D	F	1843.3	1.365	0.193	-0.013	1504.401	1002.227	0.026	-	0.156	0.112	-	-	-	-	-	-	-	PAVEMENT_GENERAL	Urban	F	1011101000011101	0000000000010000	-	-	-	-	-	-	-	-	-	-	Terminate	
"Student26Mode1"	"Seema_Shokoufeh_Track2"	"Feb 16, 2017 09:59:04 AM"	Unknown	44.98423	01/16/0117 09:59.53	00002699	16.524	Inter613t1-0	1.155	1	2	0.000	11.111	-10.2	0.141	0.000	D	F	1845.2	0.577	0.193	0.079	1504.749	1018.691	0.026	-	-0.579	0.095	-	-	-	14	5.250	86.750	-	PAVEMENT_GENERAL	Urban	F	1011101000011101	0000000000010000	-	-	-	-	-	-	-	-	-	-	Terminate	
"Student26Mode1"	"Seema_Shokoufeh_Track2"	"Feb 16, 2017 09:59:04 AM"	Unknown	45.98425	01/16/0117 09:59.54	00002759	16.589	Inter613t1-0	1.137	1	2	0.000	11.111	-0.3	0.109	0.000	D	F	1804.0	359.568	0.189	0.002	1504.730	1035.258	0.026	-	-0.047	-0.036	-	-	-	14	5.443	90.288	-	PAVEMENT_GENERAL	Urban	F	1011101000011101	0000000000010000	-	-	-	-	-	-	-	-	-	-	Terminate	
"Student26Mode1"	"Seema_Shokoufeh_Track2"	"Feb 16, 2017 09:59:04 AM"	Unknown	46.98427	01/16/0117 09:59.55	00002819	16.408	Inter613t1-0	1.003	1	2	0.000	11.111	-1.3	0.083	0.000	D	F	1747.4	359.463	0.192	0.008	1504.597	1051.765	0.027	-	-0.059	-0.170	-	-	-	14	6.011	98.619	-	PAVEMENT_GENERAL	Urban	F	1011101000011101	0000000000010000	-	-	-	-	-	-	-	-	-	-	Terminate	
"Student26Mode1"	"Seema_Shokoufeh_Track2"	"Feb 16, 2017 09:59:04 AM"	Unknown	47.98429	01/16/0117 09:59.56	00002879	16.249	Inter613t1-0	0.832	1	2	0.000	11.111	0.6	0.088	0.000	D	F	1740.7	359.401	0.192	-0.005	1504.425	1068.090	0.027	-	0.030	-0.147	-	-	-	-	-	-	-	PAVEMENT_GENERAL	Urban	F	1011101000011101	0000000000010000	-	-	-	-	-	-	-	-	-	-	Terminate	
"Student26Mode1"	"Seema_Shokoufeh_Track2"	"Feb 16, 2017 09:59:04 AM"	Unknown	48.98431	01/16/0117 09:59.57	00002939	16.132	Inter613t1-0	0.677	1	2	0.000	11.111	0.9	0.086	0.000	D	F	1731.3	359.488	0.192	-0.004	1504.270	1084.283	0.027	-	0.028	-0.134	-	-	-	-	-	-	-	PAVEMENT_GENERAL	Urban	F	1011101000011101	0000000000010000	-	-	-	-	-	-	-	-	-	-	Terminate	
"Student26Mode1"	"Seema_Shokoufeh_Track2"	"Feb 16, 2017 09:59:04 AM"	Unknown	49.98433	01/16/0117 09:59.58	00002999	15.994	Inter613t1-0	0.555	1	2	0.000	11.111	2.3	0.085	0.000	D	F	1717.6	359.679	0.192	-0.012	1504.148	1100.346	0.027	-	0.094	-0.137	-	-	-	-	-	-	-	PAVEMENT_GENERAL	Urban	F	1011101000011101	0000000000010000	-	-	-	-	-	-	-	-	-	-	Terminate	
"Student26Mode1"	"Seema_Shokoufeh_Track2"	"Feb 16, 2017 09:59:04 AM"	Unknown	50.98435	01/16/0117 09:59.59	00003059	15.860	Inter613t1-0	0.521	1	2	0.000	11.111	1.7	0.086	0.000	D	F	1709.1	0.112	0.192	-0.013	1504.114	1116.272	0.027	-	0.106	-0.126	-	-	-	-	-	-	-	PAVEMENT_GENERAL	Urban	F	1011101000011101	0000000000010000	-	-	-	-	-	-	-	-	-	-	Terminate	
"Student26Mode1"	"Seema_Shokoufeh_Track2"	"Feb 16, 2017 09:59:04 AM"	Unknown	51.98437	01/16/0117 10:00.00	00003119	15.740	Inter613t1-0	0.583	1	2	0.000	11.111	0.9	0.088	0.000	D	F	1701.6	0.331	0.193	-0.006	1504.176	1132.071	0.027	-	0.049	-0.114	-	-	-	-	-	-	-	PAVEMENT_GENERAL	Urban	F	1011101000011101	0000000000010000	-	-	-	-	-	-	-	-	-	-	Terminate	
"Student26Mode1"	"Seema_Shokoufeh_Track2"	"Feb 16, 2017 09:59:04 AM"	Unknown	52.98439	01/16/0117 10:00.01	00003179	15.623	Inter613t1-0	0.689	1	2	0.000	11.111	-1.3	0.085	0.000	D	F	1688.4	0.391	0.193	0.006	1504.282	1147.752	0.027	-	-0.047	-0.121	-	-	-	-	-	-	-	PAVEMENT_GENERAL	Urban	F	1011101000011101	0000000000010000	-	-	-	-	-	-	-	-	-	-	Terminate	
"Student26Mode1"	"Seema_Shokoufeh_Track2"	"Feb 16, 2017 09:59:04 AM"	Unknown	53.98441	01/16/0117 10:00.02	00003239	15.510	Inter613t1-0	0.772	1	2	0.000	11.111	1.0	0.086	0.000	D	F	1680.9	0.306	0.193	-0.005	1504.365	1163.317	0.027	-	0.041	-0.108	-	-	-	-	-	-	-	PAVEMENT_GENERAL	Urban	F	1011101000011101	0000000000010000	-	-	-	-	-	-	-	-	-	-	Terminate	
"Student26Mode1"	"Seema_Shokoufeh_Track2"	"Feb 16, 2017 09:59:04 AM"	Unknown	54.98443	01/16/0117 10:00.03	00003299	15.403	Inter613t1-0	0.850	1	2	0.000	11.111	-3.0	0.086	0.000	D	F	1669.1	0.109	0.193	0.020	1504.443	1178.774	0.027	-	-0.146	-0.106	-	-	-	-	-	-	-	PAVEMENT_GENERAL	Urban	F	1011101000011101	0000000000010000	-	-	-	-	-	-	-	-	-	-	Terminate	
"Student26Mode1"	"Seema_Shokoufeh_Track2"	"Feb 16, 2017 09:59:04 AM"	Unknown	55.98445	01/16/0117 10:00.04	00003359	15.297	Inter613t1-0	0.829	1	2	0.000	11.111	0.0	0.088	0.000	D	F	1663.1	359.826	0.193	-0.005	1504.422	1194.123	0.027	-	0.001	-0.098	-	-	-	-	-	-	-	PAVEMENT_GENERAL	Urban	F	1011101000011101	0000000000010000	-	-	-	-	-	-	-	-	-	-	Terminate	
"Student26Mode1"	"Seema_Shokoufeh_Track2"	"Feb 16, 2017 09:59:04 AM"	Unknown	56.98447	01/16/0117 10:00.05	00003419	15.188	Inter746t1-0	0.787	1	2	0.000	11.111	-0.4	0.086	0.000	D	F	1650.8	359.842	0.193	0.002	1504.380	1209.365	0.027	-	-0.014	-0.111	-	-	-	-	-	-	-	PAVEMENT_GENERAL	Urban	F	1011101000011101	0000000000010000	-	-	-	-	-	-	-	-	-	-	Terminate	
"Student26Mode1"	"Seema_Shokoufeh_Track2"	"Feb 16, 2017 09:59:04 AM"	Unknown	57.98449	01/16/0117 10:00.06	00003479	15.082	Inter746t1-0	0.715	1	2	0.000	11.111	-1.6	0.083	0.000	D	F	1636.5	359.561	0.194	0.012	1504.308	1224.502	0.027	-	-0.084	-0.115	-	-	-	-	-	-	-	PAVEMENT_GENERAL	Urban	F	1011101000011101	0000000000010000	-	-	-	-	-	-	-	-	-	-	Terminate	
"Student26Mode1"	"Seema_Shokoufeh_Track2"	"Feb 16, 2017 09:59:04 AM"	Unknown	58.98451	01/16/0117 10:00.07	00003539	14.963	Inter746t1-0	0.563	1	2	0.000	11.111	3.0	0.085	0.000	D	F	1626.1	359.297	0.193	-0.010	1504.156	1239.524	0.027	-	0.056	-0.124	-	-	-	-	-	-	-	PAVEMENT_GENERAL	Urban	F	1011101000011101	0000000000010000	-	-	-	-	-	-	-	-	-	-	Terminate	
"Student26Mode1"	"Seema_Shokoufeh_Track2"	"Feb 16, 2017 09:59:04 AM"	Unknown	59.98453	01/16/0117 10:00.08	00003599	14.846	Inter746t1-0	0.474	1	2	0.000	11.111	2.5	0.081	0.000	D	F	1614.4	0.075	0.194	-0.018	1504.067	1254.429	0.027	-	0.162	-0.119	-	-	-	-	-	-	-	PAVEMENT_GENERAL	Urban	F	1011101000011101	0000000000010000	-	-	-	-	-	-	-	-	-	-	Terminate	
"Student26Mode1"	"Seema_Shokoufeh_Track2"	"Feb 16, 2017 09:59:04 AM"	Unknown	60.98455	01/16/0117 10:00.09	00003659	14.722	Inter746t1-0	0.533	1	2	0.000	11.111	-0.2	0.079	0.000	D	F	1598.6	0.265	0.194	0.001	1504.126	1269.213	0.027	-	-0.016	-0.126	-	-	-	-	-	-	-	PAVEMENT_GENERAL	Urban	F	1011101000011101	0000000000010000	-	-	-	-	-	-	-	-	-	-	Terminate	
"Student26Mode1"	"Seema_Shokoufeh_Track2"	"Feb 16, 2017 09:59:04 AM"	Unknown	61.98457	01/16/0117 10:00.10	00003719	14.581	Inter746t1-0	0.583	1	2	0.000	11.111	1.1	0.074	0.000	D	F	1581.4	0.093	0.194	0.000	1504.176	1283.866	0.027	-	0.000	-0.144	-	-	-	-	-	-	-	PAVEMENT_GENERAL	Urban	F	1011101000011101	0000000000010000	-	-	-	-	-	-	-	-	-	-	Terminate	
"Student26Mode1"	"Seema_Shokoufeh_Track2"	"Feb 16, 2017 09:59:04 AM"	Unknown	62.98459	01/16/0117 10:00.11	00003779	14.448	Inter746t1-0	0.621	1	2	0.000	11.111	-0.4	0.081	0.000	D	F	1580.3	0.155	0.194	0.002	1504.214	1298.379	0.027	-	-0.016	-0.117	-	-	-	-	-	-	-	PAVEMENT_GENERAL	Urban	F	1011101000011101	0000000000010000	-	-	-	-	-	-	-	-	-	-	Terminate	
"Student26Mode1"	"Seema_Shokoufeh_Track2"	"Feb 16, 2017 09:59:04 AM"	Unknown	63.98461	01/16/0117 10:00.12	00003839	14.364	Inter746t1-0	0.645	1	2	0.000	11.111	-1.3	0.081	0.000	D	F	1575.7	0.012	0.194	0.006	1504.238	1312.783	0.027	-	-0.055	-0.090	Person36	149.8	-12.765	-	-	-	-	PAVEMENT_GENERAL	Urban	F	1011101000011101	0000000000010000	-	-	-	-	-	-	-	-	-	-	Terminate	
"Student26Mode1"	"Seema_Shokoufeh_Track2"	"Feb 16, 2017 09:59:04 AM"	Unknown	64.98463	01/16/0117 10:00.13	00003899	14.278	Inter746t1-0	0.621	1	2	0.000	11.111	0.5	0.085	0.000	D	F	1569.9	359.841	0.195	-0.002	1504.214	1327.104	0.027	-	0.006	-0.077	-	-	-	-	-	-	-	PAVEMENT_GENERAL	Urban	F	1011101000011101	0000000000010000	-	-	-	-	-	-	-	-	-	-	Terminate	
"Student26Mode1"	"Seema_Shokoufeh_Track2"	"Feb 16, 2017 09:59:04 AM"	Unknown	65.98465	01/16/0117 10:00.14	00003959	14.200	Inter746t1-0	0.591	1	2	0.000	11.111	-1.2	0.083	0.000	D	F	1561.0	359.884	0.195	0.006	1504.184	1341.342	0.027	-	-0.034	-0.080	-	-	-	-	-	-	-	PAVEMENT_GENERAL	Urban	F	1011101000011101	0000000000010000	-	-	-	-	-	-	-	-	-	-	Terminate	
"Student26Mode1"	"Seema_Shokoufeh_Track2"	"Feb 16, 2017 09:59:04 AM"	Unknown	66.98467	01/16/0117 10:00.15	00004019	14.110	Inter746t1-0	0.534	1	2	0.000	11.111	-1.7	0.079	0.000	D	F	1547.9	359.635	0.195	0.011	1504.127	1355.498	0.027	-	-0.078	-0.095	-	-	-	-	-	-	-	PAVEMENT_GENERAL	Urban	F	1011101000011101	0000000000010000	-	-	-	-	-	-	-	-	-	-	Terminate	
"Student26Mode1"	"Seema_Shokoufeh_Track2"	"Feb 16, 2017 09:59:04 AM"	Unknown	67.98470	01/16/0117 10:00.16	00004079	14.015	Inter746t1-0	0.409	1	2	0.000	11.111	-1.1	0.078	0.000	D	F	1539.1	359.364	0.195	0.006	1504.002	1369.560	0.027	-	-0.049	-0.104	-	-	-	-	-	-	-	PAVEMENT_GENERAL	Urban	F	1011101000011101	0000000000010000	-	-	-	-	-	-	-	-	-	-	Terminate	
"Student26Mode1"	"Seema_Shokoufeh_Track2"	"Feb 16, 2017 09:59:04 AM"	Unknown	68.98471	01/16/0117 10:00.17	00004139	13.914	Inter746t1-0	0.230	1	2	0.000	11.111	-0.9	0.078	0.000	D	F	1529.1	359.168	0.195	0.005	1503.823	1383.523	0.027	-	-0.043	-0.100	-	-	-	-	-	-	-	PAVEMENT_GENERAL	Urban	F	1011101000011101	0000000000010000	-	-	-	-	-	-	-	-	-	-	Terminate	
"Student26Mode1"	"Seema_Shokoufeh_Track2"	"Feb 16, 2017 09:59:04 AM"	Unknown	69.98473	01/16/0117 10:00.18	00004199	13.757	Inter746t1-0	0.059	1	2	0.000	11.111	-1.4	0.009	0.000	D	F	1353.4	359.580	0.180	-0.008	1503.652	1397.382	0.028	-	0.039	-0.444	-	-	-	-	-	-	-	PAVEMENT_GENERAL	Urban	F	1011101000011101	0000000000010000	-	-	-	-	-	-	-	-	-	-	Terminate	
"Student26Mode1"	"Seema_Shokoufeh_Track2"	"Feb 16, 2017 09:59:04 AM"	Unknown	70.98476	01/16/0117 10:00.19	00004259	13.260	Inter749t9-0	-0.076	1	2	0.000	11.111	-6.9	0.011	0.000	D	F	1303.3	359.048	0.192	0.041	1503.517	1410.888	0.029	L	-0.317	-0.480	-	-	-	-	-	-	-	PAVEMENT_GENERAL	Urban	F	1011101000111101	0000000000010000	-	-	-	-	-	-	-	-	-	-	Terminate	
"Student26Mode1"	"Seema_Shokoufeh_Track2"	"Feb 16, 2017 09:59:04 AM"	Unknown	71.98477	01/16/0117 10:00.20	00004319	12.752	Inter749t31-0	-0.157	1	1	355.793	11.111	-14.8	0.004	0.000	D	F	1252.5	356.416	0.190	0.103	1503.053	1423.886	0.029	L	-0.766	-0.512	-	-	-	-	-	-	-	PAVEMENT_GENERAL	Urban	F	1011101000111101	0000000000010000	-	-	-	-	-	-	-	-	-	-	Terminate	
"Student26Mode1"	"Seema_Shokoufeh_Track2"	"Feb 16, 2017 09:59:04 AM"	Unknown	72.98479	01/16/0117 10:00.21	00004379	12.179	Inter749t31-0	-0.397	1	1	354.668	11.111	-1.1	0.000	0.066	D	F	1185.5	354.515	0.181	0.013	1502.016	1436.325	0.029	L	-0.099	-1.180	-	-	-	-	-	-	-	PAVEMENT_GENERAL	Urban	F	1011101000111101	0000000000010000	-	-	-	-	-	-	-	-	-	-	Terminate	
"Student26Mode1"	"Seema_Shokoufeh_Track2"	"Feb 16, 2017 09:59:04 AM"	Unknown	73.98481	01/16/0117 10:00.22	00004439	9.747	Inter749t31-0	-0.283	1	1	356.413	11.111	18.8	0.000	0.251	D	F	926.6	355.662	0.146	-0.075	1501.011	1447.458	0.034	L	0.523	-3.319	-	-	-	-	-	-	-	PAVEMENT_GENERAL	Urban	F	1011101000111101	0000000000010000	-	-	-	-	-	-	-	-	-	-	Terminate	
"Student26Mode1"	"Seema_Shokoufeh_Track2"	"Feb 16, 2017 09:59:04 AM"	Unknown	74.98483	01/16/0117 10:00.23	00004499	5.660	Inter749t31-0	-0.094	1	1	356.903	11.111	16.8	0.000	0.239	D	F	538.4	358.337	0.143	-0.026	1500.643	1455.062	0.036	L	0.192	-3.581	-	-	-	-	-	-	-	PAVEMENT_GENERAL	Urban	F	1011101000111101	0000000000010000	-	-	-	-	-	-	-	-	-	-	Terminate	
"Student26Mode1"	"Seema_Shokoufeh_Track2"	"Feb 16, 2017 09:59:04 AM"	Unknown	75.98486	01/16/0117 10:00.24	00004559	4.751	Inter749t31-0	0.140	1	1	356.903	11.111	14.8	0.000	0.000	D	F	477.5	0.000	0.199	-0.014	1500.606	1460.081	0.028	L	0.112	-0.434	-	-	-	-	-	-	-	PAVEMENT_GENERAL	Urban	F	1011101000111101	0000000000010000	-	-	-	-	-	-	-	-	-	-	Terminate	
"Student26Mode1"	"Seema_Shokoufeh_Track2"	"Feb 16, 2017 09:59:04 AM"	Unknown	76.98487	01/16/0117 10:00.25	00004619	4.312	Inter749t31-0	0.447	1	1	356.903	11.111	1.6	0.000	0.000	D	F	505.6	0.844	0.198	0.000	1500.668	1464.616	0.028	L	-0.002	-0.480	-	-	-	-	-	-	-	PAVEMENT_GENERAL	Urban	F	1011101000111101	0000000000010000	-	-	-	-	-	-	-	-	-	-	Terminate	
"Student26Mode1"	"Seema_Shokoufeh_Track2"	"Feb 16, 2017 09:59:04 AM"	Unknown	77.98489	01/16/0117 10:00.26	00004679	3.838	Inter749t11-0	0.672	LT1	2	0.000	11.111	-0.6	0.000	0.000	D	F	581.1	0.928	0.199	0.002	1500.734	1468.688	0.028	L	-0.006	-0.459	-	-	-	-	-	-	-	PAVEMENT_GENERAL	Urban	F	1011101000111101	0000000000010000	-	-	-	-	-	-	-	-	-	-	Terminate	
"Student26Mode1"	"Seema_Shokoufeh_Track2"	"Feb 16, 2017 09:59:04 AM"	Unknown	78.98492	01/16/0117 10:00.27	00004739	1.600	Inter749t11-0	0.718	LT1	2	0.000	11.111	-0.4	0.000	0.113	D	F	477.5	0.898	0.202	-0.000	1500.780	1471.622	0.033	L	0.000	-1.763	-	-	-	-	-	-	-	PAVEMENT_GENERAL	Urban	F	1011101000111101	0000000000010000	-	-	-	-	-	-	-	-	-	-	Terminate	
"Student26Mode1"	"Seema_Shokoufeh_Track2"	"Feb 16, 2017 09:59:04 AM"	Unknown	79.98493	01/16/0117 10:00.28	00004799	1.200	Inter749t11-0	0.738	LT1	2	0.000	11.111	-0.0	0.000	0.000	D	F	477.5	0.890	0.204	-0.000	1500.801	1472.942	0.028	L	0.002	-0.189	-	-	-	-	-	-	-	PAVEMENT_GENERAL	Urban	F	1011101000111101	0000000000010000	-	-	-	-	-	-	-	-	-	-	Terminate	
"Student26Mode1"	"Seema_Shokoufeh_Track2"	"Feb 16, 2017 09:59:04 AM"	Unknown	80.98495	01/16/0117 10:00.29	00004859	1.039	Inter749t11-0	0.755	LT1	2	0.000	11.111	-1.7	0.000	0.000	D	F	477.5	0.867	0.202	0.000	1500.817	1474.057	0.027	L	-0.000	-0.135	-	-	-	-	-	-	-	PAVEMENT_GENERAL	Urban	F	1011101000111101	0000000000010000	-	-	-	-	-	-	-	-	-	-	Terminate	
"Student26Mode1"	"Seema_Shokoufeh_Track2"	"Feb 16, 2017 09:59:04 AM"	Unknown	81.98497	01/16/0117 10:00.30	00004919	0.822	Inter749t11-0	0.768	LT1	2	0.000	11.111	-1.6	0.000	0.203	D	F	477.5	0.832	0.163	0.000	1500.831	1475.032	0.027	L	0.001	-1.841	-	-	-	-	-	-	-	PAVEMENT_GENERAL	Urban	F	1011101000111101	0000000000010000	-	-	-	-	-	-	-	-	-	-	Terminate	
"Student26Mode1"	"Seema_Shokoufeh_Track2"	"Feb 16, 2017 09:59:04 AM"	Unknown	82.98499	01/16/0117 10:00.31	00004979	0.026	Inter749t11-0	0.771	LT1	2	0.000	11.111	-1.2	0.000	0.000	D	F	477.5	0.826	0.220	-0.000	1500.833	1475.223	0.028	L	-0.000	0.067	-	-	-	-	-	-	-	PAVEMENT_GENERAL	Urban	F	1011101000111101	0000000000010000	-	-	-	-	-	-	-	-	-	-	Terminate	
"Student26Mode1"	"Seema_Shokoufeh_Track2"	"Feb 16, 2017 09:59:04 AM"	Unknown	83.98502	01/16/0117 10:00.32	00005039	0.193	Inter749t11-0	0.772	LT1	2	0.000	11.111	-1.1	0.000	0.000	D	F	477.5	0.824	0.208	0.000	1500.834	1475.319	0.025	L	-0.000	0.219	-	-	-	-	-	-	-	PAVEMENT_GENERAL	Urban	F	1011101000111101	0000000000010000	-	-	-	-	-	-	-	-	-	-	Terminate	
"Student26Mode1"	"Seema_Shokoufeh_Track2"	"Feb 16, 2017 09:59:04 AM"	Unknown	84.98503	01/16/0117 10:00.33	00005099	0.376	Inter749t11-0	0.776	LT1	2	0.000	11.111	-1.2	0.000	0.000	D	F	477.5	0.816	0.204	0.000	1500.839	1475.611	0.026	L	-0.000	0.136	-	-	-	-	-	-	-	PAVEMENT_GENERAL	Urban	F	1011101000111101	0000000000010000	-	-	-	-	-	-	-	-	-	-	Terminate	
"Student26Mode1"	"Seema_Shokoufeh_Track2"	"Feb 16, 2017 09:59:04 AM"	Unknown	85.98505	01/16/0117 10:00.34	00005159	0.468	Inter749t11-0	0.782	LT1	2	0.000	11.111	-1.4	0.000	0.000	D	F	477.5	0.805	0.204	0.000	1500.844	1476.039	0.026	L	-0.000	0.060	-	-	-	-	-	-	-	PAVEMENT_GENERAL	Urban	F	1011101000111101	0000000000010000	-	-	-	-	-	-	-	-	-	-	Terminate	
"Student26Mode1"	"Seema_Shokoufeh_Track2"	"Feb 16, 2017 09:59:04 AM"	Unknown	86.98507	01/16/0117 10:00.35	00005219	0.508	Inter749t11-0	0.788	LT1	2	0.000	11.111	-1.6	0.000	0.000	D	F	477.5	0.790	0.204	0.000	1500.851	1476.530	0.026	L	-0.001	0.028	-	-	-	-	-	-	-	PAVEMENT_GENERAL	Urban	F	1011101000111101	0000000000010000	-	-	-	-	-	-	-	-	-	-	Terminate	
"Student26Mode1"	"Seema_Shokoufeh_Track2"	"Feb 16, 2017 09:59:04 AM"	Unknown	87.98509	01/16/0117 10:00.36	00005279	0.069	Inter749t11-0	0.793	LT1	2	0.000	11.111	-1.5	0.000	0.152	D	F	477.5	0.777	0.195	0.000	1500.855	1476.911	0.028	L	0.000	-0.431	-	-	-	-	-	-	-	PAVEMENT_GENERAL	Urban	F	1011101000111101	0000000000010000	-	-	-	-	-	-	-	-	-	-	Terminate	
"Student26Mode1"	"Seema_Shokoufeh_Track2"	"Feb 16, 2017 09:59:04 AM"	Unknown	88.98512	01/16/0117 10:00.37	00005339	0.000	Inter749t11-0	0.793	LT1	2	0.000	11.111	-1.5	0.000	0.113	D	F	477.5	0.777	0.211	0.000	1500.856	1476.923	0.028	L	0.000	-0.002	-	-	-	-	-	-	-	PAVEMENT_GENERAL	Urban	F	1011101000111101	0000000000010000	-	-	-	-	-	-	-	-	-	-	Terminate	
"Student26Mode1"	"Seema_Shokoufeh_Track2"	"Feb 16, 2017 09:59:04 AM"	Unknown	89.98513	01/16/0117 10:00.38	00005399	0.000	Inter749t11-0	0.793	LT1	2	0.000	11.111	-1.5	0.000	0.087	D	F	477.5	0.777	0.209	0.000	1500.856	1476.924	0.028	L	-0.000	-0.000	-	-	-	-	-	-	-	PAVEMENT_GENERAL	Urban	F	1011101000111101	0000000000010000	-	-	-	-	-	-	-	-	-	-	Terminate	
"Student26Mode1"	"Seema_Shokoufeh_Track2"	"Feb 16, 2017 09:59:04 AM"	Unknown	90.98515	01/16/0117 10:00.39	00005459	0.000	Inter749t11-0	0.793	LT1	2	0.000	11.111	-1.5	0.000	0.081	D	F	477.5	0.777	0.209	-0.000	1500.856	1476.924	0.028	L	0.000	-0.000	-	-	-	-	-	-	-	PAVEMENT_GENERAL	Urban	F	1011101000111101	0000000000010000	-	-	-	-	-	-	-	-	-	-	Terminate	
"Student26Mode1"	"Seema_Shokoufeh_Track2"	"Feb 16, 2017 09:59:04 AM"	Unknown	91.98518	01/16/0117 10:00.40	00005519	0.000	Inter749t11-0	0.793	LT1	2	0.000	11.111	-1.4	0.000	0.075	D	F	477.5	0.777	0.209	-0.000	1500.856	1476.924	0.028	L	0.000	0.000	-	-	-	-	-	-	-	PAVEMENT_GENERAL	Urban	F	1011101000111101	0000000000010000	-	-	-	-	-	-	-	-	-	-	Terminate	
"Student26Mode1"	"Seema_Shokoufeh_Track2"	"Feb 16, 2017 09:59:04 AM"	Unknown	92.98519	01/16/0117 10:00.41	00005579	0.000	Inter749t11-0	0.793	LT1	2	0.000	11.111	-1.4	0.000	0.066	D	F	477.5	0.777	0.208	-0.000	1500.856	1476.924	0.028	L	-0.000	0.000	-	-	-	-	-	-	-	PAVEMENT_GENERAL	Urban	F	1011101000111101	0000000000010000	-	-	-	-	-	-	-	-	-	-	Terminate	
"Student26Mode1"	"Seema_Shokoufeh_Track2"	"Feb 16, 2017 09:59:04 AM"	Unknown	93.98521	01/16/0117 10:00.42	00005639	0.003	Inter749t11-0	0.793	LT1	2	0.000	11.111	-1.4	0.000	0.000	D	F	477.5	0.777	0.208	0.000	1500.856	1476.924	0.027	L	-0.000	0.013	-	-	-	-	-	-	-	PAVEMENT_GENERAL	Urban	F	1011101000111101	0000000000010000	-	-	-	-	-	-	-	-	-	-	Terminate	
"Student26Mode1"	"Seema_Shokoufeh_Track2"	"Feb 16, 2017 09:59:04 AM"	Unknown	94.98523	01/16/0117 10:00.43	00005699	0.015	Inter749t11-0	0.793	LT1	2	0.000	11.111	-1.3	0.000	0.000	D	F	477.5	0.776	0.196	-0.000	1500.856	1476.933	0.024	L	-0.000	0.030	-	-	-	-	-	-	-	PAVEMENT_GENERAL	Urban	F	1011101000111101	0000000000010000	-	-	-	-	-	-	-	-	-	-	Terminate	
"Student26Mode1"	"Seema_Shokoufeh_Track2"	"Feb 16, 2017 09:59:04 AM"	Unknown	95.98525	01/16/0117 10:00.44	00005759	0.147	Inter749t11-0	0.794	LT1	2	0.000	11.111	-1.3	0.000	0.000	D	F	477.5	0.774	0.206	0.000	1500.857	1476.998	0.025	L	-0.000	0.212	-	-	-	-	-	-	-	PAVEMENT_GENERAL	Urban	F	1011101000111101	0000000000010000	-	-	-	-	-	-	-	-	-	-	Terminate	
"Student26Mode1"	"Seema_Shokoufeh_Track2"	"Feb 16, 2017 09:59:04 AM"	Unknown	96.98528	01/16/0117 10:00.45	00005819	0.345	Inter749t11-0	0.797	LT1	2	0.000	11.111	-1.2	0.000	0.000	D	F	477.5	0.767	0.205	0.000	1500.860	1477.250	0.025	L	-0.000	0.158	-	-	-	-	-	-	-	PAVEMENT_GENERAL	Urban	F	1011101000111101	0000000000010000	-	-	-	-	-	-	-	-	-	-	Terminate	
"Student26Mode1"	"Seema_Shokoufeh_Track2"	"Feb 16, 2017 09:59:04 AM"	Unknown	97.98529	01/16/0117 10:00.46	00005879	0.455	Inter749t11-0	0.802	LT1	2	0.000	11.111	-1.4	0.000	0.000	D	F	477.5	0.756	0.204	0.000	1500.865	1477.657	0.026	L	-0.000	0.072	-	-	-	-	-	-	-	PAVEMENT_GENERAL	Urban	F	1011101000111101	0000000000010000	-	-	-	-	-	-	-	-	-	-	Terminate	
"Student26Mode1"	"Seema_Shokoufeh_Track2"	"Feb 16, 2017 09:59:04 AM"	Unknown	98.98531	01/16/0117 10:00.47	00005939	0.025	Inter749t11-0	0.805	LT1	2	0.000	11.111	-1.2	0.000	0.101	D	F	477.5	0.751	0.208	-0.000	1500.867	1477.847	0.027	L	0.000	-0.084	-	-	-	-	-	-	-	PAVEMENT_GENERAL	Urban	F	1011101000111101	0000000000010000	-	-	-	-	-	-	-	-	-	-	Terminate	
"Student26Mode1"	"Seema_Shokoufeh_Track2"	"Feb 16, 2017 09:59:04 AM"	Unknown	99.98534	01/16/0117 10:00.48	00005999	0.002	Inter749t11-0	0.805	LT1	2	0.000	11.111	-1.2	0.000	0.090	D	F	477.5	0.750	0.207	0.000	1500.867	1477.855	0.027	L	0.000	-0.005	-	-	-	-	-	-	-	PAVEMENT_GENERAL	Urban	F	1011101000111101	0000000000010000	-	-	-	-	-	-	-	-	-	-	Terminate	
"Student26Mode1"	"Seema_Shokoufeh_Track2"	"Feb 16, 2017 09:59:04 AM"	Unknown	100.98535	01/16/0117 10:00.49	00006059	0.001	Inter749t11-0	0.805	LT1	2	0.000	11.111	-1.2	0.000	0.063	D	F	477.5	0.750	0.207	0.000	1500.867	1477.856	0.027	L	-0.000	0.000	-	-	-	-	-	-	-	PAVEMENT_GENERAL	Urban	F	1011101000111101	0000000000010000	-	-	-	-	-	-	-	-	-	-	Terminate	
"Student26Mode1"	"Seema_Shokoufeh_Track2"	"Feb 16, 2017 09:59:04 AM"	Unknown	101.98537	01/16/0117 10:00.50	00006119	0.010	Inter749t11-0	0.805	LT1	2	0.000	11.111	-2.3	0.000	0.000	D	F	477.5	0.750	0.199	-0.000	1500.867	1477.861	0.025	L	0.000	0.008	-	-	-	-	-	-	-	PAVEMENT_GENERAL	Urban	F	1011101000111101	0000000000010000	-	-	-	-	-	-	-	-	-	-	Terminate	
"Student26Mode1"	"Seema_Shokoufeh_Track2"	"Feb 16, 2017 09:59:04 AM"	Unknown	102.98539	01/16/0117 10:00.51	00006179	0.088	Inter749t11-0	0.805	LT1	2	0.000	11.111	0.9	0.016	0.000	D	F	498.3	0.750	0.205	0.000	1500.868	1477.894	0.025	L	0.000	0.185	-	-	-	-	-	-	-	PAVEMENT_GENERAL	Urban	F	1011101000111101	0000000000010000	-	-	-	-	-	-	-	-	-	-	Terminate	
"Student26Mode1"	"Seema_Shokoufeh_Track2"	"Feb 16, 2017 09:59:04 AM"	Unknown	103.98541	01/16/0117 10:00.52	00006239	0.474	Inter749t11-0	0.809	LT1	2	0.000	11.111	1.6	0.028	0.000	D	F	653.6	0.757	0.208	-0.000	1500.871	1478.155	0.024	L	0.001	0.437	-	-	-	-	-	-	-	PAVEMENT_GENERAL	Urban	F	1011101000111101	0000000000010000	-	-	-	-	-	-	-	-	-	-	Terminate	
"Student26Mode1"	"Seema_Shokoufeh_Track2"	"Feb 16, 2017 09:59:04 AM"	Unknown	104.98544	01/16/0117 10:00.53	00006299	0.919	Inter749t11-0	0.819	LT1	2	0.000	11.111	1.8	0.026	0.000	D	F	693.8	0.783	0.208	-0.000	1500.882	1478.860	0.024	L	0.001	0.428	-	-	-	-	-	-	-	PAVEMENT_GENERAL	Urban	F	1011101000111101	0000000000010000	-	-	-	-	-	-	-	-	-	-	Terminate	
"Student26Mode1"	"Seema_Shokoufeh_Track2"	"Feb 16, 2017 09:59:04 AM"	Unknown	105.98545	01/16/0117 10:00.54	00006359	1.315	Inter749t11-0	0.836	LT1	2	0.000	11.111	0.6	0.025	0.000	D	F	679.0	0.816	0.203	0.001	1500.898	1479.994	0.024	L	-0.003	0.236	-	-	-	-	-	-	-	PAVEMENT_GENERAL	Urban	F	1011101000111101	0000000000010000	-	-	-	-	-	-	-	-	-	-	Terminate	
"Student26Mode1"	"Seema_Shokoufeh_Track2"	"Feb 16, 2017 09:59:04 AM"	Unknown	106.98547	01/16/0117 10:00.55	00006419	1.630	Inter749t11-0	0.854	LT1	2	0.000	11.111	-10.1	0.028	0.000	D	F	770.8	0.724	0.208	0.005	1500.916	1481.461	0.025	L	-0.029	0.344	-	-	-	-	-	-	-	PAVEMENT_GENERAL	Urban	F	1011101000111101	0000000000010000	-	-	-	-	-	-	-	-	-	-	Terminate	
"Student26Mode1"	"Seema_Shokoufeh_Track2"	"Feb 16, 2017 09:59:04 AM"	Unknown	107.98550	01/16/0117 10:00.56	00006479	1.972	Inter749t65-0	0.919	1	1	353.759	11.111	-24.0	0.035	0.000	D	F	852.2	0.064	0.208	0.008	1500.912	1483.253	0.024	L	-0.058	0.399	-	-	-	-	-	-	-	PAVEMENT_GENERAL	Urban	F	1011101000111101	0000000000010000	-	-	-	-	-	-	-	-	-	-	Terminate	
"Student26Mode1"	"Seema_Shokoufeh_Track2"	"Feb 16, 2017 09:59:04 AM"	Unknown	108.98551	01/16/0117 10:00.57	00006539	2.529	Inter749t65-0	1.177	1	1	347.498	11.111	-47.9	0.056	0.000	D	F	1065.3	358.546	0.209	0.026	1500.847	1485.467	0.023	L	-0.189	0.763	-	-	-	-	-	-	-	PAVEMENT_GENERAL	Urban	F	1011101000111101	0000000000010000	-	-	-	-	-	-	-	-	-	-	Terminate	
"Student26Mode1"	"Seema_Shokoufeh_Track2"	"Feb 16, 2017 09:59:04 AM"	Unknown	109.98553	01/16/0117 10:00.58	00006599	3.434	Inter749t65-0	1.672	1	1	340.571	11.111	-91.2	0.071	0.000	D	F	1258.9	354.274	0.207	0.065	1500.561	1488.425	0.022	L	-0.490	0.905	-	-	-	-	-	-	-	PAVEMENT_GENERAL	Urban	F	1011101000111101	0000000000010000	-	-	-	-	-	-	-	-	-	-	Terminate	
"Student26Mode1"	"Seema_Shokoufeh_Track2"	"Feb 16, 2017 09:59:04 AM"	Unknown	110.98555	01/16/0117 10:00.59	00006659	4.232	-Inter749t61-0	0.655	-1	1	89.733	11.111	-132.4	0.074	0.000	D	F	1378.8	344.768	0.205	0.112	1499.647	1492.160	0.023	L	-0.858	0.672	-	-	-	-	-	-	-	PAVEMENT_GENERAL	Urban	F	1011101000111101	0000000000010000	-	-	-	-	-	-	-	-	-	-	Terminate	
"Student26Mode1"	"Seema_Shokoufeh_Track2"	"Feb 16, 2017 09:59:04 AM"	Unknown	111.98557	01/16/0117 10:01.00	00006719	4.926	-Inter749t59-0	0.102	-1	1	89.733	11.111	-133.3	0.078	0.000	D	F	1355.2	332.446	0.207	0.155	1497.701	1496.303	0.023	L	-1.176	0.671	-	-	-	-	-	-	-	PAVEMENT_GENERAL	Urban	F	1011101000111101	0000000000010000	-	-	-	-	-	-	-	-	-	-	Terminate	
"Student26Mode1"	"Seema_Shokoufeh_Track2"	"Feb 16, 2017 09:59:04 AM"	Unknown	112.98560	01/16/0117 10:01.01	00006779	5.294	-Inter749t85-0	-1.655	-1	1	179.883	11.111	-153.0	0.046	0.000	D	F	1075.4	317.719	0.190	0.204	1494.479	1500.349	0.026	L	-1.557	0.003	-	-	-	Ambient279	3.406	18.033	-	PAVEMENT_GENERAL	Urban	F	1011101000111101	0000000000010000	-	-	-	-	-	-	-	-	-	-	Terminate	
"Student26Mode1"	"Seema_Shokoufeh_Track2"	"Feb 16, 2017 09:59:04 AM"	Unknown	113.98561	01/16/0117 10:01.02	00006839	5.287	Inter749t75-0	-0.304	1	1	269.734	11.111	-212.9	0.051	0.000	D	F	1101.4	298.020	0.183	0.302	1490.085	1503.266	0.027	L	-2.173	-0.096	-	-	-	-	-	-	-	PAVEMENT_GENERAL	Urban	F	1011101000111101	0000000000010000	-	-	-	-	-	-	-	-	-	-	Terminate	
"Student26Mode1"	"Seema_Shokoufeh_Track2"	"Feb 16, 2017 09:59:04 AM"	Unknown	114.98563	01/16/0117 10:01.03	00006899	5.470	Inter749t65-0	1.290	1	1	282.589	11.111	-125.4	0.053	0.000	D	F	1125.3	277.802	0.195	0.143	1484.834	1504.403	0.026	L	-1.129	0.112	-	-	-	Ambient313	9.614	52.589	-	PAVEMENT_GENERAL	Urban	F	1011101000111101	0000000000010000	-	-	-	-	-	-	-	-	-	-	Terminate	
"Student26Mode1"	"Seema_Shokoufeh_Track2"	"Feb 16, 2017 09:59:04 AM"	Unknown	115.98566	01/16/0117 10:01.04	00006959	5.703	Inter749t3-3	0.894	1	2	270.000	11.111	-6.3	0.063	0.000	D	F	1201.1	268.978	0.207	-0.014	1479.257	1504.425	0.025	-	0.081	0.300	-	-	-	-	-	-	-	PAVEMENT_GENERAL	Urban	F	1011101000011101	0000000000010000	-	-	-	-	-	-	-	-	-	-	Terminate	
"Student26Mode1"	"Seema_Shokoufeh_Track2"	"Feb 16, 2017 09:59:04 AM"	Unknown	116.98567	01/16/0117 10:01.05	00007019	5.945	Inter749t3-3	0.975	1	2	270.000	11.111	26.9	0.048	0.000	D	F	1143.4	272.190	0.203	-0.031	1473.425	1504.506	0.025	-	0.222	0.178	-	-	-	Ambient313	11.035	65.605	-	PAVEMENT_GENERAL	Urban	F	1011101000011101	0000000000010000	-	-	-	-	-	-	-	-	-	-	Terminate	
"Student26Mode1"	"Seema_Shokoufeh_Track2"	"Feb 16, 2017 09:59:04 AM"	Unknown	117.98569	01/16/0117 10:01.06	00007079	5.913	Inter749t3-3	1.163	1	2	270.000	11.111	-47.0	0.042	0.000	D	F	1093.5	270.575	0.202	0.086	1467.491	1504.694	0.026	-	-0.619	-0.012	-	-	-	Ambient313	12.143	71.799	-	PAVEMENT_GENERAL	Urban	F	1011101000011101	0000000000010000	-	-	-	-	-	-	-	-	-	-	Terminate	
"Student26Mode1"	"Seema_Shokoufeh_Track2"	"Feb 16, 2017 09:59:04 AM"	Unknown	118.98571	01/16/0117 10:01.07	00007139	5.964	Inter749t19-0	0.879	1	1	270.079	11.111	-2.9	0.041	0.000	D	F	1086.6	266.629	0.201	-0.012	1461.565	1504.416	0.026	-	0.033	0.004	-	-	-	-	-	-	-	PAVEMENT_GENERAL	Urban	F	1011101000011101	0000000000010000	-	-	-	-	-	-	-	-	-	-	Terminate	
"Student26Mode1"	"Seema_Shokoufeh_Track2"	"Feb 16, 2017 09:59:04 AM"	Unknown	119.98573	01/16/0117 10:01.08	00007199	5.823	Inter749t19-0	0.590	1	1	270.097	11.111	23.3	0.021	0.000	D	F	965.9	267.977	0.199	-0.039	1455.659	1504.133	0.027	-	0.272	-0.228	-	-	-	-	-	-	-	PAVEMENT_GENERAL	Urban	F	1011101000011101	0000000000010000	-	-	-	-	-	-	-	-	-	-	Terminate	
"Student26Mode1"	"Seema_Shokoufeh_Track2"	"Feb 16, 2017 09:59:04 AM"	Unknown	120.98576	01/16/0117 10:01.09	00007259	5.534	Inter749t19-0	0.490	1	1	270.112	11.111	2.4	0.019	0.000	D	F	925.9	269.175	0.201	0.002	1449.979	1504.040	0.028	-	0.014	-0.261	-	-	-	-	-	-	-	PAVEMENT_GENERAL	Urban	F	1011101000011101	0000000000010000	-	-	-	-	-	-	-	-	-	-	Terminate	
"Student26Mode1"	"Seema_Shokoufeh_Track2"	"Feb 16, 2017 09:59:04 AM"	Unknown	121.98577	01/16/0117 10:01.10	00007319	5.388	Inter749t19-0	0.414	1	1	270.095	11.111	-1.1	0.023	0.000	D	F	930.9	269.301	0.200	0.003	1444.534	1503.974	0.027	-	-0.016	-0.158	-	-	-	-	-	-	-	PAVEMENT_GENERAL	Urban	F	1011101000011101	0000000000010000	-	-	-	-	-	-	-	-	-	-	Terminate	
"Student26Mode1"	"Seema_Shokoufeh_Track2"	"Feb 16, 2017 09:59:04 AM"	Unknown	122.98579	01/16/0117 10:01.11	00007379	5.129	Inter749t19-0	0.330	1	1	270.078	11.111	-1.7	0.021	0.000	D	F	880.6	269.159	0.201	0.002	1439.275	1503.901	0.027	-	-0.019	-0.240	-	-	-	-	-	-	-	PAVEMENT_GENERAL	Urban	F	1011101000011101	0000000000010000	-	-	-	-	-	-	-	-	-	-	Terminate	
"Student26Mode1"	"Seema_Shokoufeh_Track2"	"Feb 16, 2017 09:59:04 AM"	Unknown	123.98581	01/16/0117 10:01.12	00007439	5.009	Inter749t19-0	0.234	1	1	270.063	11.111	2.3	0.069	0.000	D	F	1173.7	268.987	0.214	-0.008	1434.243	1503.815	0.026	-	0.051	0.329	-	-	-	-	-	-	-	PAVEMENT_GENERAL	Urban	F	1011101000011101	0000000000010000	-	-	-	-	-	-	-	-	-	-	Terminate	
"Student26Mode1"	"Seema_Shokoufeh_Track2"	"Feb 16, 2017 09:59:04 AM"	Unknown	124.98583	01/16/0117 10:01.13	00007499	5.605	Inter749t19-0	0.192	1	1	270.061	11.111	9.3	0.099	0.000	D	F	1361.2	269.913	0.209	-0.012	1428.973	1503.780	0.023	-	0.096	0.772	-	-	-	-	-	-	-	PAVEMENT_GENERAL	Urban	F	1011101000011101	0000000000010000	-	-	-	-	-	-	-	-	-	-	Terminate	
"Student26Mode1"	"Seema_Shokoufeh_Track2"	"Feb 16, 2017 09:59:04 AM"	Unknown	125.98586	01/16/0117 10:01.14	00007559	6.173	Inter749t19-0	0.238	1	1	270.061	11.111	4.2	0.074	0.000	D	F	1281.4	270.659	0.211	-0.005	1423.052	1503.831	0.024	-	0.051	0.432	-	-	-	-	-	-	-	PAVEMENT_GENERAL	Urban	F	1011101000011101	0000000000010000	-	-	-	-	-	-	-	-	-	-	Terminate	
"Student26Mode1"	"Seema_Shokoufeh_Track2"	"Feb 16, 2017 09:59:04 AM"	Unknown	126.98587	01/16/0117 10:01.15	00007619	6.516	Inter749t1-2	0.343	1	2	270.000	11.111	1.3	0.072	0.000	D	F	1282.7	271.110	0.205	-0.001	1416.708	1503.943	0.025	-	0.014	0.302	-	-	-	-	-	-	-	PAVEMENT_GENERAL	Urban	F	1011101000011101	0000000000010000	-	-	-	-	-	-	-	-	-	-	Terminate	
"Student26Mode1"	"Seema_Shokoufeh_Track2"	"Feb 16, 2017 09:59:04 AM"	Unknown	127.98589	01/16/0117 10:01.16	00007679	6.804	Inter749t1-2	0.483	1	2	270.000	11.111	0.5	0.065	0.000	D	F	1294.9	271.242	0.204	-0.001	1410.046	1504.083	0.025	-	0.009	0.250	-	-	-	-	-	-	-	PAVEMENT_GENERAL	Urban	F	1011101000011101	0000000000010000	-	-	-	-	-	-	-	-	-	-	Terminate	
"Student26Mode1"	"Seema_Shokoufeh_Track2"	"Feb 16, 2017 09:59:04 AM"	Unknown	128.98592	01/16/0117 10:01.17	00007739	7.015	Inter749t1-2	0.623	1	2	270.000	11.111	-3.8	0.063	0.000	D	F	1277.6	271.059	0.203	0.006	1403.131	1504.223	0.025	-	-0.063	0.156	-	-	-	-	-	-	-	PAVEMENT_GENERAL	Urban	F	1011101000011101	0000000000010000	-	-	-	-	-	-	-	-	-	-	Terminate	
"Student26Mode1"	"Seema_Shokoufeh_Track2"	"Feb 16, 2017 09:59:04 AM"	Unknown	129.98593	01/16/0117 10:01.18	00007799	7.150	Inter747t1-2	0.700	1	2	270.000	11.111	-3.6	0.062	0.000	D	F	1285.5	270.416	0.204	0.001	1396.047	1504.306	0.026	-	-0.045	0.127	-	-	-	-	-	-	-	PAVEMENT_GENERAL	Urban	F	1011101000011101	0000000000010000	-	-	-	-	-	-	-	-	-	-	Terminate	
"Student26Mode1"	"Seema_Shokoufeh_Track2"	"Feb 16, 2017 09:59:04 AM"	Unknown	130.98595	01/16/0117 10:01.19	00007859	7.290	Inter747t1-2	0.705	1	2	270.000	11.111	-4.8	0.065	0.000	D	F	1310.7	269.841	0.203	0.011	1388.827	1504.312	0.026	-	-0.085	0.141	-	-	-	-	-	-	-	PAVEMENT_GENERAL	Urban	F	1011101000011101	0000000000010000	-	-	-	-	-	-	-	-	-	-	Terminate	
"Student26Mode1"	"Seema_Shokoufeh_Track2"	"Feb 16, 2017 09:59:04 AM"	Unknown	131.98598	01/16/0117 10:01.20	00007919	7.403	Inter747t1-2	0.671	1	2	270.000	11.111	7.8	0.062	0.000	D	F	1314.6	269.951	0.203	-0.021	1381.477	1504.278	0.026	-	0.139	0.106	-	-	-	-	-	-	-	PAVEMENT_GENERAL	Urban	F	1011101000011101	0000000000010000	-	-	-	-	-	-	-	-	-	-	Terminate	
"Student26Mode1"	"Seema_Shokoufeh_Track2"	"Feb 16, 2017 09:59:04 AM"	Unknown	132.98599	01/16/0117 10:01.21	00007979	7.787	Inter747t1-2	0.727	1	2	270.000	11.111	0.4	0.109	0.000	D	F	1514.4	270.569	0.206	0.001	1373.929	1504.334	0.024	-	0.006	0.555	-	-	-	-	-	-	-	PAVEMENT_GENERAL	Urban	F	1011101000011101	0000000000010000	-	-	-	-	-	-	-	-	-	-	Terminate	
"Student26Mode1"	"Seema_Shokoufeh_Track2"	"Feb 16, 2017 09:59:04 AM"	Unknown	133.98601	01/16/0117 10:01.22	00008039	8.144	Inter747t1-2	0.801	1	2	270.000	11.111	-0.4	0.088	0.000	D	F	1469.1	270.487	0.204	0.000	1365.938	1504.408	0.025	-	-0.009	0.281	-	-	-	-	-	-	-	PAVEMENT_GENERAL	Urban	F	1111101000011101	0000000000010000	-	-	-	-	-	-	-	-	-	-	Terminate	
"Student26Mode1"	"Seema_Shokoufeh_Track2"	"Feb 16, 2017 09:59:04 AM"	Unknown	134.98604	01/16/0117 10:01.23	00008099	8.429	Inter747t1-2	0.868	1	2	270.000	11.111	-0.5	0.090	0.000	D	F	1310.7	270.446	0.204	0.001	1357.649	1504.475	0.025	-	-0.010	0.273	-	-	-	-	-	-	-	PAVEMENT_GENERAL	Urban	F	1011101000011101	0000000000010000	-	-	-	-	-	-	-	-	-	-	Terminate	
"Student26Mode1"	"Seema_Shokoufeh_Track2"	"Feb 16, 2017 09:59:04 AM"	Unknown	135.98605	01/16/0117 10:01.24	00008159	8.741	Inter747t1-2	0.921	1	2	270.000	11.111	-2.1	0.102	0.000	D	F	1377.8	270.257	0.201	0.006	1349.080	1504.528	0.024	-	-0.048	0.353	-	-	-	-	-	-	-	PAVEMENT_GENERAL	Urban	F	1011101000011101	0000000000010000	-	-	-	-	-	-	-	-	-	-	Terminate	
"Student26Mode1"	"Seema_Shokoufeh_Track2"	"Feb 16, 2017 09:59:04 AM"	Unknown	136.98607	01/16/0117 10:01.25	00008219	9.074	Inter747t1-2	0.931	1	2	270.000	11.111	-1.8	0.102	0.000	D	F	1369.8	269.934	0.204	0.006	1340.167	1504.538	0.025	-	-0.046	0.308	-	-	-	-	-	-	-	PAVEMENT_GENERAL	Urban	F	1011101000011101	0000000000010000	-	-	-	-	-	-	-	-	-	-	Terminate	
"Student26Mode1"	"Seema_Shokoufeh_Track2"	"Feb 16, 2017 09:59:04 AM"	Unknown	137.98610	01/16/0117 10:01.26	00008279	9.347	Inter747t1-2	0.901	1	2	270.000	11.111	3.8	0.092	0.000	D	F	1344.9	269.825	0.203	-0.014	1330.948	1504.508	0.025	-	0.090	0.223	-	-	-	-	-	-	-	PAVEMENT_GENERAL	Urban	F	1011101000011101	0000000000010000	-	-	-	-	-	-	-	-	-	-	Terminate	
"Student26Mode1"	"Seema_Shokoufeh_Track2"	"Feb 16, 2017 09:59:04 AM"	Unknown	138.98611	01/16/0117 10:01.27	00008339	9.562	Inter747t1-2	0.951	1	2	270.000	11.111	4.9	0.093	0.000	D	F	1348.8	270.659	0.203	-0.019	1321.491	1504.557	0.025	-	0.134	0.197	-	-	-	-	-	-	-	PAVEMENT_GENERAL	Urban	F	1011101000011101	0000000000010000	-	-	-	-	-	-	-	-	-	-	Terminate	
"Student26Mode1"	"Seema_Shokoufeh_Track2"	"Feb 16, 2017 09:59:04 AM"	Unknown	139.98613	01/16/0117 10:01.28	00008399	9.746	Inter747t1-2	1.079	1	2	270.000	11.111	-5.1	0.090	0.000	D	F	1342.2	270.554	0.202	0.018	1311.834	1504.685	0.026	-	-0.137	0.163	-	-	-	Ambient313	18.806	183.291	-	PAVEMENT_GENERAL	Urban	F	1011101000011101	0000000000010000	-	-	-	-	-	-	-	-	-	-	Terminate	
"Student26Mode1"	"Seema_Shokoufeh_Track2"	"Feb 16, 2017 09:59:04 AM"	Unknown	140.98616	01/16/0117 10:01.29	00008459	9.887	Inter747t1-2	1.080	1	2	270.000	11.111	-6.5	0.085	0.000	D	F	1329.3	269.570	0.201	0.025	1302.013	1504.686	0.026	-	-0.185	0.118	-	-	-	Ambient313	18.772	185.601	-	PAVEMENT_GENERAL	Urban	F	1011101000011101	0000000000010000	-	-	-	-	-	-	-	-	-	-	Terminate	
"Student26Mode1"	"Seema_Shokoufeh_Track2"	"Feb 16, 2017 09:59:04 AM"	Unknown	141.98618	01/16/0117 10:01.30	00008519	9.985	Inter747t1-2	0.903	1	2	270.000	11.111	-5.7	0.081	0.000	D	F	1313.1	268.564	0.200	0.021	1292.075	1504.510	0.026	-	-0.165	0.074	-	-	-	-	-	-	-	PAVEMENT_GENERAL	Urban	F	1011101000011101	0000000000010000	-	-	-	-	-	-	-	-	-	-	Terminate	
"Student26Mode1"	"Seema_Shokoufeh_Track2"	"Feb 16, 2017 09:59:04 AM"	Unknown	142.98619	01/16/0117 10:01.31	00008579	10.052	Inter747t1-2	0.566	1	2	270.000	11.111	-1.9	0.076	0.000	D	F	1307.9	267.713	0.201	0.014	1282.062	1504.172	0.026	-	-0.086	0.065	-	-	-	-	-	-	-	PAVEMENT_GENERAL	Urban	F	1011101000011101	0000000000010000	-	-	-	-	-	-	-	-	-	-	Terminate	
"Student26Mode1"	"Seema_Shokoufeh_Track2"	"Feb 16, 2017 09:59:04 AM"	Unknown	143.98621	01/16/0117 10:01.32	00008639	10.030	Inter747t1-2	0.313	1	2	270.000	11.111	16.0	0.065	0.000	D	F	1252.3	269.742	0.199	-0.065	1272.014	1503.920	0.027	-	0.499	-0.040	-	-	-	-	-	-	-	PAVEMENT_GENERAL	Urban	F	1011101000011101	0000000000010000	-	-	-	-	-	-	-	-	-	-	Terminate	
"Student26Mode1"	"Seema_Shokoufeh_Track2"	"Feb 16, 2017 09:59:04 AM"	Unknown	144.98624	01/16/0117 10:01.33	00008699	10.035	Inter747t1-2	0.468	1	2	270.000	11.111	2.6	0.071	0.000	D	F	1287.4	271.426	0.201	-0.007	1261.988	1504.075	0.026	-	0.093	0.030	-	-	-	-	-	-	-	PAVEMENT_GENERAL	Urban	F	1011101000011101	0000000000010000	-	-	-	-	-	-	-	-	-	-	Terminate	
"Student26Mode1"	"Seema_Shokoufeh_Track2"	"Feb 16, 2017 09:59:04 AM"	Unknown	145.98625	01/16/0117 10:01.34	00008759	10.143	Inter747t1-2	0.735	1	2	270.000	11.111	-1.3	0.116	0.000	D	F	1445.8	271.500	0.204	0.007	1251.928	1504.341	0.025	-	-0.034	0.295	-	-	-	-	-	-	-	PAVEMENT_GENERAL	Urban	F	1011101000011101	0000000000010000	-	-	-	-	-	-	-	-	-	-	Terminate	
"Student26Mode1"	"Seema_Shokoufeh_Track2"	"Feb 16, 2017 09:59:04 AM"	Unknown	146.98627	01/16/0117 10:01.35	00008819	10.568	Inter747t1-2	0.970	1	2	270.000	11.111	-2.0	0.127	0.000	D	F	1503.1	271.088	0.202	0.006	1241.574	1504.577	0.025	-	-0.070	0.375	-	-	-	-	-	-	-	PAVEMENT_GENERAL	Urban	F	1011101000011101	0000000000010000	-	-	-	-	-	-	-	-	-	-	Terminate	
"Student26Mode1"	"Seema_Shokoufeh_Track2"	"Feb 16, 2017 09:59:04 AM"	Unknown	147.98630	01/16/0117 10:01.36	00008879	10.910	Inter747t1-2	1.129	1	2	270.000	11.111	-2.7	0.127	0.000	D	F	1508.0	270.637	0.203	0.011	1230.832	1504.735	0.025	-	-0.089	0.333	-	-	-	Ambient313	18.280	199.439	-	PAVEMENT_GENERAL	Urban	F	1011101000011101	0000000000010000	-	-	-	-	-	-	-	-	-	-	Terminate	
"Student26Mode1"	"Seema_Shokoufeh_Track2"	"Feb 16, 2017 09:59:04 AM"	Unknown	148.98631	01/16/0117 10:01.37	00008939	11.218	Inter747t1-2	1.200	1	2	270.000	11.111	-2.9	0.122	0.000	D	F	1511.8	270.145	0.202	0.013	1219.766	1504.807	0.025	-	-0.098	0.289	-	-	-	Ambient313	17.874	200.506	-	PAVEMENT_GENERAL	Urban	F	1011101000011101	0000000000010000	-	-	-	-	-	-	-	-	-	-	Terminate	
"Student26Mode1"	"Seema_Shokoufeh_Track2"	"Feb 16, 2017 09:59:04 AM"	Unknown	149.98633	01/16/0117 10:01.38	00008999	11.493	Inter747t1-2	1.178	1	2	270.000	11.111	-2.3	0.122	0.000	D	F	1523.7	269.689	0.201	0.012	1208.409	1504.785	0.025	-	-0.082	0.268	-	-	-	Ambient313	17.514	201.283	-	PAVEMENT_GENERAL	Urban	F	1011101000011101	0000000000010000	-	-	-	-	-	-	-	-	-	-	Terminate	
"Student26Mode1"	"Seema_Shokoufeh_Track2"	"Feb 16, 2017 09:59:04 AM"	Unknown	150.98636	01/16/0117 10:01.39	00009059	11.733	Inter748t1-2	1.071	1	2	270.000	11.111	-1.8	0.111	0.000	D	F	1506.1	269.286	0.200	0.009	1196.791	1504.677	0.025	-	-0.071	0.196	-	-	-	-	-	-	-	PAVEMENT_GENERAL	Urban	F	1011101000011101	0000000000010000	-	-	-	-	-	-	-	-	-	-	Terminate	
"Student26Mode1"	"Seema_Shokoufeh_Track2"	"Feb 16, 2017 09:59:04 AM"	Unknown	151.98637	01/16/0117 10:01.40	00009119	11.933	Inter748t1-2	0.905	1	2	270.000	11.111	1.8	0.101	0.000	D	F	1486.6	269.239	0.200	-0.008	1184.957	1504.512	0.026	-	0.063	0.168	-	-	-	-	-	-	-	PAVEMENT_GENERAL	Urban	F	1011101000011101	0000000000010000	-	-	-	-	-	-	-	-	-	-	Terminate	
"Student26Mode1"	"Seema_Shokoufeh_Track2"	"Feb 16, 2017 09:59:04 AM"	Unknown	152.98639	01/16/0117 10:01.41	00009179	12.070	Inter748t1-2	0.783	1	2	270.000	11.111	1.7	0.106	0.000	D	F	1507.8	269.581	0.199	-0.009	1172.966	1504.390	0.026	-	0.068	0.158	-	-	-	-	-	-	-	PAVEMENT_GENERAL	Urban	F	1011101000011101	0000000000010000	-	-	-	-	-	-	-	-	-	-	Terminate	
"Student26Mode1"	"Seema_Shokoufeh_Track2"	"Feb 16, 2017 09:59:04 AM"	Unknown	153.98642	01/16/0117 10:01.42	00009239	12.232	Inter748t1-2	0.732	1	2	270.000	11.111	1.9	0.108	0.000	D	F	1520.9	269.936	0.199	-0.010	1160.815	1504.339	0.026	-	0.075	0.158	-	-	-	-	-	-	-	PAVEMENT_GENERAL	Urban	F	1011101000011101	0000000000010000	-	-	-	-	-	-	-	-	-	-	Terminate	
"Student26Mode1"	"Seema_Shokoufeh_Track2"	"Feb 16, 2017 09:59:04 AM"	Unknown	154.98643	01/16/0117 10:01.43	00009299	12.378	Inter748t1-2	0.755	1	2	270.000	11.111	1.7	0.109	0.000	D	F	1523.3	270.257	0.199	-0.009	1148.508	1504.362	0.026	-	0.066	0.139	-	-	-	-	-	-	-	PAVEMENT_GENERAL	Urban	F	1011101000011101	0000000000010000	-	-	-	-	-	-	-	-	-	-	Terminate	
"Student26Mode1"	"Seema_Shokoufeh_Track2"	"Feb 16, 2017 09:59:04 AM"	Unknown	155.98645	01/16/0117 10:01.44	00009359	12.509	Inter748t1-2	0.845	1	2	270.000	11.111	1.6	0.106	0.000	D	F	1524.1	270.555	0.199	-0.008	1136.064	1504.451	0.026	-	0.063	0.124	-	-	-	-	-	-	-	PAVEMENT_GENERAL	Urban	F	1011101000011101	0000000000010000	-	-	-	-	-	-	-	-	-	-	Terminate	
"Student26Mode1"	"Seema_Shokoufeh_Track2"	"Feb 16, 2017 09:59:04 AM"	Unknown	156.98647	01/16/0117 10:01.45	00009419	12.625	Inter748t1-2	0.999	1	2	270.000	11.111	1.6	0.104	0.000	D	F	1520.8	270.845	0.199	-0.008	1123.496	1504.606	0.026	-	0.065	0.104	-	-	-	-	-	-	-	PAVEMENT_GENERAL	Urban	F	1011101000011101	0000000000010000	-	-	-	-	-	-	-	-	-	-	Terminate	
"Student26Mode1"	"Seema_Shokoufeh_Track2"	"Feb 16, 2017 09:59:04 AM"	Unknown	157.98650	01/16/0117 10:01.46	00009479	12.728	Inter748t1-2	1.219	1	2	270.000	11.111	0.1	0.108	0.000	D	F	1533.5	271.114	0.198	-0.002	1110.822	1504.825	0.026	-	0.022	0.100	-	-	-	-	-	-	-	PAVEMENT_GENERAL	Urban	F	1011101000011101	0000000000010000	-	-	-	-	-	-	-	-	-	-	Terminate	
"Student26Mode1"	"Seema_Shokoufeh_Track2"	"Feb 16, 2017 09:59:04 AM"	Unknown	158.98651	01/16/0117 10:01.47	00009539	12.827	Inter748t1-2	1.437	1	2	270.000	11.111	-4.8	0.104	0.000	D	F	1527.8	270.714	0.198	0.027	1098.044	1505.044	0.026	-	-0.188	0.086	-	-	-	-	-	-	-	PAVEMENT_GENERAL	Urban	F	1011101000011101	0000000000010000	-	-	-	-	-	-	-	-	-	-	Terminate	
"Student26Mode1"	"Seema_Shokoufeh_Track2"	"Feb 16, 2017 09:59:04 AM"	Unknown	159.98653	01/16/0117 10:01.48	00009599	12.906	Inter748t1-2	1.512	1	2	270.000	11.111	-3.7	0.101	0.000	D	F	1522.6	270.023	0.198	0.017	1085.177	1505.119	0.026	-	-0.142	0.069	-	-	-	-	-	-	-	PAVEMENT_GENERAL	Urban	F	1011101000011101	0000000000010000	-	-	-	-	-	-	-	-	-	-	Terminate	
"Student26Mode1"	"Seema_Shokoufeh_Track2"	"Feb 16, 2017 09:59:04 AM"	Unknown	160.98656	01/16/0117 10:01.49	00009659	12.960	Inter748t1-2	1.428	1	2	270.000	11.111	-2.0	0.099	0.000	D	F	1518.9	269.209	0.198	0.014	1072.243	1505.035	0.026	-	-0.129	0.050	-	-	-	-	-	-	-	PAVEMENT_GENERAL	Urban	F	1011101000011101	0000000000010000	-	-	-	-	-	-	-	-	-	-	Terminate	
"Student26Mode1"	"Seema_Shokoufeh_Track2"	"Feb 16, 2017 09:59:04 AM"	Unknown	161.98657	01/16/0117 10:01.50	00009719	13.012	Inter748t1-2	1.243	1	2	270.000	11.111	2.9	0.099	0.000	D	F	1518.4	269.288	0.198	-0.014	1059.257	1504.849	0.026	-	0.099	0.046	-	-	-	-	-	-	-	PAVEMENT_GENERAL	Urban	F	1011101000011101	0000000000010000	-	-	-	-	-	-	-	-	-	-	Terminate	
"Student26Mode1"	"Seema_Shokoufeh_Track2"	"Feb 16, 2017 09:59:04 AM"	Unknown	162.98659	01/16/0117 10:01.51	00009779	13.067	Inter748t1-2	1.142	1	2	270.000	11.111	-0.8	0.099	0.000	D	F	1524.5	269.717	0.197	0.006	1046.219	1504.749	0.026	-	-0.011	0.046	-	-	-	-	-	-	-	PAVEMENT_GENERAL	Urban	F	1011101000011101	0000000000010000	-	-	-	-	-	-	-	-	-	-	Terminate	
"Student26Mode1"	"Seema_Shokoufeh_Track2"	"Feb 16, 2017 09:59:04 AM"	Unknown	163.98662	01/16/0117 10:01.52	00009839	13.106	Inter748t1-2	1.026	1	2	270.000	11.111	-1.0	0.099	0.000	D	F	1523.3	269.156	0.197	0.012	1033.131	1504.632	0.026	-	-0.103	0.034	-	-	-	-	-	-	-	PAVEMENT_GENERAL	Urban	F	1011101000011101	0000000000010000	-	-	-	-	-	-	-	-	-	-	Terminate	
"Student26Mode1"	"Seema_Shokoufeh_Track2"	"Feb 16, 2017 09:59:04 AM"	Unknown	164.98663	01/16/0117 10:01.53	00009899	13.131	Inter748t1-2	0.820	1	2	270.000	11.111	-0.3	0.093	0.000	D	F	1517.1	269.059	0.197	0.001	1020.012	1504.427	0.026	-	-0.016	0.016	-	-	-	-	-	-	-	PAVEMENT_GENERAL	Urban	F	1011101000011101	0000000000010000	-	-	-	-	-	-	-	-	-	-	Terminate	
"Student26Mode1"	"Seema_Shokoufeh_Track2"	"Feb 16, 2017 09:59:04 AM"	Unknown	165.98665	01/16/0117 10:01.54	00009959	13.152	Inter748t1-2	0.603	1	2	270.000	11.111	4.3	0.097	0.000	D	F	1526.4	269.137	0.197	-0.021	1006.873	1504.210	0.026	-	0.140	0.029	-	-	-	-	-	-	-	PAVEMENT_GENERAL	Urban	F	1011101000011101	0000000000010000	-	-	-	-	-	-	-	-	-	-	Terminate	
"Student26Mode1"	"Seema_Shokoufeh_Track2"	"Feb 16, 2017 09:59:04 AM"	Unknown	166.98668	01/16/0117 10:01.55	00010019	13.171	Inter752t1-2	-0.181	1	2	269.964	24.444	2.9	0.097	0.000	D	F	1523.5	269.975	0.622	-0.144	993.708	1504.115	0.059	-	0.126	0.012	-	-	-	-	-	-	-	FREEWAY_SMOOTH	Urban	F	1011101000011101	0000000000010000	-	-	-	-	-	-	-	-	-	-	Terminate	
"Student26Mode1"	"Seema_Shokoufeh_Track2"	"Feb 16, 2017 09:59:04 AM"	Unknown	167.98669	01/16/0117 10:01.56	00010079	13.233	Inter752t1-2	-0.110	1	2	269.726	24.444	3.2	0.095	0.000	D	F	1526.5	270.432	0.301	-0.459	980.510	1504.160	0.056	-	0.097	0.057	-	-	-	-	-	-	-	FREEWAY_SMOOTH	Urban	F	1011101000011101	0000000000010000	-	-	-	-	-	-	-	-	-	-	Terminate	
"Student26Mode1"	"Seema_Shokoufeh_Track2"	"Feb 16, 2017 09:59:04 AM"	Unknown	168.98671	01/16/0117 10:01.57	00010139	13.299	Inter752t1-2	0.164	1	2	269.151	24.444	2.1	0.095	0.000	D	F	1530.1	270.889	0.330	-0.784	967.244	1504.304	0.084	-	0.063	0.058	-	-	-	-	-	-	-	FREEWAY_SMOOTH	Urban	F	1011101000011101	0000000000010000	-	-	-	-	-	-	-	-	-	-	Terminate	
