"Name"	"Project"	"Time"	ZoneName	Time	SystemTime	Frame	Velocity	LaneName	LanePos	LaneIndex	LaneCount	LaneHeading	SpeedLimit	Steer	Accel	Brake	Gear	Horn	SubjectEngineRPM	SubjectHeading	SubjectPitch	SubjectRoll	SubjectX	SubjectY	SubjectZ	Signal	LatAccel	LongAccel	Collision	CollisionAngle	CollisionVelocity	VehAhead	HeadwayTime	HeadwayDist	TTC	TerrainType	CultureType	Slip	DigitalInputs	DigitalInputs2	ActiveTrigger	EntityName	DistToEntity	TimeToEntity	EntityVelocity	EntityAccel	EntityHeading	EntityX	EntityY	EntityZ	GrabData	
"Student14Mode3"	"Tanvi_6"	"Dec 01, 2016 07:26:08 AM"	Unknown	0.98335	11/01/0116 07:26.13	00000059	0.003	Inter625t13-0	-0.088	1	2	0.000	11.111	-5.0	0.000	0.301	P	F	0.0	0.001	0.139	-0.001	1503.500	523.206	0.017	-	-0.000	0.001	-	-	-	-	-	-	-	PAVEMENT_GENERAL	Urban	F	1011101000011101	0000000000000000	-	car	928.855	570864.312	0.000	0.000	180.000	696.000	987.000	-0.000	Terminate	
"Student14Mode3"	"Tanvi_6"	"Dec 01, 2016 07:26:08 AM"	Unknown	1.98337	11/01/0116 07:26.14	00000119	0.001	Inter625t13-0	-0.088	1	2	0.000	11.111	-5.0	0.000	0.573	P	F	0.0	0.001	0.184	-0.000	1503.500	523.209	0.023	-	0.000	-0.001	-	-	-	-	-	-	-	PAVEMENT_GENERAL	Urban	F	1011101000011101	0000000000000000	-	car	928.854	1539654.125	0.000	0.000	180.000	696.000	987.000	-0.000	Terminate	
"Student14Mode3"	"Tanvi_6"	"Dec 01, 2016 07:26:08 AM"	Unknown	2.98339	11/01/0116 07:26.15	00000179	0.000	Inter625t13-0	-0.088	1	2	0.000	11.111	-5.0	0.000	0.976	P	F	0.0	0.001	0.199	-0.000	1503.500	523.210	0.026	-	0.000	-0.000	-	-	-	-	-	-	-	PAVEMENT_GENERAL	Urban	F	1011101000011101	0000000000000000	-	car	928.853	3938969.250	0.000	0.000	180.000	696.000	987.000	-0.000	Terminate	
"Student14Mode3"	"Tanvi_6"	"Dec 01, 2016 07:26:08 AM"	Unknown	3.98341	11/01/0116 07:26.16	00000239	0.000	Inter625t13-0	-0.088	1	2	0.000	11.111	-5.0	0.000	0.946	P	F	0.0	0.001	0.205	-0.000	1503.500	523.210	0.027	-	0.000	-0.000	-	-	-	-	-	-	-	PAVEMENT_GENERAL	Urban	F	1011101000011101	0000000000000000	-	car	928.853	10026183.000	0.000	0.000	180.000	696.000	987.000	-0.000	Terminate	
"Student14Mode3"	"Tanvi_6"	"Dec 01, 2016 07:26:08 AM"	Unknown	4.98343	11/01/0116 07:26.17	00000299	0.000	Inter625t13-0	-0.088	1	2	0.000	11.111	-5.0	0.000	0.899	P	F	0.0	0.001	0.207	-0.000	1503.500	523.210	0.027	-	0.000	-0.000	-	-	-	-	-	-	-	PAVEMENT_GENERAL	Urban	F	1011101000011101	0000000000000000	-	car	928.853	25463062.000	0.000	0.000	180.000	696.000	987.000	-0.000	Terminate	
"Student14Mode3"	"Tanvi_6"	"Dec 01, 2016 07:26:08 AM"	Unknown	5.98345	11/01/0116 07:26.18	00000359	0.000	Inter625t13-0	-0.088	1	2	0.000	11.111	-5.0	0.000	0.904	P	F	0.0	0.001	0.208	-0.000	1503.500	523.210	0.028	-	-0.000	-0.000	-	-	-	-	-	-	-	PAVEMENT_GENERAL	Urban	F	1011101000011101	0000000000000000	-	car	928.853	64506780.000	0.000	0.000	180.000	696.000	987.000	-0.000	Terminate	
"Student14Mode3"	"Tanvi_6"	"Dec 01, 2016 07:26:08 AM"	Unknown	6.98347	11/01/0116 07:26.19	00000419	0.000	Inter625t13-0	-0.088	1	2	0.000	11.111	-5.0	0.000	0.896	P	F	0.0	0.001	0.208	-0.000	1503.500	523.210	0.028	-	0.000	-0.000	-	-	-	-	-	-	-	PAVEMENT_GENERAL	Urban	F	1011101000011101	0000000000000000	-	car	928.853	163588432.000	0.000	0.000	180.000	696.000	987.000	-0.000	Terminate	
"Student14Mode3"	"Tanvi_6"	"Dec 01, 2016 07:26:08 AM"	Unknown	7.98349	11/01/0116 07:26.20	00000479	0.000	Inter625t13-0	-0.088	1	2	0.000	11.111	-5.0	0.000	0.854	P	F	0.0	0.001	0.208	-0.000	1503.500	523.210	0.028	-	0.000	-0.000	-	-	-	-	-	-	-	PAVEMENT_GENERAL	Urban	F	1111101000011101	0000000000000000	-	car	928.853	415472960.000	0.000	0.000	180.000	696.000	987.000	-0.000	Terminate	
"Student14Mode3"	"Tanvi_6"	"Dec 01, 2016 07:26:08 AM"	Unknown	8.98351	11/01/0116 07:26.21	00000539	0.000	Inter625t13-0	-0.088	1	2	0.000	11.111	-5.0	0.000	0.845	P	F	0.0	0.001	0.208	-0.000	1503.500	523.210	0.028	-	0.000	-0.000	-	-	-	-	-	-	-	PAVEMENT_GENERAL	Urban	F	1011101000011101	0000000000000000	-	car	928.853	-	0.000	0.000	180.000	696.000	987.000	-0.000	Terminate	
"Student14Mode3"	"Tanvi_6"	"Dec 01, 2016 07:26:08 AM"	Unknown	9.98353	11/01/0116 07:26.22	00000599	0.000	Inter625t13-0	-0.088	1	2	0.000	11.111	-5.0	0.000	0.806	P	F	0.0	0.001	0.209	-0.000	1503.500	523.210	0.028	-	0.000	-0.000	-	-	-	-	-	-	-	PAVEMENT_GENERAL	Urban	F	1011101000011101	0000000000000000	-	car	928.853	-	0.000	0.000	180.000	696.000	987.000	-0.000	Terminate	
"Student14Mode3"	"Tanvi_6"	"Dec 01, 2016 07:26:08 AM"	Unknown	10.98355	11/01/0116 07:26.23	00000659	0.000	Inter625t13-0	-0.088	1	2	0.000	11.111	-5.0	0.000	0.701	P	F	0.0	0.001	0.209	-0.000	1503.500	523.210	0.028	-	0.000	-0.000	-	-	-	-	-	-	-	PAVEMENT_GENERAL	Urban	F	1011101000011101	0000000000000000	-	car	928.853	-	0.000	0.000	180.000	696.000	987.000	-0.000	Terminate	
"Student14Mode3"	"Tanvi_6"	"Dec 01, 2016 07:26:08 AM"	Unknown	11.98357	11/01/0116 07:26.24	00000719	0.000	Inter625t13-0	-0.088	1	2	0.000	11.111	-5.0	0.000	0.666	P	F	0.0	0.001	0.209	-0.000	1503.500	523.210	0.028	-	0.000	-0.000	-	-	-	-	-	-	-	PAVEMENT_GENERAL	Urban	F	1011101000011101	0000000000000000	-	car	928.853	-	0.000	0.000	180.000	696.000	987.000	-0.000	Terminate	
"Student14Mode3"	"Tanvi_6"	"Dec 01, 2016 07:26:08 AM"	Unknown	12.98359	11/01/0116 07:26.25	00000779	0.000	Inter625t13-0	-0.088	1	2	0.000	11.111	-5.0	0.000	0.660	P	F	0.0	0.001	0.209	-0.000	1503.500	523.210	0.028	-	0.000	-0.000	-	-	-	-	-	-	-	PAVEMENT_GENERAL	Urban	F	1011101000011101	0000000000000000	-	car	928.853	-	0.000	0.000	180.000	696.000	987.000	-0.000	Terminate	
"Student14Mode3"	"Tanvi_6"	"Dec 01, 2016 07:26:08 AM"	Unknown	13.98361	11/01/0116 07:26.26	00000839	0.000	Inter625t13-0	-0.088	1	2	0.000	11.111	-5.0	0.000	0.642	P	F	0.0	0.001	0.209	-0.000	1503.500	523.210	0.028	-	-0.000	0.000	-	-	-	-	-	-	-	PAVEMENT_GENERAL	Urban	F	1011101000011101	0000000000000000	-	car	928.853	-	0.000	0.000	180.000	696.000	987.000	-0.000	Terminate	
"Student14Mode3"	"Tanvi_6"	"Dec 01, 2016 07:26:08 AM"	Unknown	14.98363	11/01/0116 07:26.27	00000899	-0.000	Inter625t13-0	-0.088	1	2	0.000	11.111	-5.0	0.000	0.591	P	F	0.0	0.001	0.209	-0.000	1503.500	523.210	0.028	-	-0.000	0.000	-	-	-	-	-	-	-	PAVEMENT_GENERAL	Urban	F	1011101000011101	0000000000000000	-	car	928.853	-	0.000	0.000	180.000	696.000	987.000	-0.000	Terminate	
"Student14Mode3"	"Tanvi_6"	"Dec 01, 2016 07:26:08 AM"	Unknown	15.98365	11/01/0116 07:26.28	00000959	-0.000	Inter625t13-0	-0.088	1	2	0.000	11.111	-5.0	0.000	0.567	P	F	0.0	0.001	0.209	-0.000	1503.500	523.210	0.028	-	-0.000	0.000	-	-	-	-	-	-	-	PAVEMENT_GENERAL	Urban	F	1011101000011101	0000000000000000	-	car	928.853	-	0.000	0.000	180.000	696.000	987.000	-0.000	Terminate	
"Student14Mode3"	"Tanvi_6"	"Dec 01, 2016 07:26:08 AM"	Unknown	16.98367	11/01/0116 07:26.29	00001019	-0.000	Inter625t13-0	-0.088	1	2	0.000	11.111	-5.0	0.000	0.555	P	F	0.0	0.001	0.209	-0.000	1503.500	523.210	0.028	-	-0.000	0.000	-	-	-	-	-	-	-	PAVEMENT_GENERAL	Urban	F	1011101000011101	0000000000000000	-	car	928.853	-	0.000	0.000	180.000	696.000	987.000	-0.000	Terminate	
"Student14Mode3"	"Tanvi_6"	"Dec 01, 2016 07:26:08 AM"	Unknown	17.98369	11/01/0116 07:26.30	00001079	-0.000	Inter625t13-0	-0.088	1	2	0.000	11.111	-5.0	0.000	0.555	P	F	0.0	0.001	0.209	-0.000	1503.500	523.210	0.028	-	-0.000	0.000	-	-	-	-	-	-	-	PAVEMENT_GENERAL	Urban	F	1011101000011101	0000000000000000	-	car	928.853	-	0.000	0.000	180.000	696.000	987.000	-0.000	Terminate	
"Student14Mode3"	"Tanvi_6"	"Dec 01, 2016 07:26:08 AM"	Unknown	18.98371	11/01/0116 07:26.31	00001139	-0.000	Inter625t13-0	-0.088	1	2	0.000	11.111	-5.0	0.000	0.609	P	F	0.0	0.001	0.209	-0.000	1503.500	523.210	0.028	-	-0.000	0.000	-	-	-	-	-	-	-	PAVEMENT_GENERAL	Urban	F	1011101000011101	0000000000000000	-	car	928.853	-	0.000	0.000	180.000	696.000	987.000	-0.000	Terminate	
"Student14Mode3"	"Tanvi_6"	"Dec 01, 2016 07:26:08 AM"	Unknown	19.98373	11/01/0116 07:26.32	00001199	-0.000	Inter625t13-0	-0.088	1	2	0.000	11.111	-5.0	0.000	0.603	P	F	27.8	0.001	0.209	-0.000	1503.500	523.210	0.028	-	-0.000	0.000	-	-	-	-	-	-	-	PAVEMENT_GENERAL	Urban	F	1011101000011111	0000000000000000	-	car	928.853	-	0.000	0.000	180.000	696.000	987.000	-0.000	Terminate	
"Student14Mode3"	"Tanvi_6"	"Dec 01, 2016 07:26:08 AM"	Unknown	20.98375	11/01/0116 07:26.33	00001259	-0.000	Inter625t13-0	-0.088	1	2	0.000	11.111	-5.0	0.000	0.603	P	F	361.1	0.001	0.209	-0.000	1503.500	523.210	0.028	-	-0.000	0.000	-	-	-	-	-	-	-	PAVEMENT_GENERAL	Urban	F	1011101000011101	0000000000000000	-	car	928.853	-	0.000	0.000	180.000	696.000	987.000	-0.000	Terminate	
"Student14Mode3"	"Tanvi_6"	"Dec 01, 2016 07:26:08 AM"	Unknown	21.98377	11/01/0116 07:26.34	00001319	-0.000	Inter625t13-0	-0.088	1	2	0.000	11.111	-5.0	0.000	0.546	P	F	477.5	0.001	0.209	-0.000	1503.500	523.210	0.028	-	-0.000	0.000	-	-	-	-	-	-	-	PAVEMENT_GENERAL	Urban	F	1011101000011101	0000000000000000	-	car	928.853	-	0.000	0.000	180.000	696.000	987.000	-0.000	Terminate	
"Student14Mode3"	"Tanvi_6"	"Dec 01, 2016 07:26:08 AM"	Unknown	22.98379	11/01/0116 07:26.35	00001379	-0.000	Inter625t13-0	-0.088	1	2	0.000	11.111	-5.0	0.000	0.555	P	F	477.5	0.001	0.209	-0.000	1503.500	523.210	0.028	-	-0.000	0.000	-	-	-	-	-	-	-	PAVEMENT_GENERAL	Urban	F	1011101000011101	0000000000000000	-	car	928.853	-	0.000	0.000	180.000	696.000	987.000	-0.000	Terminate	
"Student14Mode3"	"Tanvi_6"	"Dec 01, 2016 07:26:08 AM"	Unknown	23.98381	11/01/0116 07:26.36	00001439	-0.000	Inter625t13-0	-0.088	1	2	0.000	11.111	-5.0	0.000	0.597	D	F	477.5	0.001	0.209	-0.000	1503.500	523.210	0.028	-	0.000	-0.000	-	-	-	-	-	-	-	PAVEMENT_GENERAL	Urban	F	1111101000011101	0000000000000000	-	car	928.853	-	0.000	0.000	180.000	696.000	987.000	-0.000	Terminate	
"Student14Mode3"	"Tanvi_6"	"Dec 01, 2016 07:26:08 AM"	Unknown	24.98383	11/01/0116 07:26.37	00001499	0.000	Inter625t13-0	-0.088	1	2	0.000	11.111	-5.0	0.000	0.143	D	F	477.5	0.001	0.209	0.000	1503.500	523.210	0.028	-	0.000	-0.000	-	-	-	-	-	-	-	PAVEMENT_GENERAL	Urban	F	1011101000011101	0000000000000000	-	car	928.853	-	0.000	0.000	180.000	696.000	987.000	-0.000	Terminate	
"Student14Mode3"	"Tanvi_6"	"Dec 01, 2016 07:26:08 AM"	Unknown	25.98385	11/01/0116 07:26.38	00001559	0.005	Inter625t13-0	-0.088	1	2	0.000	11.111	-4.4	0.000	0.000	D	F	477.5	0.001	0.207	0.000	1503.500	523.211	0.027	-	-0.000	0.018	-	-	-	-	-	-	-	PAVEMENT_GENERAL	Urban	F	1011101000011101	0000000000000000	-	car	928.853	377917.938	0.000	0.000	180.000	696.000	987.000	-0.000	Terminate	
"Student14Mode3"	"Tanvi_6"	"Dec 01, 2016 07:26:08 AM"	Unknown	26.98387	11/01/0116 07:26.39	00001619	0.021	Inter625t13-0	-0.088	1	2	0.000	11.111	-3.8	0.030	0.000	D	F	533.5	0.000	0.197	-0.000	1503.500	523.222	0.024	-	-0.000	0.053	-	-	-	-	-	-	-	PAVEMENT_GENERAL	Urban	F	1011101000011101	0000000000000000	-	car	928.847	87420.789	0.000	0.000	180.000	696.000	987.000	-0.000	Terminate	
"Student14Mode3"	"Tanvi_6"	"Dec 01, 2016 07:26:08 AM"	Unknown	27.98389	11/01/0116 07:26.40	00001679	1.741	Inter625t13-0	-0.090	1	2	0.000	11.111	-5.1	0.146	0.000	D	F	1352.7	359.931	0.221	0.002	1503.498	523.793	0.015	-	-0.013	2.917	-	-	-	-	-	-	-	PAVEMENT_GENERAL	Urban	F	1011101000011101	0000000000000000	-	car	928.561	1069.657	0.000	0.000	180.000	696.000	987.000	-0.000	Terminate	
"Student14Mode3"	"Tanvi_6"	"Dec 01, 2016 07:26:08 AM"	Unknown	28.98391	11/01/0116 07:26.41	00001739	4.627	Inter625t13-0	-0.109	1	2	0.000	11.111	-4.0	0.205	0.000	D	F	1810.8	359.647	0.224	0.004	1503.479	527.011	0.013	-	-0.031	2.613	-	-	-	-	-	-	-	PAVEMENT_GENERAL	Urban	F	1011101000011101	0000000000000000	-	car	926.948	400.374	0.000	0.000	180.000	696.000	987.000	-0.000	Terminate	
"Student14Mode3"	"Tanvi_6"	"Dec 01, 2016 07:26:08 AM"	Unknown	29.98393	11/01/0116 07:26.42	00001799	7.041	Inter625t49-0	-0.180	1	1	0.005	11.111	-2.1	0.268	0.000	D	F	2293.3	359.197	0.225	0.006	1503.408	532.876	0.016	-	-0.034	2.299	-	-	-	-	-	-	-	PAVEMENT_GENERAL	Urban	F	1011101000011101	0000000000000000	-	car	923.997	261.225	0.000	0.000	180.000	696.000	987.000	-0.000	Terminate	
"Student14Mode3"	"Tanvi_6"	"Dec 01, 2016 07:26:08 AM"	Unknown	30.98395	11/01/0116 07:26.43	00001859	9.280	Inter625t49-0	-0.315	1	1	0.006	11.111	-1.7	0.286	0.000	D	F	2119.7	358.976	0.203	0.007	1503.274	541.068	0.017	-	-0.047	1.750	-	-	-	-	-	-	-	PAVEMENT_GENERAL	Urban	F	1011101000011101	0000000000000000	-	car	919.891	198.616	0.000	0.000	180.000	696.000	987.000	-0.000	Terminate	
"Student14Mode3"	"Tanvi_6"	"Dec 01, 2016 07:26:08 AM"	Unknown	31.98397	11/01/0116 07:26.44	00001919	10.792	Inter625t49-0	-0.523	1	1	0.008	11.111	-2.3	0.303	0.000	D	F	2115.4	358.681	0.213	0.009	1503.067	551.125	0.020	-	-0.074	1.423	-	-	-	-	-	-	-	PAVEMENT_GENERAL	Urban	F	1011101000011101	0000000000000000	-	car	914.889	171.151	0.000	0.000	180.000	696.000	987.000	-0.000	Terminate	
"Student14Mode3"	"Tanvi_6"	"Dec 01, 2016 07:26:08 AM"	Unknown	32.98399	11/01/0116 07:26.45	00001979	12.202	Inter625t49-0	-0.817	1	1	0.005	11.111	6.8	0.333	0.000	D	F	2268.8	358.677	0.211	-0.033	1502.774	562.618	0.020	-	0.227	1.398	-	-	-	-	-	-	-	PAVEMENT_GENERAL	Urban	F	1011101000011101	0000000000000000	-	car	909.224	153.364	0.000	0.000	180.000	696.000	987.000	-0.000	Terminate	
"Student14Mode3"	"Tanvi_6"	"Dec 01, 2016 07:26:08 AM"	Unknown	33.98401	11/01/0116 07:26.46	00002039	13.572	Inter625t49-0	-0.971	1	1	0.005	11.111	6.9	0.340	0.000	D	F	2439.3	359.938	0.210	-0.040	1502.622	575.508	0.020	-	0.307	1.351	-	-	-	-	-	-	-	PAVEMENT_GENERAL	Urban	F	1011101000011101	0000000000000000	-	car	903.159	146.127	0.000	0.000	180.000	696.000	987.000	-0.000	Terminate	
"Student14Mode3"	"Tanvi_6"	"Dec 01, 2016 07:26:08 AM"	Unknown	34.98403	11/01/0116 07:26.47	00002099	14.746	Inter625t15-0	-0.868	1	2	0.000	11.111	-0.8	0.249	0.000	D	F	2518.7	0.626	0.202	0.003	1502.725	589.710	0.022	-	-0.009	0.925	-	-	-	-	-	-	-	PAVEMENT_GENERAL	Urban	F	1011101000011101	0000000000000000	-	car	896.887	140.797	0.000	0.000	180.000	696.000	987.000	-0.000	Terminate	
"Student14Mode3"	"Tanvi_6"	"Dec 01, 2016 07:26:08 AM"	Unknown	35.98405	11/01/0116 07:26.48	00002159	15.502	Inter614t1-0	-0.721	1	2	0.000	11.111	-1.3	0.205	0.000	D	F	1959.1	0.481	0.196	0.011	1502.872	604.883	0.024	-	-0.060	0.493	-	-	-	-	-	-	-	PAVEMENT_GENERAL	Urban	F	1011101000011101	0000000000000000	-	car	890.420	136.623	0.000	0.000	180.000	696.000	987.000	-0.000	Terminate	
"Student14Mode3"	"Tanvi_6"	"Dec 01, 2016 07:26:08 AM"	Unknown	36.98407	11/01/0116 07:26.49	00002219	15.906	Inter614t1-0	-0.590	1	2	0.000	11.111	2.7	0.146	0.000	D	F	1800.9	0.634	0.191	-0.019	1503.004	620.608	0.025	-	0.135	0.162	-	-	-	-	-	-	-	PAVEMENT_GENERAL	Urban	F	1011101000011101	0000000000000000	-	car	883.924	137.790	0.000	0.000	180.000	696.000	987.000	-0.000	Terminate	
"Student14Mode3"	"Tanvi_6"	"Dec 01, 2016 07:26:08 AM"	Unknown	37.98409	11/01/0116 07:26.50	00002279	16.245	Inter614t1-0	-0.348	1	2	0.000	11.111	1.6	0.219	0.000	D	F	1990.6	1.094	0.198	-0.012	1503.245	636.654	0.024	-	0.099	0.505	-	-	-	-	-	-	-	PAVEMENT_GENERAL	Urban	F	1011101000011101	0000000000000000	-	car	877.633	141.969	0.000	0.000	180.000	696.000	987.000	-0.000	Terminate	
"Student14Mode3"	"Tanvi_6"	"Dec 01, 2016 07:26:08 AM"	Unknown	38.98411	11/01/0116 07:26.51	00002339	16.755	Inter614t1-0	-0.044	1	2	0.000	11.111	-2.5	0.229	0.000	D	F	2032.0	0.842	0.198	0.018	1503.549	653.151	0.024	-	-0.152	0.515	-	-	-	-	-	-	-	PAVEMENT_GENERAL	Urban	F	1011101000011101	0000000000000000	-	car	871.478	141.177	0.000	0.000	180.000	696.000	987.000	-0.000	Terminate	
"Student14Mode3"	"Tanvi_6"	"Dec 01, 2016 07:26:08 AM"	Unknown	39.98413	11/01/0116 07:26.52	00002399	17.267	Inter614t1-0	0.145	1	2	0.000	11.111	-3.1	0.236	0.000	D	F	2067.2	0.378	0.197	0.024	1503.739	670.161	0.024	-	-0.166	0.510	-	-	-	-	-	-	-	PAVEMENT_GENERAL	Urban	F	1011101000011101	0000000000000000	-	car	865.298	139.588	0.000	0.000	180.000	696.000	987.000	-0.000	Terminate	
"Student14Mode3"	"Tanvi_6"	"Dec 01, 2016 07:26:08 AM"	Unknown	40.98415	11/01/0116 07:26.53	00002459	17.778	Inter614t1-0	0.198	1	2	0.000	11.111	-1.6	0.240	0.000	D	F	2093.5	0.001	0.196	0.013	1503.791	687.686	0.024	-	-0.084	0.487	-	-	-	-	-	-	-	PAVEMENT_GENERAL	Urban	F	1011101000011101	0000000000000000	-	car	859.102	139.093	0.000	0.000	180.000	696.000	987.000	-0.000	Terminate	
"Student14Mode3"	"Tanvi_6"	"Dec 01, 2016 07:26:08 AM"	Unknown	41.98417	11/01/0116 07:26.54	00002519	17.792	Inter614t1-0	0.158	1	2	0.000	11.111	-1.5	0.000	0.000	D	F	1318.4	359.713	0.183	0.013	1503.751	705.591	0.029	-	-0.097	-0.554	-	-	-	-	-	-	-	PAVEMENT_GENERAL	Urban	F	1011101000011101	0000000000000000	-	car	853.007	143.667	0.000	0.000	180.000	696.000	987.000	-0.000	Terminate	
"Student14Mode3"	"Tanvi_6"	"Dec 01, 2016 07:26:08 AM"	Unknown	42.98419	11/01/0116 07:26.55	00002579	17.229	Inter614t1-0	0.011	1	2	0.000	11.111	0.2	0.009	0.000	D	F	1180.6	359.294	0.186	0.007	1503.605	723.101	0.029	-	-0.056	-0.555	-	-	-	-	-	-	-	PAVEMENT_GENERAL	Urban	F	1011101000011101	0000000000000000	-	car	847.269	152.578	0.000	0.000	180.000	696.000	987.000	-0.000	Terminate	
"Student14Mode3"	"Tanvi_6"	"Dec 01, 2016 07:26:08 AM"	Unknown	43.98421	11/01/0116 07:26.56	00002639	16.960	Inter614t1-0	-0.157	1	2	0.000	11.111	1.4	0.093	0.000	D	F	1455.7	359.652	0.192	-0.016	1503.436	740.159	0.027	-	0.106	-0.129	-	-	-	-	-	-	-	PAVEMENT_GENERAL	Urban	F	1011101000011101	0000000000000000	-	car	841.965	166.499	0.000	0.000	180.000	696.000	987.000	-0.000	Terminate	
"Student14Mode3"	"Tanvi_6"	"Dec 01, 2016 07:26:08 AM"	Unknown	44.98423	11/01/0116 07:26.57	00002699	16.852	Inter614t1-0	-0.224	1	2	0.000	11.111	0.6	0.092	0.000	D	F	1428.5	359.911	0.190	-0.007	1503.369	757.065	0.027	-	0.053	-0.137	-	-	-	-	-	-	-	PAVEMENT_GENERAL	Urban	F	1011101000011101	0000000000000000	-	car	837.114	180.377	0.000	0.000	180.000	696.000	987.000	-0.000	Terminate	
"Student14Mode3"	"Tanvi_6"	"Dec 01, 2016 07:26:08 AM"	Unknown	45.98425	11/01/0116 07:26.58	00002759	16.666	Inter614t1-0	-0.253	1	2	0.000	11.111	0.4	0.063	0.000	D	F	1331.4	359.886	0.189	-0.001	1503.341	773.830	0.028	-	0.006	-0.244	-	-	-	-	-	-	-	PAVEMENT_GENERAL	Urban	F	1011101000011101	0000000000000000	-	car	832.650	194.240	0.000	0.000	180.000	696.000	987.000	-0.000	Terminate	
"Student14Mode3"	"Tanvi_6"	"Dec 01, 2016 07:26:08 AM"	Unknown	46.98427	11/01/0116 07:26.59	00002819	16.473	Inter614t1-0	-0.276	1	2	0.000	11.111	0.7	0.113	0.000	D	F	1471.7	0.000	0.192	-0.005	1503.318	790.389	0.027	-	0.041	-0.106	-	-	-	-	-	-	-	PAVEMENT_GENERAL	Urban	F	1011101000011101	0000000000000000	-	car	828.554	212.260	0.000	0.000	180.000	696.000	987.000	-0.000	Terminate	
"Student14Mode3"	"Tanvi_6"	"Dec 01, 2016 07:26:08 AM"	Unknown	47.98429	11/01/0116 07:27.00	00002879	16.389	Inter612t1-0	-0.264	1	2	0.000	11.111	0.1	0.002	0.000	D	F	1090.8	0.089	0.180	-0.002	1503.329	806.845	0.027	-	0.012	-0.477	-	-	-	-	-	-	-	PAVEMENT_GENERAL	Urban	F	1011101000011101	0000000000000000	-	car	824.826	232.704	0.000	0.000	180.000	696.000	987.000	-0.000	Terminate	
"Student14Mode3"	"Tanvi_6"	"Dec 01, 2016 07:26:08 AM"	Unknown	48.98431	11/01/0116 07:27.01	00002939	15.856	Inter612t1-0	-0.231	1	2	0.000	11.111	0.7	0.039	0.000	D	F	1221.9	0.187	0.190	-0.008	1503.362	822.961	0.029	-	0.048	-0.413	-	-	-	-	-	-	-	PAVEMENT_GENERAL	Urban	F	1011101000011101	0000000000000000	-	car	821.499	264.445	0.000	0.000	180.000	696.000	987.000	-0.000	Terminate	
"Student14Mode3"	"Tanvi_6"	"Dec 01, 2016 07:26:08 AM"	Unknown	49.98433	11/01/0116 07:27.02	00002999	15.801	Inter612t1-0	-0.169	1	2	0.000	11.111	0.0	0.143	0.000	D	F	1565.5	0.247	0.195	-0.001	1503.424	838.743	0.026	-	0.004	0.145	-	-	-	-	-	-	-	PAVEMENT_GENERAL	Urban	F	1011101000011101	0000000000000000	-	car	818.563	293.746	0.000	0.000	180.000	696.000	987.000	-0.000	Terminate	
"Student14Mode3"	"Tanvi_6"	"Dec 01, 2016 07:26:08 AM"	Unknown	50.98435	11/01/0116 07:27.03	00003059	15.968	Inter612t1-0	-0.103	1	2	0.000	11.111	-0.4	0.162	0.000	D	F	1626.7	0.221	0.196	0.004	1503.490	854.620	0.026	-	-0.018	0.207	-	-	-	-	-	-	-	PAVEMENT_GENERAL	Urban	F	1011101000011101	0000000000000000	-	car	815.910	323.450	0.000	0.000	180.000	696.000	987.000	-0.000	Terminate	
"Student14Mode3"	"Tanvi_6"	"Dec 01, 2016 07:26:08 AM"	Unknown	51.98437	11/01/0116 07:27.04	00003119	16.197	Inter612t1-0	-0.054	1	2	0.000	11.111	-0.6	0.173	0.000	D	F	1645.3	0.114	0.194	0.004	1503.539	870.698	0.025	-	-0.033	0.199	-	-	-	-	-	-	-	PAVEMENT_GENERAL	Urban	F	1011101000011101	0000000000000000	-	car	813.512	357.261	0.000	0.000	180.000	696.000	987.000	-0.000	Terminate	
"Student14Mode3"	"Tanvi_6"	"Dec 01, 2016 07:26:08 AM"	Unknown	52.98439	11/01/0116 07:27.05	00003179	16.399	Inter612t1-0	-0.041	1	2	0.000	11.111	-1.6	0.164	0.000	D	F	1635.0	359.927	0.194	0.011	1503.552	887.000	0.026	-	-0.082	0.181	-	-	-	-	-	-	-	PAVEMENT_GENERAL	Urban	F	1011101000011101	0000000000000000	-	car	811.361	398.469	0.000	0.000	180.000	696.000	987.000	-0.000	Terminate	
"Student14Mode3"	"Tanvi_6"	"Dec 01, 2016 07:26:08 AM"	Unknown	53.98441	11/01/0116 07:27.06	00003239	16.587	Inter612t1-0	-0.098	1	2	0.000	11.111	-1.3	0.166	0.000	D	F	1642.1	359.664	0.194	0.010	1503.495	903.492	0.026	-	-0.070	0.170	-	-	-	-	-	-	-	PAVEMENT_GENERAL	Urban	F	1011101000011101	0000000000000000	-	car	809.442	448.927	0.000	0.000	180.000	696.000	987.000	-0.000	Terminate	
"Student14Mode3"	"Tanvi_6"	"Dec 01, 2016 07:26:08 AM"	Unknown	54.98443	11/01/0116 07:27.07	00003299	16.787	Inter612t1-0	-0.218	1	2	0.000	11.111	0.5	0.169	0.000	D	F	1669.6	359.557	0.196	-0.002	1503.375	920.175	0.026	-	0.014	0.216	-	-	-	-	-	-	-	PAVEMENT_GENERAL	Urban	F	1011101000011101	0000000000000000	-	car	807.777	533.542	0.000	0.000	180.000	696.000	987.000	-0.000	Terminate	
"Student14Mode3"	"Tanvi_6"	"Dec 01, 2016 07:26:08 AM"	Unknown	55.98445	11/01/0116 07:27.08	00003359	16.662	Inter612t1-0	-0.332	1	2	0.000	11.111	0.2	0.000	0.000	D	F	1136.1	359.669	0.185	-0.001	1503.261	936.984	0.029	-	0.018	-0.553	-	-	-	-	-	-	-	PAVEMENT_GENERAL	Urban	F	1011101000011101	0000000000000000	-	car	806.450	715.952	0.000	0.000	180.000	696.000	987.000	-0.000	Terminate	
"Student14Mode3"	"Tanvi_6"	"Dec 01, 2016 07:26:08 AM"	Unknown	56.98447	11/01/0116 07:27.09	00003419	16.111	Inter612t1-0	-0.419	1	2	0.000	11.111	0.3	0.000	0.000	D	F	1098.8	359.719	0.188	-0.001	1503.174	953.370	0.029	-	0.016	-0.547	-	-	-	-	-	-	-	PAVEMENT_GENERAL	Urban	F	1011101000011101	0000000000000000	-	car	805.515	1074.444	0.000	0.000	180.000	696.000	987.000	-0.000	Terminate	
"Student14Mode3"	"Tanvi_6"	"Dec 01, 2016 07:26:08 AM"	Unknown	57.98449	11/01/0116 07:27.10	00003479	15.569	Inter612t1-0	-0.474	1	2	0.000	11.111	0.8	0.000	0.000	D	F	1061.7	0.000	0.188	-0.011	1503.120	969.209	0.029	-	0.078	-0.539	-	-	-	-	-	-	-	PAVEMENT_GENERAL	Urban	F	1011101000011101	0000000000000000	-	car	804.956	2271.377	0.000	0.000	180.000	696.000	987.000	-0.000	Terminate	
"Student14Mode3"	"Tanvi_6"	"Dec 01, 2016 07:26:08 AM"	Unknown	58.98451	11/01/0116 07:27.11	00003539	15.033	Inter612t1-0	-0.469	1	2	0.000	11.111	0.3	0.000	0.000	D	F	1025.2	0.073	0.189	-0.003	1503.124	984.509	0.029	-	0.021	-0.533	-	-	-	-	-	-	-	PAVEMENT_GENERAL	Urban	F	1011101000011101	0000000000000000	-	car	804.769	29438.613	0.000	0.000	180.000	696.000	987.000	-0.000	Terminate	
"Student14Mode3"	"Tanvi_6"	"Dec 01, 2016 07:26:08 AM"	Unknown	59.98453	11/01/0116 07:27.12	00003599	14.504	Inter612t1-0	-0.440	1	2	0.000	11.111	-0.1	0.000	0.000	D	F	989.2	0.164	0.190	-0.002	1503.153	999.277	0.029	-	0.012	-0.526	-	-	-	-	-	-	-	PAVEMENT_GENERAL	Urban	F	1011101000011101	0000000000000000	-	car	804.887	-3070.609	0.000	0.000	180.000	696.000	987.000	-0.000	Terminate	
"Student14Mode3"	"Tanvi_6"	"Dec 01, 2016 07:26:08 AM"	Unknown	60.98455	11/01/0116 07:27.13	00003659	14.001	Inter613t1-0	-0.446	1	2	0.000	11.111	-3.0	0.021	0.000	D	F	995.0	359.658	0.192	0.023	1503.148	1013.524	0.029	-	-0.172	-0.467	-	-	-	-	-	-	-	PAVEMENT_GENERAL	Urban	F	1011101000011101	0000000000000000	-	car	805.224	-2140.006	0.000	0.000	180.000	696.000	987.000	-0.000	Terminate	
"Student14Mode3"	"Tanvi_6"	"Dec 01, 2016 07:26:08 AM"	Unknown	61.98457	11/01/0116 07:27.14	00003719	13.798	Inter613t1-0	-0.586	1	2	0.000	11.111	3.6	0.141	0.000	D	F	1564.3	359.344	0.199	-0.015	1503.007	1027.365	0.026	-	0.103	0.129	-	-	-	-	-	-	-	PAVEMENT_GENERAL	Urban	F	1011101000011101	0000000000000000	-	car	805.656	-1516.034	0.000	0.000	180.000	696.000	987.000	-0.000	Terminate	
"Student14Mode3"	"Tanvi_6"	"Dec 01, 2016 07:26:08 AM"	Unknown	62.98459	11/01/0116 07:27.15	00003779	14.230	Inter613t1-0	-0.648	1	2	0.000	11.111	3.9	0.205	0.000	D	F	1861.1	0.180	0.202	-0.026	1502.945	1041.345	0.024	-	0.200	0.550	-	-	-	-	-	-	-	PAVEMENT_GENERAL	Urban	F	1011101000011101	0000000000000000	-	car	806.413	-805.869	0.000	0.000	180.000	696.000	987.000	-0.000	Terminate	
"Student14Mode3"	"Tanvi_6"	"Dec 01, 2016 07:26:08 AM"	Unknown	63.98461	11/01/0116 07:27.16	00003839	14.778	Inter613t1-0	-0.533	1	2	0.000	11.111	0.4	0.212	0.000	D	F	1904.7	0.665	0.201	-0.005	1503.060	1055.847	0.024	-	0.048	0.578	-	-	-	-	-	-	-	PAVEMENT_GENERAL	Urban	F	1011101000011101	0000000000000000	-	car	807.632	-566.033	0.000	0.000	180.000	696.000	987.000	-0.000	Terminate	
"Student14Mode3"	"Tanvi_6"	"Dec 01, 2016 07:26:08 AM"	Unknown	64.98463	11/01/0116 07:27.17	00003899	15.372	Inter613t1-0	-0.358	1	2	0.000	11.111	-0.3	0.231	0.000	D	F	1970.5	0.631	0.200	0.003	1503.235	1070.917	0.024	-	-0.022	0.615	-	-	-	-	-	-	-	PAVEMENT_GENERAL	Urban	F	1011101000011101	0000000000000000	-	car	809.226	-460.385	0.000	0.000	180.000	696.000	987.000	-0.000	Terminate	
"Student14Mode3"	"Tanvi_6"	"Dec 01, 2016 07:26:08 AM"	Unknown	65.98465	11/01/0116 07:27.18	00003959	15.984	Inter613t1-0	-0.209	1	2	0.000	11.111	-2.0	0.233	0.000	D	F	2000.5	0.372	0.199	0.016	1503.384	1086.596	0.024	-	-0.113	0.602	-	-	-	-	-	-	-	PAVEMENT_GENERAL	Urban	F	1011101000011101	0000000000000000	-	car	811.145	-393.758	0.000	0.000	180.000	696.000	987.000	-0.000	Terminate	
"Student14Mode3"	"Tanvi_6"	"Dec 01, 2016 07:26:08 AM"	Unknown	66.98467	11/01/0116 07:27.19	00004019	16.577	Inter613t1-0	-0.150	1	2	0.000	11.111	-1.1	0.259	0.000	D	F	2051.9	0.026	0.199	0.010	1503.443	1102.875	0.024	-	-0.079	0.602	-	-	-	-	-	-	-	PAVEMENT_GENERAL	Urban	F	1011101000011101	0000000000000000	-	car	813.356	-344.315	0.000	0.000	180.000	696.000	987.000	-0.000	Terminate	
"Student14Mode3"	"Tanvi_6"	"Dec 01, 2016 07:26:08 AM"	Unknown	67.98470	11/01/0116 07:27.20	00004079	17.182	Inter613t1-0	-0.166	1	2	0.000	11.111	-0.9	0.266	0.000	D	F	2095.0	359.834	0.198	0.008	1503.427	1119.756	0.024	-	-0.057	0.591	-	-	-	-	-	-	-	PAVEMENT_GENERAL	Urban	F	1011101000011101	0000000000000000	-	car	815.908	-297.934	0.000	0.000	180.000	696.000	987.000	-0.000	Terminate	
"Student14Mode3"	"Tanvi_6"	"Dec 01, 2016 07:26:08 AM"	Unknown	68.98471	11/01/0116 07:27.21	00004139	17.376	Inter613t1-0	-0.229	1	2	0.000	11.111	-0.5	0.000	0.000	D	F	1388.5	359.748	0.179	0.006	1503.364	1137.153	0.028	-	-0.031	-0.528	-	-	-	-	-	-	-	PAVEMENT_GENERAL	Urban	F	1011101000011101	0000000000000000	-	car	818.848	-263.979	0.000	0.000	180.000	696.000	987.000	-0.000	Terminate	
"Student14Mode3"	"Tanvi_6"	"Dec 01, 2016 07:26:08 AM"	Unknown	69.98473	11/01/0116 07:27.22	00004199	17.014	Inter613t1-0	-0.291	1	2	0.000	11.111	1.1	0.141	0.000	D	F	1584.6	359.925	0.191	-0.008	1503.302	1154.286	0.026	-	0.074	0.060	-	-	-	-	-	-	-	PAVEMENT_GENERAL	Urban	F	1011101000011101	0000000000000000	-	car	822.093	-239.650	0.000	0.000	180.000	696.000	987.000	-0.000	Terminate	
"Student14Mode3"	"Tanvi_6"	"Dec 01, 2016 07:26:08 AM"	Unknown	70.98476	11/01/0116 07:27.23	00004259	17.299	Inter613t1-0	-0.287	1	2	0.000	11.111	0.8	0.228	0.000	D	F	1816.5	0.135	0.196	-0.007	1503.306	1171.408	0.025	-	0.056	0.406	-	-	-	-	-	-	-	PAVEMENT_GENERAL	Urban	F	1011101000011101	0000000000000000	-	car	825.740	-212.168	0.000	0.000	180.000	696.000	987.000	-0.000	Terminate	
"Student14Mode3"	"Tanvi_6"	"Dec 01, 2016 07:26:08 AM"	Unknown	71.98477	11/01/0116 07:27.24	00004319	17.706	Inter613t1-0	-0.236	1	2	0.000	11.111	0.9	0.236	0.000	D	F	1832.7	0.220	0.195	-0.005	1503.357	1188.910	0.025	-	0.044	0.404	-	-	-	-	-	-	-	PAVEMENT_GENERAL	Urban	F	1011101000011101	0000000000000000	-	car	829.862	-190.269	0.000	0.000	180.000	696.000	987.000	-0.000	Terminate	
"Student14Mode3"	"Tanvi_6"	"Dec 01, 2016 07:26:08 AM"	Unknown	72.98479	11/01/0116 07:27.25	00004379	17.928	Inter615t9-0	-0.135	1	2	0.000	11.111	1.5	0.092	0.000	D	F	1507.5	0.486	0.187	-0.013	1503.458	1206.771	0.026	-	0.097	-0.068	-	-	-	-	-	-	-	PAVEMENT_GENERAL	Urban	F	1011101000011101	0000000000000000	-	car	834.473	-171.877	0.000	0.000	180.000	696.000	987.000	-0.000	Terminate	
"Student14Mode3"	"Tanvi_6"	"Dec 01, 2016 07:26:08 AM"	Unknown	73.98481	11/01/0116 07:27.26	00004439	17.574	Inter615t33-0	0.020	1	1	0.084	11.111	-2.4	0.111	0.000	D	F	1487.7	0.489	0.188	0.015	1503.621	1224.502	0.027	-	-0.098	-0.157	-	-	-	22	2.852	50.113	2.852	PAVEMENT_GENERAL	Urban	F	1011101000011101	0000000000000000	-	car	839.459	-164.540	0.000	0.000	180.000	696.000	987.000	-0.000	Terminate	
"Student14Mode3"	"Tanvi_6"	"Dec 01, 2016 07:26:08 AM"	Unknown	74.98483	11/01/0116 07:27.27	00004499	17.569	Inter615t33-0	0.087	1	1	0.087	11.111	-1.2	0.150	0.000	D	F	1624.2	0.142	0.193	0.010	1503.715	1242.054	0.026	-	-0.070	0.097	-	-	-	22	1.992	34.996	1.992	PAVEMENT_GENERAL	Urban	F	1011101000011101	0000000000000000	-	car	844.668	-158.422	0.000	0.000	180.000	696.000	987.000	-0.000	Terminate	
"Student14Mode3"	"Tanvi_6"	"Dec 01, 2016 07:26:08 AM"	Unknown	75.98486	11/01/0116 07:27.28	00004559	17.657	Inter615t33-0	0.066	1	1	0.061	11.111	0.6	0.182	0.000	D	F	1702.4	359.884	0.193	-0.000	1503.720	1259.667	0.026	-	-0.016	0.149	-	-	-	-	-	-	-	PAVEMENT_GENERAL	Urban	F	1011101000011101	0000000000000000	-	car	850.142	-151.442	0.000	0.000	180.000	696.000	987.000	-0.000	Terminate	
"Student14Mode3"	"Tanvi_6"	"Dec 01, 2016 07:26:08 AM"	Unknown	76.98487	11/01/0116 07:27.29	00004619	18.009	Inter615t11-1	0.044	2	2	0.000	11.111	1.0	0.249	0.000	D	F	1853.2	0.051	0.195	-0.008	1503.706	1277.485	0.025	-	0.060	0.413	-	-	-	-	-	-	-	PAVEMENT_GENERAL	Urban	F	1011101000011101	0000000000000000	-	car	855.994	-140.105	0.000	0.000	180.000	696.000	987.000	-0.000	Terminate	
"Student14Mode3"	"Tanvi_6"	"Dec 01, 2016 07:26:08 AM"	Unknown	77.98489	11/01/0116 07:27.30	00004679	18.473	Inter615t67-0	0.116	1	1	359.884	11.111	0.8	0.261	0.000	D	F	2152.6	0.264	0.194	-0.008	1503.750	1295.717	0.024	-	0.065	0.475	-	-	-	-	-	-	-	PAVEMENT_GENERAL	Urban	F	1011101000011101	0000000000000000	-	car	862.375	-129.201	0.000	0.000	180.000	696.000	987.000	-0.000	Terminate	
"Student14Mode3"	"Tanvi_6"	"Dec 01, 2016 07:26:08 AM"	Unknown	78.98492	11/01/0116 07:27.31	00004739	18.608	Inter615t67-0	0.255	1	1	359.884	11.111	0.5	0.079	0.000	D	F	1653.0	0.354	0.186	-0.003	1503.851	1314.333	0.027	-	0.021	-0.227	-	-	-	-	-	-	-	PAVEMENT_GENERAL	Urban	F	1011101000011101	0000000000000000	-	car	869.288	-122.535	0.000	0.000	180.000	696.000	987.000	-0.000	Terminate	
"Student14Mode3"	"Tanvi_6"	"Dec 01, 2016 07:26:08 AM"	Unknown	79.98493	11/01/0116 07:27.32	00004799	18.188	Inter615t49-0	0.383	1	1	0.005	11.111	0.1	0.000	0.000	D	F	1243.8	0.379	0.183	-0.002	1503.971	1332.773	0.029	-	0.004	-0.576	-	-	-	-	-	-	-	PAVEMENT_GENERAL	Urban	F	1011101000011101	0000000000000000	-	car	876.490	-120.626	0.000	0.000	180.000	696.000	987.000	-0.000	Terminate	
"Student14Mode3"	"Tanvi_6"	"Dec 01, 2016 07:26:08 AM"	Unknown	80.98495	11/01/0116 07:27.33	00004859	15.202	Inter615t49-0	0.508	1	1	0.008	11.111	3.1	0.000	0.331	D	F	991.1	0.607	0.099	-0.024	1504.098	1349.937	0.038	-	0.143	-4.436	-	-	-	-	-	-	-	PAVEMENT_GENERAL	Urban	F	1011101000011101	0000000000000000	-	car	883.499	-138.592	0.000	0.000	180.000	696.000	987.000	-0.000	Terminate	
"Student14Mode3"	"Tanvi_6"	"Dec 01, 2016 07:26:08 AM"	Unknown	81.98497	11/01/0116 07:27.34	00004919	9.852	Inter615t49-0	0.742	1	1	0.005	11.111	10.9	0.000	0.484	D	F	885.6	1.908	-0.029	-0.059	1504.333	1362.601	0.040	-	0.353	-5.883	-	-	-	-	-	-	-	PAVEMENT_GENERAL	Urban	F	1011101000011101	0000000000000000	-	car	888.976	-199.920	0.000	0.000	180.000	696.000	987.000	-0.000	Terminate	
"Student14Mode3"	"Tanvi_6"	"Dec 01, 2016 07:26:08 AM"	Unknown	82.98499	11/01/0116 07:27.35	00004979	4.016	Inter615t49-0	1.045	1	1	0.005	11.111	-39.7	0.000	0.385	D	F	477.5	2.724	0.014	0.089	1504.637	1369.437	0.040	-	-0.413	-5.100	-	-	-	-	-	-	-	PAVEMENT_GENERAL	Urban	F	1011101000011101	0000000000000000	-	car	892.153	-472.638	0.000	0.000	180.000	696.000	987.000	-0.000	Terminate	
"Student14Mode3"	"Tanvi_6"	"Dec 01, 2016 07:26:08 AM"	Unknown	83.98502	11/01/0116 07:27.36	00005039	2.518	Inter615t49-0	0.875	1	1	0.005	11.111	-204.1	0.000	0.000	D	F	477.5	355.805	0.194	0.095	1504.467	1372.322	0.028	-	-0.655	-0.440	-	-	-	-	-	-	-	PAVEMENT_GENERAL	Urban	F	1011101000011101	0000000000000000	-	car	893.237	-977.099	0.000	0.000	180.000	696.000	987.000	-0.000	Terminate	
"Student14Mode3"	"Tanvi_6"	"Dec 01, 2016 07:26:08 AM"	Unknown	84.98503	11/01/0116 07:27.37	00005099	2.052	Inter615t49-0	0.129	1	1	0.005	11.111	-321.9	0.000	0.000	D	F	550.1	342.738	0.182	0.063	1503.721	1374.519	0.028	-	-0.487	-0.616	-	-	-	-	-	-	-	PAVEMENT_GENERAL	Urban	F	1011101000011101	0000000000000000	-	car	893.511	-2992.159	0.000	0.000	180.000	696.000	987.000	-0.000	Terminate	
"Student14Mode3"	"Tanvi_6"	"Dec 01, 2016 07:26:08 AM"	Unknown	85.98505	11/01/0116 07:27.38	00005159	1.598	Inter615t49-0	-0.939	1	1	0.005	11.111	-350.4	0.000	0.000	D	F	477.5	329.166	0.182	0.038	1502.654	1376.026	0.028	-	-0.273	-0.453	-	-	-	-	-	-	-	PAVEMENT_GENERAL	Urban	F	1011101000011101	0000000000000000	-	car	893.202	6304.989	0.000	0.000	180.000	696.000	987.000	-0.000	Terminate	
"Student14Mode3"	"Tanvi_6"	"Dec 01, 2016 07:26:08 AM"	Unknown	86.98507	11/01/0116 07:27.39	00005219	1.297	-	-	SH-	1	-	-	-351.0	0.025	0.000	D	F	519.2	318.156	0.182	0.027	1501.565	1377.003	0.027	-	-0.180	-0.282	-	-	-	-	-	-	-	PAVEMENT_GENERAL	Urban	F	1011101000011101	0000000000000000	-	car	892.647	2495.458	0.000	0.000	180.000	696.000	987.000	-0.000	Terminate	
"Student14Mode3"	"Tanvi_6"	"Dec 01, 2016 07:26:08 AM"	Unknown	87.98509	11/01/0116 07:27.40	00005279	2.960	-	-	SH-	1	-	-	-350.9	0.113	0.000	D	F	1395.0	303.292	0.182	0.221	1499.865	1377.941	0.016	-	-1.458	1.794	-	-	-	-	-	-	-	PAVEMENT_GENERAL	Urban	F	1011101000011101	0000000000000000	-	car	891.527	588.752	0.000	0.000	180.000	696.000	987.000	-0.000	Terminate	
"Student14Mode3"	"Tanvi_6"	"Dec 01, 2016 07:26:08 AM"	Unknown	88.98512	11/01/0116 07:27.41	00005339	4.386	-Inter615t53-0	0.265	-1	1	180.006	11.111	-350.9	0.108	0.000	D	F	1515.4	275.169	0.171	0.358	1496.128	1378.495	0.021	-	-2.574	0.620	-	-	-	24	42.585	186.762	-	PAVEMENT_GENERAL	Urban	F	1011101000011101	0000000000000000	-	car	888.412	236.928	0.000	0.000	180.000	696.000	987.000	-0.000	Terminate	
"Student14Mode3"	"Tanvi_6"	"Dec 01, 2016 07:26:08 AM"	Unknown	89.98513	11/01/0116 07:27.42	00005399	5.160	Inter615t55-0	1.118	1	1	180.006	11.111	-350.8	0.069	0.000	D	F	1273.0	239.762	0.148	0.463	1491.675	1376.655	0.025	-	-3.403	-0.074	-	-	-	-	-	-	-	PAVEMENT_GENERAL	Urban	F	1011101000011101	0000000000000000	-	car	883.603	171.680	0.000	0.000	180.000	696.000	987.000	-0.000	Terminate	
"Student14Mode3"	"Tanvi_6"	"Dec 01, 2016 07:26:08 AM"	Unknown	90.98515	11/01/0116 07:27.43	00005459	5.501	-	-	SH	1	-	-	-349.3	0.134	0.000	D	F	1485.8	200.079	1.788	-3.232	1488.981	1372.158	0.042	-	-4.495	0.612	-	-	-	-	-	-	-	CURB	Urban	F	1011101000011101	0000000000000000	-	car	879.210	222.249	0.000	0.000	180.000	696.000	987.000	-0.000	Terminate	
"Student14Mode3"	"Tanvi_6"	"Dec 01, 2016 07:26:08 AM"	Unknown	91.98518	11/01/0116 07:27.44	00005519	6.382	-	-	SH	1	-	-	-268.2	0.139	0.000	D	F	1542.6	166.616	-2.145	0.126	1489.514	1366.272	0.031	-	-4.065	0.262	-	-	-	-	-	-	-	CURB	Urban	F	1011101000011101	0000000000000000	-	car	877.136	652.401	0.000	0.000	180.000	696.000	987.000	-0.000	Terminate	
"Student14Mode3"	"Tanvi_6"	"Dec 01, 2016 07:26:08 AM"	Unknown	92.98519	11/01/0116 07:27.45	00005579	7.379	Inter615t55-0	-0.138	1	1	180.007	11.111	-10.7	0.183	0.000	D	F	1669.6	145.733	0.220	-0.055	1492.929	1360.341	0.021	-	0.009	1.157	-	-	-	21	11.235	82.899	-	PAVEMENT_GENERAL	Urban	F	1011101000011101	0000000000000000	-	car	877.685	-746.784	0.000	0.000	180.000	696.000	987.000	-0.000	Terminate	
"Student14Mode3"	"Tanvi_6"	"Dec 01, 2016 07:26:08 AM"	Unknown	93.98521	11/01/0116 07:27.46	00005639	8.363	Inter615t51-0	1.663	1	1	176.158	11.111	122.0	0.141	0.000	D	F	1630.6	154.221	0.199	-0.368	1496.962	1353.542	0.023	-	2.750	0.641	-	-	-	21	10.880	90.995	-	PAVEMENT_GENERAL	Urban	F	1011101000011101	0000000000000000	-	car	878.489	-5063.034	0.000	0.000	180.000	696.000	987.000	-0.000	Terminate	
"Student14Mode3"	"Tanvi_6"	"Dec 01, 2016 07:26:08 AM"	Unknown	94.98523	11/01/0116 07:27.47	00005699	8.603	Inter615t51-0	0.506	1	1	176.843	11.111	177.4	0.042	0.000	D	F	1130.0	177.637	0.150	-0.559	1498.780	1345.242	0.029	-	4.211	-0.404	-	-	-	21	11.120	95.660	-	PAVEMENT_GENERAL	Urban	F	1011101000011101	0000000000000000	-	car	876.727	275.794	0.000	0.000	180.000	696.000	987.000	-0.000	Terminate	
"Student14Mode3"	"Tanvi_6"	"Dec 01, 2016 07:26:08 AM"	Unknown	95.98525	11/01/0116 07:27.48	00005759	8.010	Inter615t53-0	-0.510	1	1	180.005	11.111	24.9	0.000	0.099	D	F	779.3	201.277	0.162	0.034	1496.899	1337.191	0.029	-	0.440	-1.264	-	-	-	21	13.311	106.625	-	PAVEMENT_GENERAL	Urban	F	1011101000011101	0000000000000000	-	car	871.753	154.190	0.000	0.000	180.000	696.000	987.000	-0.000	Terminate	
"Student14Mode3"	"Tanvi_6"	"Dec 01, 2016 07:26:08 AM"	Unknown	96.98528	11/01/0116 07:27.49	00005819	6.093	Inter615t13-4	-1.559	3	3	180.000	11.111	-30.6	0.000	0.075	D	F	594.2	200.558	0.184	0.055	1494.347	1330.714	0.031	-	-0.439	-1.360	-	-	-	21	19.587	119.347	-	PAVEMENT_GENERAL	Urban	F	1011101000011101	0000000000000000	-	car	866.834	205.350	0.000	0.000	180.000	696.000	987.000	-0.000	Terminate	
"Student14Mode3"	"Tanvi_6"	"Dec 01, 2016 07:26:08 AM"	Unknown	97.98529	11/01/0116 07:27.50	00005879	4.952	Inter615t13-4	0.002	3	3	180.000	11.111	-94.3	0.000	0.072	D	F	484.4	193.953	0.177	0.126	1492.786	1325.402	0.030	-	-0.881	-1.326	-	-	-	-	-	-	-	PAVEMENT_GENERAL	Urban	F	1011101000011101	0000000000000000	-	car	863.310	289.925	0.000	0.000	180.000	696.000	987.000	-0.000	Terminate	
"Student14Mode3"	"Tanvi_6"	"Dec 01, 2016 07:26:08 AM"	Unknown	98.98531	11/01/0116 07:27.51	00005939	2.829	Inter615t13-4	0.541	3	3	180.000	11.111	-64.5	0.000	0.209	D	F	477.5	186.591	0.146	-0.010	1492.247	1321.393	0.033	-	0.000	-2.961	-	-	-	-	-	-	-	PAVEMENT_GENERAL	Urban	F	1011101000011101	0000000000000000	-	car	861.253	620.747	0.000	0.000	180.000	696.000	987.000	-0.000	Terminate	
"Student14Mode3"	"Tanvi_6"	"Dec 01, 2016 07:26:08 AM"	Unknown	99.98534	11/01/0116 07:27.52	00005999	0.000	Inter615t13-4	0.629	3	3	180.000	11.111	10.7	0.000	0.412	D	F	477.5	185.489	0.283	0.002	1492.159	1320.269	0.036	-	-0.003	-0.051	-	-	-	-	-	-	-	PAVEMENT_GENERAL	Urban	F	1111101000011101	0000000000000000	-	car	860.738	4266473.500	0.000	0.000	180.000	696.000	987.000	-0.000	Terminate	
"Student14Mode3"	"Tanvi_6"	"Dec 01, 2016 07:26:08 AM"	Unknown	100.98535	11/01/0116 07:27.53	00006059	0.001	Inter615t13-4	0.629	3	3	180.000	11.111	140.3	0.090	0.000	D	F	771.5	185.491	0.228	-0.003	1492.159	1320.271	0.030	-	0.002	0.019	-	-	-	-	-	-	-	PAVEMENT_GENERAL	Urban	F	1011101000011101	0000000000000000	-	car	860.739	1415041.375	0.000	0.000	180.000	696.000	987.000	-0.000	Terminate	
"Student14Mode3"	"Tanvi_6"	"Dec 01, 2016 07:26:08 AM"	Unknown	101.98537	11/01/0116 07:27.54	00006119	2.931	Inter615t13-4	0.923	3	3	180.000	11.111	219.4	0.286	0.000	D	F	1736.3	190.949	0.172	-0.099	1491.865	1319.286	0.005	-	1.086	4.146	-	-	-	-	-	-	-	PAVEMENT_GENERAL	Urban	F	1011101000011101	0000000000000000	-	car	860.088	530.080	0.000	0.000	180.000	696.000	987.000	-0.000	Terminate	
"Student14Mode3"	"Tanvi_6"	"Dec 01, 2016 07:26:08 AM"	Unknown	102.98539	11/01/0116 07:27.55	00006179	6.311	-	-	INT	0	-	-	167.0	0.351	0.000	D	F	2236.4	210.458	0.224	-0.273	1489.727	1315.085	0.013	-	2.141	2.827	-	-	-	-	-	-	-	PAVEMENT_GENERAL	Urban	F	1011101000011101	0000000000000000	-	car	856.502	170.130	0.000	0.000	180.000	696.000	987.000	-0.000	Terminate	
"Student14Mode3"	"Tanvi_6"	"Dec 01, 2016 07:26:08 AM"	Unknown	103.98541	11/01/0116 07:27.56	00006239	9.044	-	-	INT	0	-	-	134.8	0.367	0.000	D	F	2882.4	232.770	0.234	-0.404	1484.279	1309.685	0.016	-	3.223	2.525	-	-	-	-	-	-	-	PAVEMENT_GENERAL	Urban	F	1011101000011101	0000000000000000	-	car	849.409	97.221	0.000	0.000	180.000	696.000	987.000	-0.000	Terminate	
"Student14Mode3"	"Tanvi_6"	"Dec 01, 2016 07:26:08 AM"	Unknown	104.98544	11/01/0116 07:27.57	00006299	11.249	Inter615t3-4	-1.730	2	2	270.000	11.111	114.8	0.349	0.000	D	F	2258.2	254.051	0.213	-0.517	1475.003	1305.401	0.022	-	4.013	1.455	-	-	-	-	-	-	-	PAVEMENT_GENERAL	Urban	F	1011101000011101	0000000000000000	-	car	839.201	75.055	0.000	0.000	180.000	696.000	987.000	-0.000	Terminate	
"Student14Mode3"	"Tanvi_6"	"Dec 01, 2016 07:26:08 AM"	Unknown	105.98545	11/01/0116 07:27.58	00006359	12.596	Inter615t19-0	0.664	1	1	270.074	11.111	30.7	0.326	0.000	D	F	2310.3	271.224	0.186	-0.192	1463.176	1304.199	0.021	-	1.786	1.341	-	-	-	-	-	-	-	PAVEMENT_GENERAL	Urban	F	1011101000011101	0000000000000000	-	car	827.806	71.767	0.000	0.000	180.000	696.000	987.000	-0.000	Terminate	
"Student14Mode3"	"Tanvi_6"	"Dec 01, 2016 07:26:08 AM"	Unknown	106.98547	11/01/0116 07:27.59	00006419	13.935	Inter615t19-0	1.136	1	1	270.112	11.111	-22.0	0.346	0.000	D	F	2482.3	271.285	0.209	0.125	1449.921	1304.686	0.020	-	-0.911	1.336	-	-	-	-	-	-	-	PAVEMENT_GENERAL	Urban	F	1011101000011101	0000000000000000	-	car	815.761	64.148	0.000	0.000	180.000	696.000	987.000	-0.000	Terminate	
"Student14Mode3"	"Tanvi_6"	"Dec 01, 2016 07:26:08 AM"	Unknown	107.98550	11/01/0116 07:28.00	00006479	15.241	Inter615t19-0	0.916	1	1	270.066	11.111	-2.7	0.332	0.000	D	F	2647.3	267.691	0.205	0.036	1435.334	1304.495	0.021	-	-0.345	1.300	-	-	-	-	-	-	-	PAVEMENT_GENERAL	Urban	F	1011101000011101	0000000000000000	-	car	802.263	56.358	0.000	0.000	180.000	696.000	987.000	-0.000	Terminate	
"Student14Mode3"	"Tanvi_6"	"Dec 01, 2016 07:26:08 AM"	Unknown	108.98551	11/01/0116 07:28.01	00006539	16.519	Inter615t19-0	0.260	1	1	270.061	11.111	4.1	0.335	0.000	D	F	2836.3	267.867	0.204	-0.025	1419.463	1303.857	0.021	-	0.184	1.257	-	-	-	-	-	-	-	PAVEMENT_GENERAL	Urban	F	1011101000011101	0000000000000000	-	car	787.448	51.241	0.000	0.000	180.000	696.000	987.000	-0.000	Terminate	
"Student14Mode3"	"Tanvi_6"	"Dec 01, 2016 07:26:08 AM"	Unknown	109.98553	11/01/0116 07:28.02	00006599	17.712	Inter615t1-2	-0.219	1	2	270.000	11.111	7.5	0.319	0.000	D	F	2992.0	269.188	0.202	-0.060	1402.344	1303.381	0.021	-	0.457	1.158	-	-	-	-	-	-	-	PAVEMENT_GENERAL	Urban	F	1011101000011101	0000000000000000	-	car	771.604	47.439	0.000	0.000	180.000	696.000	987.000	-0.000	Terminate	
"Student14Mode3"	"Tanvi_6"	"Dec 01, 2016 07:26:08 AM"	Unknown	110.98555	11/01/0116 07:28.03	00006659	18.339	Inter616t1-2	-0.297	1	2	270.000	11.111	2.8	0.000	0.000	D	F	1582.8	270.330	0.173	-0.028	1384.160	1303.309	0.027	-	0.227	-0.500	-	-	-	-	-	-	-	PAVEMENT_GENERAL	Urban	F	1011101000011101	0000000000000000	-	car	755.015	45.432	0.000	0.000	180.000	696.000	987.000	-0.000	Terminate	
"Student14Mode3"	"Tanvi_6"	"Dec 01, 2016 07:26:08 AM"	Unknown	111.98557	11/01/0116 07:28.04	00006719	17.896	Inter616t1-2	-0.151	1	2	270.000	11.111	-3.6	0.081	0.000	D	F	1416.9	270.399	0.187	0.027	1366.074	1303.456	0.028	-	-0.183	-0.265	-	-	-	-	-	-	-	PAVEMENT_GENERAL	Urban	F	1011101000011101	0000000000000000	-	car	738.683	45.798	0.000	0.000	180.000	696.000	987.000	-0.000	Terminate	
"Student14Mode3"	"Tanvi_6"	"Dec 01, 2016 07:26:08 AM"	Unknown	112.98560	11/01/0116 07:28.05	00006779	17.713	Inter616t1-2	-0.133	1	2	270.000	11.111	-1.3	0.111	0.000	D	F	1513.3	269.690	0.190	0.019	1348.284	1303.474	0.027	-	-0.132	-0.107	-	-	-	-	-	-	-	PAVEMENT_GENERAL	Urban	F	1111101000011101	0000000000000000	-	car	722.644	45.227	0.000	0.000	180.000	696.000	987.000	-0.000	Terminate	
"Student14Mode3"	"Tanvi_6"	"Dec 01, 2016 07:26:08 AM"	Unknown	113.98561	11/01/0116 07:28.06	00006839	17.622	Inter616t1-2	-0.227	1	2	270.000	11.111	1.8	0.106	0.000	D	F	1512.7	269.806	0.191	-0.014	1330.617	1303.380	0.027	-	0.104	-0.081	-	-	-	-	-	-	-	PAVEMENT_GENERAL	Urban	F	1011101000011101	0000000000000000	-	car	706.749	44.738	0.000	0.000	180.000	696.000	987.000	-0.000	Terminate	
"Student14Mode3"	"Tanvi_6"	"Dec 01, 2016 07:26:08 AM"	Unknown	114.98563	11/01/0116 07:28.07	00006899	17.543	Inter616t1-2	-0.234	1	2	270.000	11.111	1.8	0.113	0.000	D	F	1527.6	270.254	0.190	-0.020	1313.036	1303.373	0.027	-	0.147	-0.083	-	-	-	-	-	-	-	PAVEMENT_GENERAL	Urban	F	1011101000011101	0000000000000000	-	car	691.056	44.370	0.000	0.000	180.000	696.000	987.000	-0.000	Terminate	
"Student14Mode3"	"Tanvi_6"	"Dec 01, 2016 07:26:08 AM"	Unknown	115.98566	11/01/0116 07:28.08	00006959	17.463	Inter616t1-2	-0.126	1	2	270.000	11.111	0.2	0.111	0.000	D	F	1514.1	270.435	0.191	-0.002	1295.533	1303.480	0.027	-	0.022	-0.080	-	-	-	-	-	-	-	PAVEMENT_GENERAL	Urban	F	1011101000011101	0000000000000000	-	car	675.578	43.922	0.000	0.000	180.000	696.000	987.000	-0.000	Terminate	
"Student14Mode3"	"Tanvi_6"	"Dec 01, 2016 07:26:08 AM"	Unknown	116.98567	11/01/0116 07:28.09	00007019	17.387	Inter616t1-2	0.009	1	2	270.000	11.111	-1.0	0.104	0.000	D	F	1506.8	270.447	0.191	0.006	1278.109	1303.616	0.027	-	-0.032	-0.073	-	-	-	-	-	-	-	PAVEMENT_GENERAL	Urban	F	1011101000011101	0000000000000000	-	car	660.284	43.415	0.000	0.000	180.000	696.000	987.000	-0.000	Terminate	
"Student14Mode3"	"Tanvi_6"	"Dec 01, 2016 07:26:08 AM"	Unknown	117.98569	11/01/0116 07:28.10	00007079	17.319	Inter616t1-2	0.113	1	2	270.000	11.111	-1.0	0.115	0.000	D	F	1528.5	270.210	0.191	0.010	1260.758	1303.720	0.027	-	-0.070	-0.060	-	-	-	-	-	-	-	PAVEMENT_GENERAL	Urban	F	1011101000011101	0000000000000000	-	car	645.146	42.797	0.000	0.000	180.000	696.000	987.000	-0.000	Terminate	
"Student14Mode3"	"Tanvi_6"	"Dec 01, 2016 07:26:08 AM"	Unknown	118.98571	11/01/0116 07:28.11	00007139	17.259	Inter616t1-2	0.148	1	2	270.000	11.111	-1.2	0.116	0.000	D	F	1526.8	269.987	0.191	0.009	1243.469	1303.755	0.027	-	-0.070	-0.058	-	-	-	-	-	-	-	PAVEMENT_GENERAL	Urban	F	1011101000011101	0000000000000000	-	car	630.140	42.175	0.000	0.000	180.000	696.000	987.000	-0.000	Terminate	
"Student14Mode3"	"Tanvi_6"	"Dec 01, 2016 07:26:08 AM"	Unknown	119.98573	11/01/0116 07:28.12	00007199	17.211	Inter616t1-2	0.111	1	2	270.000	11.111	-0.7	0.113	0.000	D	F	1527.3	269.747	0.192	0.008	1226.234	1303.718	0.027	-	-0.054	-0.038	-	-	-	-	-	-	-	PAVEMENT_GENERAL	Urban	F	1011101000011101	0000000000000000	-	car	615.264	41.531	0.000	0.000	180.000	696.000	987.000	-0.000	Terminate	
"Student14Mode3"	"Tanvi_6"	"Dec 01, 2016 07:26:08 AM"	Unknown	120.98576	11/01/0116 07:28.13	00007259	17.170	Inter616t1-2	0.032	1	2	270.000	11.111	0.0	0.120	0.000	D	F	1538.2	269.733	0.191	0.000	1209.045	1303.639	0.027	-	0.001	-0.039	-	-	-	-	-	-	-	PAVEMENT_GENERAL	Urban	F	1011101000011101	0000000000000000	-	car	600.529	40.983	0.000	0.000	180.000	696.000	987.000	-0.000	Terminate	
"Student14Mode3"	"Tanvi_6"	"Dec 01, 2016 07:26:08 AM"	Unknown	121.98577	11/01/0116 07:28.14	00007319	17.137	Inter617t1-2	-0.046	1	2	270.000	11.111	0.4	0.120	0.000	D	F	1524.9	269.757	0.191	-0.003	1191.891	1303.561	0.027	-	0.019	-0.042	-	-	-	-	-	-	-	PAVEMENT_GENERAL	Urban	F	1011101000011101	0000000000000000	-	car	585.959	40.457	0.000	0.000	180.000	696.000	987.000	-0.000	Terminate	
"Student14Mode3"	"Tanvi_6"	"Dec 01, 2016 07:26:08 AM"	Unknown	122.98579	11/01/0116 07:28.15	00007379	16.823	Inter617t1-2	-0.099	1	2	270.000	11.111	1.1	0.000	0.000	D	F	1147.2	269.928	0.185	-0.010	1174.850	1303.508	0.029	-	0.069	-0.557	-	-	-	-	-	-	-	PAVEMENT_GENERAL	Urban	F	1011101000011101	0000000000000000	-	car	571.640	40.697	0.000	0.000	180.000	696.000	987.000	-0.000	Terminate	
"Student14Mode3"	"Tanvi_6"	"Dec 01, 2016 07:26:08 AM"	Unknown	123.98581	11/01/0116 07:28.16	00007439	16.271	Inter617t1-2	-0.085	1	2	270.000	11.111	-3.8	0.000	0.000	D	F	1109.6	270.094	0.187	0.019	1158.304	1303.522	0.029	-	-0.126	-0.548	-	-	-	-	-	-	-	PAVEMENT_GENERAL	Urban	F	1011101000011101	0000000000000000	-	car	557.918	41.603	0.000	0.000	180.000	696.000	987.000	-0.000	Terminate	
"Student14Mode3"	"Tanvi_6"	"Dec 01, 2016 07:26:08 AM"	Unknown	124.98583	11/01/0116 07:28.17	00007499	15.725	Inter617t1-2	-0.211	1	2	270.000	11.111	-3.3	0.000	0.000	D	F	1072.4	268.934	0.188	0.032	1142.307	1303.396	0.029	-	-0.259	-0.542	-	-	-	-	-	-	-	PAVEMENT_GENERAL	Urban	F	1011101000011101	0000000000000000	-	car	544.720	41.917	0.000	0.000	180.000	696.000	987.000	-0.000	Terminate	
"Student14Mode3"	"Tanvi_6"	"Dec 01, 2016 07:26:08 AM"	Unknown	125.98586	11/01/0116 07:28.18	00007559	15.187	Inter617t1-2	-0.591	1	2	270.000	11.111	-1.3	0.000	0.000	D	F	1035.7	268.230	0.189	0.016	1126.857	1303.016	0.029	-	-0.127	-0.535	-	-	-	-	-	-	-	PAVEMENT_GENERAL	Urban	F	1011101000011101	0000000000000000	-	car	531.966	42.498	0.000	0.000	180.000	696.000	987.000	-0.000	Terminate	
"Student14Mode3"	"Tanvi_6"	"Dec 01, 2016 07:26:08 AM"	Unknown	126.98587	11/01/0116 07:28.19	00007619	14.656	Inter617t1-2	-1.073	1	2	270.000	11.111	4.1	0.000	0.000	D	F	999.6	268.199	0.190	-0.024	1111.944	1302.534	0.029	-	0.164	-0.528	-	-	-	-	-	-	-	PAVEMENT_GENERAL	Urban	F	1011101000011101	0000000000000000	-	car	519.724	43.496	0.000	0.000	180.000	696.000	987.000	-0.000	Terminate	
"Student14Mode3"	"Tanvi_6"	"Dec 01, 2016 07:26:08 AM"	Unknown	127.98589	11/01/0116 07:28.20	00007679	14.131	Inter617t1-2	-1.381	1	2	270.000	11.111	4.9	0.000	0.000	D	F	963.7	269.455	0.190	-0.041	1097.555	1302.226	0.029	-	0.312	-0.522	-	-	-	-	-	-	-	PAVEMENT_GENERAL	Urban	F	1011101000011101	0000000000000000	-	car	508.144	45.380	0.000	0.000	180.000	696.000	987.000	-0.000	Terminate	
"Student14Mode3"	"Tanvi_6"	"Dec 01, 2016 07:26:08 AM"	Unknown	128.98592	11/01/0116 07:28.21	00007739	13.823	Inter617t1-2	-1.372	1	2	270.000	11.111	2.8	0.016	0.000	D	F	971.3	270.639	0.188	-0.025	1083.582	1302.235	0.028	-	0.206	-0.421	-	-	-	-	-	-	-	PAVEMENT_GENERAL	Urban	F	1011101000011101	0000000000000000	-	car	497.233	46.795	0.000	0.000	180.000	696.000	987.000	-0.000	Terminate	
"Student14Mode3"	"Tanvi_6"	"Dec 01, 2016 07:26:08 AM"	Unknown	129.98593	11/01/0116 07:28.22	00007799	13.345	Inter617t1-2	-1.150	1	2	270.000	11.111	3.8	0.000	0.000	D	F	910.2	271.299	0.191	-0.025	1069.989	1302.457	0.029	-	0.194	-0.512	-	-	-	-	-	-	-	PAVEMENT_GENERAL	Urban	F	1011101000011101	0000000000000000	-	car	486.906	48.675	0.000	0.000	180.000	696.000	987.000	-0.000	Terminate	
"Student14Mode3"	"Tanvi_6"	"Dec 01, 2016 07:26:08 AM"	Unknown	130.98595	11/01/0116 07:28.23	00007859	12.571	Inter617t1-2	-0.777	1	2	270.000	11.111	-0.7	0.000	0.107	D	F	1134.8	271.846	0.154	-0.001	1056.945	1302.830	0.030	-	0.009	-1.804	-	-	-	-	-	-	-	PAVEMENT_GENERAL	Urban	F	1011101000011101	0000000000000000	-	car	477.255	51.938	0.000	0.000	180.000	696.000	987.000	-0.000	Terminate	
"Student14Mode3"	"Tanvi_6"	"Dec 01, 2016 07:26:08 AM"	Unknown	131.98598	11/01/0116 07:28.24	00007919	10.147	Inter617t1-2	-0.439	1	2	270.000	11.111	-3.1	0.000	0.167	D	F	972.9	271.462	0.159	0.013	1045.528	1303.167	0.033	-	-0.102	-2.628	-	-	-	-	-	-	-	PAVEMENT_GENERAL	Urban	F	1011101000011101	0000000000000000	-	car	468.949	63.809	0.000	0.000	180.000	696.000	987.000	-0.000	Terminate	
"Student14Mode3"	"Tanvi_6"	"Dec 01, 2016 07:26:08 AM"	Unknown	132.98599	11/01/0116 07:28.25	00007979	7.412	Inter617t1-2	-0.254	1	2	270.000	11.111	-0.9	0.000	0.185	D	F	710.5	271.035	0.159	0.000	1036.731	1303.352	0.034	-	-0.020	-2.770	-	-	-	-	-	-	-	PAVEMENT_GENERAL	Urban	F	1011101000011101	0000000000000000	-	car	462.588	86.625	0.000	0.000	180.000	696.000	987.000	-0.000	Terminate	
"Student14Mode3"	"Tanvi_6"	"Dec 01, 2016 07:26:08 AM"	Unknown	133.98601	11/01/0116 07:28.26	00008039	5.990	Inter617t1-2	-0.143	1	2	270.000	11.111	-0.0	0.000	0.000	D	F	588.7	270.969	0.200	-0.002	1030.297	1303.464	0.028	-	0.005	-0.461	-	-	-	-	-	-	-	PAVEMENT_GENERAL	Urban	F	1011101000011101	0000000000000000	-	car	457.971	107.009	0.000	0.000	180.000	696.000	987.000	-0.000	Terminate	
"Student14Mode3"	"Tanvi_6"	"Dec 01, 2016 07:26:08 AM"	Unknown	134.98604	11/01/0116 07:28.27	00008099	6.104	Inter617t1-2	-0.044	1	2	270.000	11.111	-0.4	0.132	0.000	D	F	1427.3	270.943	0.207	0.001	1024.394	1303.562	0.022	-	-0.004	0.842	-	-	-	-	-	-	-	PAVEMENT_GENERAL	Urban	F	1011101000011101	0000000000000000	-	car	453.770	104.943	0.000	0.000	180.000	696.000	987.000	-0.000	Terminate	
"Student14Mode3"	"Tanvi_6"	"Dec 01, 2016 07:26:08 AM"	Unknown	135.98605	11/01/0116 07:28.28	00008159	7.232	Inter617t1-2	0.061	1	2	270.000	11.111	-0.2	0.199	0.000	D	F	1709.6	270.902	0.216	0.001	1017.766	1303.668	0.020	-	-0.004	1.332	-	-	-	-	-	-	-	PAVEMENT_GENERAL	Urban	F	1011101000011101	0000000000000000	-	car	449.096	88.514	0.000	0.000	180.000	696.000	987.000	-0.000	Terminate	
"Student14Mode3"	"Tanvi_6"	"Dec 01, 2016 07:26:08 AM"	Unknown	136.98607	11/01/0116 07:28.29	00008219	8.720	Inter617t1-2	0.183	1	2	270.000	11.111	-1.3	0.228	0.000	D	F	1880.4	270.850	0.214	0.004	1009.788	1303.790	0.020	-	-0.029	1.429	-	-	-	-	-	-	-	PAVEMENT_GENERAL	Urban	F	1011101000011101	0000000000000000	-	car	443.532	73.381	0.000	0.000	180.000	696.000	987.000	-0.000	Terminate	
"Student14Mode3"	"Tanvi_6"	"Dec 01, 2016 07:26:08 AM"	Unknown	137.98610	11/01/0116 07:28.30	00008279	10.078	Inter617t1-2	0.303	1	2	270.000	11.111	-0.2	0.256	0.000	D	F	2004.2	270.660	0.212	0.001	1000.381	1303.910	0.020	-	-0.011	1.310	-	-	-	32	2.702	27.227	-	PAVEMENT_GENERAL	Urban	F	1011101000011101	0000000000000000	-	car	437.049	63.371	0.000	0.000	180.000	696.000	987.000	-0.000	Terminate	
"Student14Mode3"	"Tanvi_6"	"Dec 01, 2016 07:26:08 AM"	Unknown	138.98611	11/01/0116 07:28.31	00008339	11.424	Inter618t1-0	-0.285	1	2	269.966	24.444	-3.2	0.309	0.000	D	F	2169.3	270.366	0.268	-0.061	989.641	1304.014	0.025	-	-0.121	1.382	-	-	-	32	2.705	30.903	-	FREEWAY_SMOOTH	Urban	F	1011101000011101	0000000000000000	-	car	429.755	55.744	0.000	0.000	180.000	696.000	987.000	-0.000	Terminate	
"Student14Mode3"	"Tanvi_6"	"Dec 01, 2016 07:26:08 AM"	Unknown	139.98613	11/01/0116 07:28.32	00008399	12.754	Inter618t1-0	-0.251	1	2	269.679	24.444	-3.2	0.319	0.000	D	F	2322.4	269.700	0.266	-0.227	977.547	1304.017	0.037	-	-0.156	1.313	-	-	-	32	2.573	32.811	-	FREEWAY_SMOOTH	Urban	F	1011101000011101	0000000000000000	-	car	421.632	49.495	0.000	0.000	180.000	696.000	987.000	-0.000	Terminate	
"Student14Mode3"	"Tanvi_6"	"Dec 01, 2016 07:26:08 AM"	Unknown	140.98616	11/01/0116 07:28.33	00008459	14.130	Inter618t1-0	-0.287	1	2	269.026	24.444	-4.9	0.383	0.000	D	F	2517.5	268.757	0.261	-0.403	964.113	1303.840	0.049	-	-0.264	1.393	-	-	-	32	2.508	35.434	-	FREEWAY_SMOOTH	Urban	F	1011101000011101	0000000000000000	-	car	412.697	44.096	0.000	0.000	180.000	696.000	987.000	-0.000	Terminate	
"Student14Mode3"	"Tanvi_6"	"Dec 01, 2016 07:26:08 AM"	Unknown	141.98618	11/01/0116 07:28.34	00008519	15.502	Inter618t1-0	-0.405	1	2	267.890	24.444	-10.2	0.390	0.000	D	F	2695.0	267.166	0.253	-0.563	949.303	1303.338	0.062	-	-0.581	1.359	-	-	-	32	2.485	38.516	-	FREEWAY_SMOOTH	Urban	F	1011101000011101	0000000000000000	-	car	402.897	39.208	0.000	0.000	180.000	696.000	987.000	-0.000	Terminate	
"Student14Mode3"	"Tanvi_6"	"Dec 01, 2016 07:26:08 AM"	Unknown	142.98619	11/01/0116 07:28.35	00008579	16.864	Inter618t1-0	-0.621	1	2	266.159	24.444	-6.9	0.407	0.000	D	F	2898.6	265.629	0.247	-0.810	933.151	1302.303	0.074	-	-0.437	1.348	-	-	-	32	2.449	41.303	-	FREEWAY_SMOOTH	Urban	F	1011101000011101	0000000000000000	-	car	392.174	35.221	0.000	0.000	180.000	696.000	987.000	-0.000	Terminate	
"Student14Mode3"	"Tanvi_6"	"Dec 01, 2016 07:26:08 AM"	Unknown	143.98621	11/01/0116 07:28.36	00008639	18.190	Inter618t1-0	-0.684	1	2	263.710	24.444	-9.1	0.407	0.000	D	F	3087.8	263.925	0.256	-1.031	915.691	1300.719	0.089	-	-0.619	1.305	-	-	-	32	2.382	43.335	-	FREEWAY_SMOOTH	Urban	F	1011101000011101	0000000000000000	-	car	380.634	31.845	0.000	0.000	180.000	696.000	987.000	-0.000	Terminate	
"Student14Mode3"	"Tanvi_6"	"Dec 01, 2016 07:26:08 AM"	Unknown	144.98624	11/01/0116 07:28.37	00008699	19.454	Inter618t1-0	-0.495	1	2	260.416	24.444	-17.9	0.390	0.000	D	F	3255.0	261.111	0.264	-1.211	897.014	1298.341	0.110	-	-1.221	1.227	-	-	-	32	2.273	44.214	-	FREEWAY_SMOOTH	Urban	F	1011101000011101	0000000000000000	-	car	368.235	28.433	0.000	0.000	180.000	696.000	987.000	-0.000	Terminate	
"Student14Mode3"	"Tanvi_6"	"Dec 01, 2016 07:26:08 AM"	Unknown	145.98625	11/01/0116 07:28.38	00008759	20.623	Inter618t1-0	-0.269	1	2	256.161	24.444	-24.5	0.312	0.000	D	F	2748.8	256.202	0.241	-1.399	877.336	1294.538	0.135	-	-1.964	0.961	-	-	-	32	2.146	44.252	87.329	FREEWAY_SMOOTH	Urban	F	1011101000011101	0000000000000000	-	car	354.659	24.613	0.000	0.000	180.000	696.000	987.000	-0.000	Terminate	
"Student14Mode3"	"Tanvi_6"	"Dec 01, 2016 07:26:08 AM"	Unknown	146.98627	11/01/0116 07:28.39	00008819	21.145	Inter618t1-0	-0.280	1	2	251.076	24.444	-16.4	0.169	0.000	D	F	2283.2	250.478	0.154	-1.534	857.261	1288.662	0.146	-	-1.802	0.188	-	-	-	32	2.056	43.483	42.257	FREEWAY_SMOOTH	Urban	F	1011101000011101	0000000000000000	-	car	339.701	21.738	0.000	0.000	180.000	696.000	987.000	-0.000	Terminate	
"Student14Mode3"	"Tanvi_6"	"Dec 01, 2016 07:26:08 AM"	Unknown	147.98630	11/01/0116 07:28.40	00008879	20.633	Inter618t1-0	-0.280	1	2	245.949	24.444	-20.9	0.000	0.000	D	F	1417.6	245.659	0.156	-1.492	837.770	1281.023	0.151	-	-2.002	-0.619	-	-	-	32	2.071	42.734	82.587	FREEWAY_SMOOTH	Urban	F	1011101000011101	0000000000000000	-	car	324.058	20.477	0.000	0.000	180.000	696.000	987.000	-0.000	Terminate	
"Student14Mode3"	"Tanvi_6"	"Dec 01, 2016 07:26:08 AM"	Unknown	148.98631	11/01/0116 07:28.41	00008939	19.996	Inter618t1-0	-0.411	1	2	240.983	24.444	-16.3	0.000	0.000	D	F	1363.2	239.849	0.133	-1.518	819.648	1271.860	0.147	-	-1.855	-0.612	-	-	-	32	2.134	42.666	-	FREEWAY_SMOOTH	Urban	F	1011101000011101	0000000000000000	-	car	308.179	19.144	0.000	0.000	180.000	696.000	987.000	-0.000	Terminate	
"Student14Mode3"	"Tanvi_6"	"Dec 01, 2016 07:26:08 AM"	Unknown	149.98633	11/01/0116 07:28.42	00008999	19.383	Inter618t1-0	-0.672	1	2	236.169	24.444	-15.0	0.000	0.000	D	F	1321.6	235.296	0.148	-1.558	802.975	1261.397	0.139	-	-1.515	-0.599	-	-	-	32	2.210	42.839	-	FREEWAY_SMOOTH	Urban	F	1011101000011101	0000000000000000	-	car	292.153	18.180	0.000	0.000	180.000	696.000	987.000	-0.000	Terminate	
"Student14Mode3"	"Tanvi_6"	"Dec 01, 2016 07:26:08 AM"	Unknown	150.98636	11/01/0116 07:28.43	00009059	18.783	Inter618t1-0	-0.826	1	2	231.460	24.444	-13.9	0.000	0.000	D	F	1280.8	231.125	0.163	-1.583	787.652	1250.030	0.134	-	-1.337	-0.589	-	-	-	32	2.331	43.786	-	FREEWAY_SMOOTH	Urban	F	1011101000011101	0000000000000000	-	car	276.181	17.323	0.000	0.000	180.000	696.000	987.000	-0.000	Terminate	
"Student14Mode3"	"Tanvi_6"	"Dec 01, 2016 07:26:08 AM"	Unknown	151.98637	11/01/0116 07:28.44	00009119	18.191	Inter618t1-0	-0.812	1	2	226.942	24.444	-14.1	0.000	0.000	D	F	1240.4	227.130	0.181	-1.590	773.633	1237.984	0.134	-	-1.284	-0.579	-	-	-	32	2.500	45.482	-	FREEWAY_SMOOTH	Urban	F	1011101000011101	0000000000000000	-	car	260.357	16.517	0.000	0.000	180.000	696.000	987.000	-0.000	Terminate	
"Student14Mode3"	"Tanvi_6"	"Dec 01, 2016 07:26:08 AM"	Unknown	152.98639	11/01/0116 07:28.45	00009179	17.657	Inter618t1-0	-0.667	1	2	222.552	24.444	-14.8	0.030	0.000	D	F	1264.7	223.078	0.197	-1.589	760.907	1225.383	0.138	-	-1.280	-0.454	-	-	-	32	2.701	47.686	-	FREEWAY_SMOOTH	Urban	F	1011101000011101	0000000000000000	-	car	244.702	15.674	0.000	0.000	180.000	696.000	987.000	-0.000	Terminate	
"Student14Mode3"	"Tanvi_6"	"Dec 01, 2016 07:26:08 AM"	Unknown	153.98642	11/01/0116 07:28.46	00009239	17.233	Inter618t1-0	-0.482	1	2	218.275	24.444	-16.6	0.041	0.000	D	F	1279.8	218.725	0.194	-1.578	749.447	1212.243	0.143	-	-1.368	-0.378	-	-	-	32	2.923	50.365	-	FREEWAY_SMOOTH	Urban	F	1011101000011101	0000000000000000	-	car	229.137	14.716	0.000	0.000	180.000	696.000	987.000	-0.000	Terminate	
"Student14Mode3"	"Tanvi_6"	"Dec 01, 2016 07:26:08 AM"	Unknown	154.98643	11/01/0116 07:28.47	00009299	16.904	Inter618t1-0	-0.396	1	2	214.076	24.444	-16.7	0.076	0.000	D	F	1382.4	214.054	0.182	-1.580	739.294	1198.544	0.145	-	-1.362	-0.230	-	-	-	32	3.140	53.076	-	FREEWAY_SMOOTH	Urban	F	1011101000011101	0000000000000000	-	car	213.569	13.674	0.000	0.000	180.000	696.000	987.000	-0.000	Terminate	
"Student14Mode3"	"Tanvi_6"	"Dec 01, 2016 07:26:08 AM"	Unknown	155.98645	11/01/0116 07:28.48	00009359	16.826	Inter618t1-0	-0.431	1	2	209.953	24.444	-15.4	0.152	0.000	D	F	1610.0	209.798	0.183	-1.605	730.373	1184.261	0.143	-	-1.171	0.086	-	-	-	32	3.349	56.350	-	FREEWAY_SMOOTH	Urban	F	1011101000011101	0000000000000000	-	car	197.874	12.508	0.000	0.000	180.000	696.000	987.000	-0.000	Terminate	
