ZoneName	Time	SystemTime	Frame	Velocity	LaneName	LanePos	LaneIndex	LaneCount	LaneHeading	SpeedLimit	Steer	Accel	Brake	Gear	Horn	SubjectEngineRPM	SubjectHeading	SubjectPitch	SubjectRoll	SubjectX	SubjectY	SubjectZ	Signal	LatAccel	LongAccel	Collision	CollisionAngle	CollisionVelocity	VehAhead	HeadwayTime	HeadwayDist	TTC	TerrainType	CultureType	Slip	DigitalInputs	DigitalInputs2	ActiveTrigger	EntityName	DistToEntity	TimeToEntity	EntityVelocity	EntityAccel	EntityHeading	EntityX	EntityY	EntityZ	GrabData	
Unknown	0.98335	10/22/0116 08:04.12	00000059	0.003	Inter625t13-0	-0.089	1	2	0.000	11.111	-218.4	0.000	0.000	P	F	0.0	359.946	0.169	0.067	1503.499	523.205	0.020	-	0.004	0.003	-	-	-	-	-	-	-	PAVEMENT_GENERAL	Urban	F	1011101000000001	0000000000000000	-	-	-	-	-	-	-	-	-	-	Terminate	
Unknown	1.98337	10/22/0116 08:04.13	00000119	0.001	Inter625t13-0	-0.087	1	2	0.000	11.111	-218.4	0.000	0.000	P	F	0.0	0.000	0.202	0.003	1503.501	523.207	0.026	-	-0.000	-0.001	-	-	-	-	-	-	-	PAVEMENT_GENERAL	Urban	F	1111101000000001	0000000000000000	-	-	-	-	-	-	-	-	-	-	Terminate	
Unknown	2.98339	10/22/0116 08:04.14	00000179	0.000	Inter625t13-0	-0.087	1	2	0.000	11.111	-218.4	0.000	0.000	P	F	0.0	0.000	0.209	0.004	1503.501	523.207	0.028	-	-0.000	-0.000	-	-	-	-	-	-	-	PAVEMENT_GENERAL	Urban	F	1011101000000001	0000000000000000	-	-	-	-	-	-	-	-	-	-	Terminate	
Unknown	3.98341	10/22/0116 08:04.15	00000239	-0.000	Inter625t13-0	-0.087	1	2	0.000	11.111	-218.4	0.000	0.000	P	F	0.0	0.000	0.210	0.001	1503.501	523.207	0.028	-	-0.000	-0.000	-	-	-	-	-	-	-	PAVEMENT_GENERAL	Urban	F	1011101000000001	0000000000000000	-	-	-	-	-	-	-	-	-	-	Terminate	
Unknown	4.98343	10/22/0116 08:04.16	00000299	-0.000	Inter625t13-0	-0.087	1	2	0.000	11.111	-218.4	0.000	0.000	P	F	0.0	0.000	0.210	0.000	1503.501	523.207	0.028	-	-0.000	0.000	-	-	-	-	-	-	-	PAVEMENT_GENERAL	Urban	F	1011101000000001	0000000000000000	-	-	-	-	-	-	-	-	-	-	Terminate	
Unknown	5.98345	10/22/0116 08:04.17	00000359	-0.000	Inter625t13-0	-0.086	1	2	0.000	11.111	-218.4	0.000	0.000	P	F	0.0	0.000	0.209	0.000	1503.502	523.207	0.028	-	-0.000	0.000	-	-	-	-	-	-	-	PAVEMENT_GENERAL	Urban	F	1111101000000001	0000000000000000	-	-	-	-	-	-	-	-	-	-	Terminate	
Unknown	6.98347	10/22/0116 08:04.18	00000419	-0.000	Inter625t13-0	-0.086	1	2	0.000	11.111	-218.4	0.000	0.000	P	F	0.0	0.000	0.209	0.000	1503.502	523.207	0.028	-	-0.000	0.000	-	-	-	-	-	-	-	PAVEMENT_GENERAL	Urban	F	1111101000000001	0000000000000000	-	-	-	-	-	-	-	-	-	-	Terminate	
Unknown	7.98349	10/22/0116 08:04.19	00000479	-0.000	Inter625t13-0	-0.086	1	2	0.000	11.111	-218.4	0.000	0.000	P	F	0.0	0.000	0.209	-0.000	1503.502	523.207	0.028	-	-0.000	0.000	-	-	-	-	-	-	-	PAVEMENT_GENERAL	Urban	F	1011101000000001	0000000000000000	-	-	-	-	-	-	-	-	-	-	Terminate	
Unknown	8.98351	10/22/0116 08:04.20	00000539	-0.000	Inter625t13-0	-0.086	1	2	0.000	11.111	-218.4	0.000	0.000	P	F	0.0	0.000	0.209	-0.000	1503.502	523.207	0.028	-	-0.000	0.000	-	-	-	-	-	-	-	PAVEMENT_GENERAL	Urban	F	1011101000000001	0000000000000000	-	-	-	-	-	-	-	-	-	-	Terminate	
Unknown	9.98353	10/22/0116 08:04.21	00000599	-0.000	Inter625t13-0	-0.086	1	2	0.000	11.111	-218.4	0.000	0.000	P	F	0.0	0.000	0.209	-0.000	1503.502	523.207	0.028	-	-0.000	0.000	-	-	-	-	-	-	-	PAVEMENT_GENERAL	Urban	F	1111101000000001	0000000000000000	-	-	-	-	-	-	-	-	-	-	Terminate	
Unknown	10.98355	10/22/0116 08:04.22	00000659	-0.000	Inter625t13-0	-0.086	1	2	0.000	11.111	-218.4	0.000	0.000	P	F	0.0	0.000	0.209	-0.000	1503.502	523.207	0.028	-	-0.000	0.000	-	-	-	-	-	-	-	PAVEMENT_GENERAL	Urban	F	1011101000000001	0000000000000000	-	-	-	-	-	-	-	-	-	-	Terminate	
Unknown	11.98357	10/22/0116 08:04.23	00000719	-0.000	Inter625t13-0	-0.086	1	2	0.000	11.111	-218.4	0.000	0.000	P	F	0.0	0.000	0.209	-0.000	1503.502	523.207	0.028	-	-0.000	0.000	-	-	-	-	-	-	-	PAVEMENT_GENERAL	Urban	F	1111101000000001	0000000000000000	-	-	-	-	-	-	-	-	-	-	Terminate	
Unknown	12.98359	10/22/0116 08:04.24	00000779	-0.000	Inter625t13-0	-0.086	1	2	0.000	11.111	-218.4	0.000	0.000	P	F	0.0	0.000	0.209	-0.000	1503.502	523.207	0.028	-	-0.000	0.000	-	-	-	-	-	-	-	PAVEMENT_GENERAL	Urban	F	1011101000000001	0000000000000000	-	-	-	-	-	-	-	-	-	-	Terminate	
Unknown	13.98361	10/22/0116 08:04.25	00000839	-0.000	Inter625t13-0	-0.086	1	2	0.000	11.111	-218.4	0.000	0.000	P	F	0.0	0.000	0.209	-0.000	1503.502	523.207	0.028	-	-0.000	0.000	-	-	-	-	-	-	-	PAVEMENT_GENERAL	Urban	F	1111101000000001	0000000000000000	-	-	-	-	-	-	-	-	-	-	Terminate	
Unknown	14.98363	10/22/0116 08:04.26	00000899	-0.000	Inter625t13-0	-0.086	1	2	0.000	11.111	-218.4	0.000	0.000	P	F	0.0	0.000	0.209	-0.000	1503.502	523.207	0.028	-	-0.000	0.000	-	-	-	-	-	-	-	PAVEMENT_GENERAL	Urban	F	1111101000000001	0000000000000000	-	-	-	-	-	-	-	-	-	-	Terminate	
Unknown	15.98365	10/22/0116 08:04.27	00000959	-0.000	Inter625t13-0	-0.086	1	2	0.000	11.111	-218.4	0.000	0.000	P	F	0.0	0.000	0.209	-0.000	1503.502	523.207	0.028	-	-0.000	0.000	-	-	-	-	-	-	-	PAVEMENT_GENERAL	Urban	F	1011101000000001	0000000000000000	-	-	-	-	-	-	-	-	-	-	Terminate	
Unknown	16.98367	10/22/0116 08:04.28	00001019	-0.000	Inter625t13-0	-0.086	1	2	0.000	11.111	-218.4	0.000	0.000	P	F	0.0	0.000	0.209	-0.000	1503.502	523.207	0.028	-	-0.000	0.000	-	-	-	-	-	-	-	PAVEMENT_GENERAL	Urban	F	1011101000000001	0000000000000000	-	-	-	-	-	-	-	-	-	-	Terminate	
Unknown	17.98369	10/22/0116 08:04.29	00001079	-0.000	Inter625t13-0	-0.086	1	2	0.000	11.111	-218.4	0.000	0.000	P	F	0.0	0.000	0.209	-0.000	1503.502	523.207	0.028	-	-0.000	0.000	-	-	-	-	-	-	-	PAVEMENT_GENERAL	Urban	F	1011101000000001	0000000000000000	-	-	-	-	-	-	-	-	-	-	Terminate	
Unknown	18.98371	10/22/0116 08:04.30	00001139	-0.000	Inter625t13-0	-0.086	1	2	0.000	11.111	-218.4	0.000	0.000	P	F	0.0	0.000	0.209	-0.000	1503.502	523.207	0.028	-	-0.000	0.000	-	-	-	-	-	-	-	PAVEMENT_GENERAL	Urban	F	1111101000000001	0000000000000000	-	-	-	-	-	-	-	-	-	-	Terminate	
Unknown	19.98373	10/22/0116 08:04.31	00001199	-0.000	Inter625t13-0	-0.086	1	2	0.000	11.111	-218.4	0.000	0.000	P	F	0.0	0.000	0.209	-0.000	1503.502	523.207	0.028	-	-0.000	0.000	-	-	-	-	-	-	-	PAVEMENT_GENERAL	Urban	F	1111101000000001	0000000000000000	-	-	-	-	-	-	-	-	-	-	Terminate	
Unknown	20.98375	10/22/0116 08:04.32	00001259	-0.000	Inter625t13-0	-0.086	1	2	0.000	11.111	-218.4	0.000	0.000	P	F	0.0	0.000	0.209	-0.000	1503.502	523.207	0.028	-	-0.000	0.000	-	-	-	-	-	-	-	PAVEMENT_GENERAL	Urban	F	1111101000000001	0000000000000000	-	-	-	-	-	-	-	-	-	-	Terminate	
Unknown	21.98377	10/22/0116 08:04.33	00001319	-0.000	Inter625t13-0	-0.086	1	2	0.000	11.111	-218.4	0.000	0.000	P	F	0.0	0.000	0.209	-0.000	1503.502	523.207	0.028	-	-0.000	0.000	-	-	-	-	-	-	-	PAVEMENT_GENERAL	Urban	F	1011101000000001	0000000000000000	-	-	-	-	-	-	-	-	-	-	Terminate	
Unknown	22.98379	10/22/0116 08:04.34	00001379	-0.000	Inter625t13-0	-0.086	1	2	0.000	11.111	-218.4	0.000	0.000	P	F	0.0	0.000	0.209	-0.000	1503.502	523.207	0.028	-	-0.000	0.000	-	-	-	-	-	-	-	PAVEMENT_GENERAL	Urban	F	1011101000000001	0000000000000000	-	-	-	-	-	-	-	-	-	-	Terminate	
Unknown	23.98381	10/22/0116 08:04.35	00001439	-0.000	Inter625t13-0	-0.086	1	2	0.000	11.111	-218.4	0.000	0.000	P	F	0.0	0.001	0.209	-0.000	1503.502	523.207	0.028	-	-0.000	0.000	-	-	-	-	-	-	-	PAVEMENT_GENERAL	Urban	F	1011101000000001	0000000000000000	-	-	-	-	-	-	-	-	-	-	Terminate	
Unknown	24.98383	10/22/0116 08:04.36	00001499	-0.000	Inter625t13-0	-0.086	1	2	0.000	11.111	-218.4	0.000	0.000	P	F	0.0	0.001	0.209	-0.000	1503.502	523.207	0.028	-	-0.000	0.000	-	-	-	-	-	-	-	PAVEMENT_GENERAL	Urban	F	1011101000000001	0000000000000000	-	-	-	-	-	-	-	-	-	-	Terminate	
Unknown	25.98385	10/22/0116 08:04.37	00001559	-0.000	Inter625t13-0	-0.086	1	2	0.000	11.111	-218.4	0.000	0.000	P	F	0.0	0.002	0.209	-0.000	1503.502	523.207	0.028	-	-0.000	0.000	-	-	-	-	-	-	-	PAVEMENT_GENERAL	Urban	F	1011101000000001	0000000000000000	-	-	-	-	-	-	-	-	-	-	Terminate	
Unknown	26.98387	10/22/0116 08:04.38	00001619	-0.000	Inter625t13-0	-0.086	1	2	0.000	11.111	-218.4	0.000	0.000	P	F	0.0	0.002	0.209	-0.000	1503.502	523.207	0.028	-	-0.000	0.000	-	-	-	-	-	-	-	PAVEMENT_GENERAL	Urban	F	1011101000000001	0000000000000000	-	-	-	-	-	-	-	-	-	-	Terminate	
Unknown	27.98389	10/22/0116 08:04.39	00001679	-0.000	Inter625t13-0	-0.086	1	2	0.000	11.111	-218.4	0.000	0.000	P	F	0.0	0.002	0.209	-0.000	1503.502	523.207	0.028	-	-0.000	0.000	-	-	-	-	-	-	-	PAVEMENT_GENERAL	Urban	F	1111101000000001	0000000000000000	-	-	-	-	-	-	-	-	-	-	Terminate	
Unknown	28.98391	10/22/0116 08:04.40	00001739	-0.000	Inter625t13-0	-0.086	1	2	0.000	11.111	-218.4	0.000	0.000	P	F	0.0	0.003	0.209	-0.000	1503.502	523.207	0.028	-	-0.000	0.000	-	-	-	-	-	-	-	PAVEMENT_GENERAL	Urban	F	1111101000000001	0000000000000000	-	-	-	-	-	-	-	-	-	-	Terminate	
Unknown	29.98393	10/22/0116 08:04.41	00001799	-0.000	Inter625t13-0	-0.086	1	2	0.000	11.111	-218.4	0.000	0.000	P	F	0.0	0.003	0.209	-0.000	1503.502	523.207	0.028	-	-0.000	0.000	-	-	-	-	-	-	-	PAVEMENT_GENERAL	Urban	F	1011101000000001	0000000000000000	-	-	-	-	-	-	-	-	-	-	Terminate	
Unknown	30.98395	10/22/0116 08:04.42	00001859	-0.000	Inter625t13-0	-0.086	1	2	0.000	11.111	-218.4	0.000	0.000	P	F	0.0	0.003	0.209	-0.000	1503.502	523.207	0.028	-	-0.000	0.000	-	-	-	-	-	-	-	PAVEMENT_GENERAL	Urban	F	1011101000000001	0000000000000000	-	-	-	-	-	-	-	-	-	-	Terminate	
Unknown	31.98397	10/22/0116 08:04.43	00001919	-0.000	Inter625t13-0	-0.086	1	2	0.000	11.111	-218.4	0.000	0.000	P	F	0.0	0.004	0.209	-0.000	1503.502	523.207	0.028	-	-0.000	0.000	-	-	-	-	-	-	-	PAVEMENT_GENERAL	Urban	F	1011101000000001	0000000000000000	-	-	-	-	-	-	-	-	-	-	Terminate	
Unknown	32.98399	10/22/0116 08:04.44	00001979	-0.000	Inter625t13-0	-0.086	1	2	0.000	11.111	-218.4	0.000	0.000	P	F	0.0	0.004	0.209	-0.000	1503.502	523.207	0.028	-	-0.000	0.000	-	-	-	-	-	-	-	PAVEMENT_GENERAL	Urban	F	1011101000000001	0000000000000000	-	-	-	-	-	-	-	-	-	-	Terminate	
Unknown	33.98401	10/22/0116 08:04.45	00002039	-0.000	Inter625t13-0	-0.086	1	2	0.000	11.111	-218.4	0.000	0.000	P	F	0.0	0.004	0.209	-0.000	1503.502	523.207	0.028	-	-0.000	0.000	-	-	-	-	-	-	-	PAVEMENT_GENERAL	Urban	F	1011101000000001	0000000000000000	-	-	-	-	-	-	-	-	-	-	Terminate	
Unknown	34.98403	10/22/0116 08:04.46	00002099	-0.000	Inter625t13-0	-0.086	1	2	0.000	11.111	-218.4	0.000	0.000	P	F	0.0	0.004	0.209	-0.000	1503.502	523.207	0.028	-	-0.000	0.000	-	-	-	-	-	-	-	PAVEMENT_GENERAL	Urban	F	1011101000000001	0000000000000000	-	-	-	-	-	-	-	-	-	-	Terminate	
Unknown	35.98405	10/22/0116 08:04.47	00002159	-0.000	Inter625t13-0	-0.086	1	2	0.000	11.111	-218.4	0.000	0.000	P	F	0.0	0.005	0.209	-0.000	1503.502	523.207	0.028	-	-0.000	0.000	-	-	-	-	-	-	-	PAVEMENT_GENERAL	Urban	F	1011101000000001	0000000000000000	-	-	-	-	-	-	-	-	-	-	Terminate	
Unknown	36.98407	10/22/0116 08:04.48	00002219	-0.000	Inter625t13-0	-0.086	1	2	0.000	11.111	-218.4	0.000	0.000	P	F	0.0	0.005	0.209	-0.000	1503.502	523.207	0.028	-	-0.000	0.000	-	-	-	-	-	-	-	PAVEMENT_GENERAL	Urban	F	1011101000000001	0000000000000000	-	-	-	-	-	-	-	-	-	-	Terminate	
Unknown	37.98409	10/22/0116 08:04.49	00002279	-0.000	Inter625t13-0	-0.086	1	2	0.000	11.111	-218.4	0.000	0.000	P	F	0.0	0.005	0.209	-0.000	1503.502	523.207	0.028	-	-0.000	0.000	-	-	-	-	-	-	-	PAVEMENT_GENERAL	Urban	F	1011101000000001	0000000000000000	-	-	-	-	-	-	-	-	-	-	Terminate	
Unknown	38.98411	10/22/0116 08:04.50	00002339	-0.000	Inter625t13-0	-0.086	1	2	0.000	11.111	-218.4	0.000	0.000	P	F	0.0	0.005	0.209	-0.000	1503.502	523.207	0.028	-	-0.000	0.000	-	-	-	-	-	-	-	PAVEMENT_GENERAL	Urban	F	1111101000000001	0000000000000000	-	-	-	-	-	-	-	-	-	-	Terminate	
Unknown	39.98413	10/22/0116 08:04.51	00002399	-0.000	Inter625t13-0	-0.086	1	2	0.000	11.111	-218.4	0.000	0.000	P	F	0.0	0.006	0.209	-0.000	1503.502	523.207	0.028	-	-0.000	0.000	-	-	-	-	-	-	-	PAVEMENT_GENERAL	Urban	F	1011101000000001	0000000000000000	-	-	-	-	-	-	-	-	-	-	Terminate	
Unknown	40.98415	10/22/0116 08:04.52	00002459	-0.000	Inter625t13-0	-0.086	1	2	0.000	11.111	-218.4	0.000	0.000	P	F	0.0	0.006	0.209	-0.000	1503.502	523.207	0.028	-	-0.000	0.000	-	-	-	-	-	-	-	PAVEMENT_GENERAL	Urban	F	1011101000000001	0000000000000000	-	-	-	-	-	-	-	-	-	-	Terminate	
Unknown	41.98417	10/22/0116 08:04.53	00002519	-0.000	Inter625t13-0	-0.086	1	2	0.000	11.111	-218.4	0.000	0.000	P	F	0.0	0.006	0.209	-0.000	1503.502	523.207	0.028	-	-0.000	0.000	-	-	-	-	-	-	-	PAVEMENT_GENERAL	Urban	F	1111101000000001	0000000000000000	-	-	-	-	-	-	-	-	-	-	Terminate	
Unknown	42.98419	10/22/0116 08:04.54	00002579	-0.000	Inter625t13-0	-0.086	1	2	0.000	11.111	-218.4	0.000	0.000	P	F	0.0	0.006	0.209	-0.000	1503.502	523.207	0.028	-	-0.000	0.000	-	-	-	-	-	-	-	PAVEMENT_GENERAL	Urban	F	1111101000000001	0000000000000000	-	-	-	-	-	-	-	-	-	-	Terminate	
Unknown	43.98421	10/22/0116 08:04.55	00002639	0.000	Inter625t13-0	-0.086	1	2	0.000	11.111	-218.4	0.000	0.000	P	F	0.0	0.006	0.209	-0.000	1503.502	523.207	0.028	-	-0.000	0.000	-	-	-	-	-	-	-	PAVEMENT_GENERAL	Urban	F	1011101000000001	0000000000000000	-	-	-	-	-	-	-	-	-	-	Terminate	
Unknown	44.98423	10/22/0116 08:04.56	00002699	0.000	Inter625t13-0	-0.086	1	2	0.000	11.111	-218.4	0.000	0.000	P	F	0.0	0.007	0.209	-0.000	1503.502	523.207	0.028	-	-0.000	0.000	-	-	-	-	-	-	-	PAVEMENT_GENERAL	Urban	F	1111101000000001	0000000000000000	-	-	-	-	-	-	-	-	-	-	Terminate	
Unknown	45.98425	10/22/0116 08:04.57	00002759	0.000	Inter625t13-0	-0.086	1	2	0.000	11.111	-218.4	0.000	0.000	P	F	0.0	0.007	0.209	-0.000	1503.502	523.207	0.028	-	-0.000	0.000	-	-	-	-	-	-	-	PAVEMENT_GENERAL	Urban	F	1111101000000001	0000000000000000	-	-	-	-	-	-	-	-	-	-	Terminate	
Unknown	46.98427	10/22/0116 08:04.58	00002819	0.000	Inter625t13-0	-0.086	1	2	0.000	11.111	-218.4	0.000	0.000	P	F	0.0	0.007	0.209	-0.000	1503.502	523.207	0.028	-	-0.000	0.000	-	-	-	-	-	-	-	PAVEMENT_GENERAL	Urban	F	1011101000000001	0000000000000000	-	-	-	-	-	-	-	-	-	-	Terminate	
Unknown	47.98429	10/22/0116 08:04.59	00002879	0.000	Inter625t13-0	-0.086	1	2	0.000	11.111	-218.4	0.000	0.000	P	F	0.0	0.007	0.209	-0.000	1503.502	523.207	0.028	-	-0.000	0.000	-	-	-	-	-	-	-	PAVEMENT_GENERAL	Urban	F	1011101000000001	0000000000000000	-	-	-	-	-	-	-	-	-	-	Terminate	
Unknown	48.98431	10/22/0116 08:05.00	00002939	0.000	Inter625t13-0	-0.086	1	2	0.000	11.111	-218.4	0.000	0.000	P	F	0.0	0.007	0.209	-0.000	1503.502	523.207	0.028	-	-0.000	0.000	-	-	-	-	-	-	-	PAVEMENT_GENERAL	Urban	F	1011101000000001	0000000000000000	-	-	-	-	-	-	-	-	-	-	Terminate	
Unknown	49.98433	10/22/0116 08:05.01	00002999	0.000	Inter625t13-0	-0.086	1	2	0.000	11.111	-218.4	0.000	0.000	P	F	0.0	0.007	0.209	-0.000	1503.502	523.207	0.028	-	-0.000	0.000	-	-	-	-	-	-	-	PAVEMENT_GENERAL	Urban	F	1011101000000001	0000000000000000	-	-	-	-	-	-	-	-	-	-	Terminate	
Unknown	50.98435	10/22/0116 08:05.02	00003059	0.000	Inter625t13-0	-0.086	1	2	0.000	11.111	-218.4	0.000	0.000	P	F	0.0	0.008	0.209	-0.000	1503.502	523.207	0.028	-	-0.000	0.000	-	-	-	-	-	-	-	PAVEMENT_GENERAL	Urban	F	1011101000000001	0000000000000000	-	-	-	-	-	-	-	-	-	-	Terminate	
Unknown	51.98437	10/22/0116 08:05.03	00003119	0.000	Inter625t13-0	-0.086	1	2	0.000	11.111	-218.4	0.000	0.000	P	F	0.0	0.008	0.209	-0.000	1503.502	523.207	0.028	-	-0.000	0.000	-	-	-	-	-	-	-	PAVEMENT_GENERAL	Urban	F	1011101000000001	0000000000000000	-	-	-	-	-	-	-	-	-	-	Terminate	
Unknown	52.98439	10/22/0116 08:05.04	00003179	0.000	Inter625t13-0	-0.086	1	2	0.000	11.111	-218.4	0.000	0.000	P	F	0.0	0.008	0.209	-0.000	1503.502	523.207	0.028	-	-0.000	0.000	-	-	-	-	-	-	-	PAVEMENT_GENERAL	Urban	F	1111101000000001	0000000000000000	-	-	-	-	-	-	-	-	-	-	Terminate	
Unknown	53.98441	10/22/0116 08:05.05	00003239	0.000	Inter625t13-0	-0.086	1	2	0.000	11.111	-218.4	0.000	0.000	P	F	0.0	0.008	0.209	0.000	1503.502	523.207	0.028	-	-0.000	0.000	-	-	-	-	-	-	-	PAVEMENT_GENERAL	Urban	F	1011101000000001	0000000000000000	-	-	-	-	-	-	-	-	-	-	Terminate	
Unknown	54.98443	10/22/0116 08:05.06	00003299	0.000	Inter625t13-0	-0.086	1	2	0.000	11.111	-218.4	0.000	0.000	P	F	0.0	0.008	0.209	0.000	1503.502	523.207	0.028	-	-0.000	0.000	-	-	-	-	-	-	-	PAVEMENT_GENERAL	Urban	F	1011101000000001	0000000000000000	-	-	-	-	-	-	-	-	-	-	Terminate	
Unknown	55.98445	10/22/0116 08:05.07	00003359	0.000	Inter625t13-0	-0.086	1	2	0.000	11.111	-218.4	0.000	0.000	P	F	0.0	0.008	0.209	0.000	1503.502	523.207	0.028	-	-0.000	0.000	-	-	-	-	-	-	-	PAVEMENT_GENERAL	Urban	F	1011101000000001	0000000000000000	-	-	-	-	-	-	-	-	-	-	Terminate	
Unknown	56.98447	10/22/0116 08:05.08	00003419	0.000	Inter625t13-0	-0.086	1	2	0.000	11.111	-218.4	0.000	0.000	P	F	0.0	0.008	0.209	0.000	1503.502	523.207	0.028	-	-0.000	0.000	-	-	-	-	-	-	-	PAVEMENT_GENERAL	Urban	F	1011101000000001	0000000000000000	-	-	-	-	-	-	-	-	-	-	Terminate	
Unknown	57.98449	10/22/0116 08:05.09	00003479	0.000	Inter625t13-0	-0.086	1	2	0.000	11.111	-218.4	0.000	0.000	P	F	0.0	0.009	0.209	0.000	1503.502	523.207	0.028	-	-0.000	0.000	-	-	-	-	-	-	-	PAVEMENT_GENERAL	Urban	F	1011101000000001	0000000000000000	-	-	-	-	-	-	-	-	-	-	Terminate	
Unknown	58.98451	10/22/0116 08:05.10	00003539	0.000	Inter625t13-0	-0.086	1	2	0.000	11.111	-218.4	0.000	0.000	P	F	0.0	0.009	0.209	0.000	1503.502	523.207	0.028	-	-0.000	0.000	-	-	-	-	-	-	-	PAVEMENT_GENERAL	Urban	F	1111101000000001	0000000000000000	-	-	-	-	-	-	-	-	-	-	Terminate	
Unknown	59.98453	10/22/0116 08:05.11	00003599	0.000	Inter625t13-0	-0.086	1	2	0.000	11.111	-218.4	0.000	0.000	P	F	0.0	0.009	0.209	0.000	1503.502	523.207	0.028	-	-0.000	0.000	-	-	-	-	-	-	-	PAVEMENT_GENERAL	Urban	F	1111101000000001	0000000000000000	-	-	-	-	-	-	-	-	-	-	Terminate	
Unknown	60.98455	10/22/0116 08:05.12	00003659	0.000	Inter625t13-0	-0.086	1	2	0.000	11.111	-218.4	0.000	0.000	P	F	0.0	0.009	0.209	0.000	1503.502	523.207	0.028	-	-0.000	0.000	-	-	-	-	-	-	-	PAVEMENT_GENERAL	Urban	F	1011101000000001	0000000000000000	-	-	-	-	-	-	-	-	-	-	Terminate	
Unknown	61.98457	10/22/0116 08:05.13	00003719	0.000	Inter625t13-0	-0.086	1	2	0.000	11.111	-218.4	0.000	0.000	P	F	0.0	0.009	0.209	0.000	1503.502	523.207	0.028	-	-0.000	0.000	-	-	-	-	-	-	-	PAVEMENT_GENERAL	Urban	F	1111101000000001	0000000000000000	-	-	-	-	-	-	-	-	-	-	Terminate	
Unknown	62.98459	10/22/0116 08:05.14	00003779	0.000	Inter625t13-0	-0.086	1	2	0.000	11.111	-218.4	0.000	0.000	P	F	0.0	0.009	0.209	0.000	1503.502	523.207	0.028	-	-0.000	0.000	-	-	-	-	-	-	-	PAVEMENT_GENERAL	Urban	F	1111101000000001	0000000000000000	-	-	-	-	-	-	-	-	-	-	Terminate	
Unknown	63.98461	10/22/0116 08:05.15	00003839	0.000	Inter625t13-0	-0.086	1	2	0.000	11.111	-218.4	0.000	0.000	P	F	0.0	0.009	0.209	0.000	1503.502	523.207	0.028	-	-0.000	0.000	-	-	-	-	-	-	-	PAVEMENT_GENERAL	Urban	F	1011101000000001	0000000000000000	-	-	-	-	-	-	-	-	-	-	Terminate	
Unknown	64.98463	10/22/0116 08:05.16	00003899	0.000	Inter625t13-0	-0.086	1	2	0.000	11.111	-218.4	0.000	0.000	P	F	0.0	0.009	0.209	0.000	1503.502	523.207	0.028	-	-0.000	0.000	-	-	-	-	-	-	-	PAVEMENT_GENERAL	Urban	F	1011101000000001	0000000000000000	-	-	-	-	-	-	-	-	-	-	Terminate	
Unknown	65.98465	10/22/0116 08:05.17	00003959	0.000	Inter625t13-0	-0.086	1	2	0.000	11.111	-218.4	0.000	0.000	P	F	0.0	0.009	0.209	0.000	1503.502	523.207	0.028	-	-0.000	0.000	-	-	-	-	-	-	-	PAVEMENT_GENERAL	Urban	F	1011101000000001	0000000000000000	-	-	-	-	-	-	-	-	-	-	Terminate	
Unknown	66.98467	10/22/0116 08:05.18	00004019	0.000	Inter625t13-0	-0.086	1	2	0.000	11.111	-218.4	0.000	0.000	P	F	0.0	0.010	0.209	0.000	1503.502	523.207	0.028	-	-0.000	0.000	-	-	-	-	-	-	-	PAVEMENT_GENERAL	Urban	F	1011101000000001	0000000000000000	-	-	-	-	-	-	-	-	-	-	Terminate	
Unknown	67.98470	10/22/0116 08:05.19	00004079	0.000	Inter625t13-0	-0.086	1	2	0.000	11.111	-218.4	0.000	0.000	P	F	0.0	0.010	0.209	0.000	1503.502	523.207	0.028	-	-0.000	0.000	-	-	-	-	-	-	-	PAVEMENT_GENERAL	Urban	F	1011101000000001	0000000000000000	-	-	-	-	-	-	-	-	-	-	Terminate	
Unknown	68.98471	10/22/0116 08:05.20	00004139	0.000	Inter625t13-0	-0.086	1	2	0.000	11.111	-218.4	0.000	0.000	P	F	0.0	0.010	0.209	0.000	1503.502	523.207	0.028	-	-0.000	0.000	-	-	-	-	-	-	-	PAVEMENT_GENERAL	Urban	F	1011101000000001	0000000000000000	-	-	-	-	-	-	-	-	-	-	Terminate	
Unknown	69.98473	10/22/0116 08:05.21	00004199	0.000	Inter625t13-0	-0.086	1	2	0.000	11.111	-218.4	0.000	0.000	P	F	0.0	0.010	0.209	0.000	1503.502	523.207	0.028	-	-0.000	0.000	-	-	-	-	-	-	-	PAVEMENT_GENERAL	Urban	F	1011101000000001	0000000000000000	-	-	-	-	-	-	-	-	-	-	Terminate	
Unknown	70.98476	10/22/0116 08:05.22	00004259	0.000	Inter625t13-0	-0.086	1	2	0.000	11.111	-218.4	0.000	0.000	P	F	0.0	0.010	0.209	0.000	1503.502	523.207	0.028	-	-0.000	0.000	-	-	-	-	-	-	-	PAVEMENT_GENERAL	Urban	F	1011101000000001	0000000000000000	-	-	-	-	-	-	-	-	-	-	Terminate	
Unknown	71.98477	10/22/0116 08:05.23	00004319	0.000	Inter625t13-0	-0.086	1	2	0.000	11.111	-218.4	0.000	0.000	P	F	0.0	0.010	0.209	0.000	1503.502	523.207	0.028	-	-0.000	0.000	-	-	-	-	-	-	-	PAVEMENT_GENERAL	Urban	F	1011101000000001	0000000000000000	-	-	-	-	-	-	-	-	-	-	Terminate	
Unknown	72.98479	10/22/0116 08:05.24	00004379	0.000	Inter625t13-0	-0.086	1	2	0.000	11.111	-218.4	0.000	0.000	P	F	0.0	0.010	0.209	0.000	1503.502	523.207	0.028	-	-0.000	0.000	-	-	-	-	-	-	-	PAVEMENT_GENERAL	Urban	F	1111101000000001	0000000000000000	-	-	-	-	-	-	-	-	-	-	Terminate	
Unknown	73.98481	10/22/0116 08:05.25	00004439	0.000	Inter625t13-0	-0.086	1	2	0.000	11.111	-218.4	0.000	0.000	P	F	0.0	0.010	0.209	0.000	1503.502	523.207	0.028	-	-0.000	0.000	-	-	-	-	-	-	-	PAVEMENT_GENERAL	Urban	F	1011101000000001	0000000000000000	-	-	-	-	-	-	-	-	-	-	Terminate	
Unknown	74.98483	10/22/0116 08:05.26	00004499	0.000	Inter625t13-0	-0.086	1	2	0.000	11.111	-218.4	0.000	0.000	P	F	0.0	0.010	0.209	0.000	1503.502	523.207	0.028	-	-0.000	0.000	-	-	-	-	-	-	-	PAVEMENT_GENERAL	Urban	F	1111101000000001	0000000000000000	-	-	-	-	-	-	-	-	-	-	Terminate	
Unknown	75.98486	10/22/0116 08:05.27	00004559	0.000	Inter625t13-0	-0.086	1	2	0.000	11.111	-218.4	0.000	0.000	P	F	0.0	0.010	0.209	0.000	1503.502	523.207	0.028	-	-0.000	0.000	-	-	-	-	-	-	-	PAVEMENT_GENERAL	Urban	F	1111101000000001	0000000000000000	-	-	-	-	-	-	-	-	-	-	Terminate	
Unknown	76.98487	10/22/0116 08:05.28	00004619	0.000	Inter625t13-0	-0.086	1	2	0.000	11.111	-218.4	0.000	0.000	P	F	0.0	0.010	0.209	0.000	1503.502	523.207	0.028	-	-0.000	0.000	-	-	-	-	-	-	-	PAVEMENT_GENERAL	Urban	F	1111101000000001	0000000000000000	-	-	-	-	-	-	-	-	-	-	Terminate	
Unknown	77.98489	10/22/0116 08:05.29	00004679	0.000	Inter625t13-0	-0.086	1	2	0.000	11.111	-218.4	0.000	0.000	P	F	0.0	0.011	0.209	0.000	1503.502	523.207	0.028	-	-0.000	0.000	-	-	-	-	-	-	-	PAVEMENT_GENERAL	Urban	F	1011101000000001	0000000000000000	-	-	-	-	-	-	-	-	-	-	Terminate	
Unknown	78.98492	10/22/0116 08:05.30	00004739	0.000	Inter625t13-0	-0.086	1	2	0.000	11.111	-218.4	0.000	0.000	P	F	0.0	0.011	0.209	0.000	1503.502	523.207	0.028	-	-0.000	0.000	-	-	-	-	-	-	-	PAVEMENT_GENERAL	Urban	F	1111101000000001	0000000000000000	-	-	-	-	-	-	-	-	-	-	Terminate	
Unknown	79.98493	10/22/0116 08:05.31	00004799	0.000	Inter625t13-0	-0.086	1	2	0.000	11.111	-218.4	0.000	0.000	P	F	0.0	0.011	0.209	0.000	1503.502	523.207	0.028	-	-0.000	0.000	-	-	-	-	-	-	-	PAVEMENT_GENERAL	Urban	F	1111101000000001	0000000000000000	-	-	-	-	-	-	-	-	-	-	Terminate	
Unknown	80.98495	10/22/0116 08:05.32	00004859	0.000	Inter625t13-0	-0.086	1	2	0.000	11.111	-218.4	0.000	0.000	P	F	0.0	0.011	0.209	0.000	1503.502	523.207	0.028	-	-0.000	0.000	-	-	-	-	-	-	-	PAVEMENT_GENERAL	Urban	F	1111101000000001	0000000000000000	-	-	-	-	-	-	-	-	-	-	Terminate	
Unknown	81.98497	10/22/0116 08:05.33	00004919	0.000	Inter625t13-0	-0.086	1	2	0.000	11.111	-218.4	0.000	0.000	P	F	0.0	0.011	0.209	0.000	1503.502	523.207	0.028	-	-0.000	0.000	-	-	-	-	-	-	-	PAVEMENT_GENERAL	Urban	F	1111101000000001	0000000000000000	-	-	-	-	-	-	-	-	-	-	Terminate	
Unknown	82.98499	10/22/0116 08:05.34	00004979	0.000	Inter625t13-0	-0.086	1	2	0.000	11.111	-218.4	0.000	0.000	P	F	0.0	0.011	0.209	0.000	1503.502	523.207	0.028	-	-0.000	0.000	-	-	-	-	-	-	-	PAVEMENT_GENERAL	Urban	F	1011101000000001	0000000000000000	-	-	-	-	-	-	-	-	-	-	Terminate	
Unknown	83.98502	10/22/0116 08:05.35	00005039	0.000	Inter625t13-0	-0.086	1	2	0.000	11.111	-218.4	0.000	0.000	P	F	0.0	0.011	0.209	0.000	1503.502	523.207	0.028	-	-0.000	0.000	-	-	-	-	-	-	-	PAVEMENT_GENERAL	Urban	F	1011101000000001	0000000000000000	-	-	-	-	-	-	-	-	-	-	Terminate	
Unknown	84.98503	10/22/0116 08:05.36	00005099	0.000	Inter625t13-0	-0.086	1	2	0.000	11.111	-218.4	0.000	0.000	P	F	0.0	0.011	0.209	0.000	1503.502	523.207	0.028	-	-0.000	0.000	-	-	-	-	-	-	-	PAVEMENT_GENERAL	Urban	F	1111101000000001	0000000000000000	-	-	-	-	-	-	-	-	-	-	Terminate	
Unknown	85.98505	10/22/0116 08:05.37	00005159	0.000	Inter625t13-0	-0.086	1	2	0.000	11.111	-218.4	0.000	0.000	P	F	0.0	0.011	0.209	0.000	1503.502	523.207	0.028	-	-0.000	0.000	-	-	-	-	-	-	-	PAVEMENT_GENERAL	Urban	F	1011101000000001	0000000000000000	-	-	-	-	-	-	-	-	-	-	Terminate	
Unknown	86.98507	10/22/0116 08:05.38	00005219	0.000	Inter625t13-0	-0.086	1	2	0.000	11.111	-218.4	0.000	0.000	P	F	0.0	0.011	0.209	0.000	1503.502	523.207	0.028	-	-0.000	0.000	-	-	-	-	-	-	-	PAVEMENT_GENERAL	Urban	F	1011101000000001	0000000000000000	-	-	-	-	-	-	-	-	-	-	Terminate	
Unknown	87.98509	10/22/0116 08:05.39	00005279	0.000	Inter625t13-0	-0.086	1	2	0.000	11.111	-218.4	0.000	0.000	P	F	0.0	0.011	0.209	0.000	1503.502	523.207	0.028	-	-0.000	0.000	-	-	-	-	-	-	-	PAVEMENT_GENERAL	Urban	F	1111101000000001	0000000000000000	-	-	-	-	-	-	-	-	-	-	Terminate	
Unknown	88.98512	10/22/0116 08:05.40	00005339	0.000	Inter625t13-0	-0.086	1	2	0.000	11.111	-218.4	0.000	0.000	P	F	0.0	0.011	0.209	0.000	1503.502	523.207	0.028	-	-0.000	0.000	-	-	-	-	-	-	-	PAVEMENT_GENERAL	Urban	F	1111101000000001	0000000000000000	-	-	-	-	-	-	-	-	-	-	Terminate	
Unknown	89.98513	10/22/0116 08:05.41	00005399	0.000	Inter625t13-0	-0.086	1	2	0.000	11.111	-218.4	0.000	0.000	P	F	0.0	0.011	0.209	0.000	1503.502	523.207	0.028	-	-0.000	0.000	-	-	-	-	-	-	-	PAVEMENT_GENERAL	Urban	F	1011101000000001	0000000000000000	-	-	-	-	-	-	-	-	-	-	Terminate	
Unknown	90.98515	10/22/0116 08:05.42	00005459	0.000	Inter625t13-0	-0.086	1	2	0.000	11.111	-218.4	0.000	0.000	P	F	0.0	0.011	0.209	0.000	1503.502	523.207	0.028	-	-0.000	0.000	-	-	-	-	-	-	-	PAVEMENT_GENERAL	Urban	F	1011101000000001	0000000000000000	-	-	-	-	-	-	-	-	-	-	Terminate	
Unknown	91.98518	10/22/0116 08:05.43	00005519	0.000	Inter625t13-0	-0.086	1	2	0.000	11.111	-218.4	0.000	0.000	P	F	0.0	0.011	0.209	0.000	1503.502	523.207	0.028	-	-0.000	0.000	-	-	-	-	-	-	-	PAVEMENT_GENERAL	Urban	F	1011101000000001	0000000000000000	-	-	-	-	-	-	-	-	-	-	Terminate	
Unknown	92.98519	10/22/0116 08:05.44	00005579	0.000	Inter625t13-0	-0.086	1	2	0.000	11.111	-218.4	0.000	0.000	P	F	0.0	0.011	0.209	0.000	1503.502	523.207	0.028	-	-0.000	0.000	-	-	-	-	-	-	-	PAVEMENT_GENERAL	Urban	F	1111101000000001	0000000000000000	-	-	-	-	-	-	-	-	-	-	Terminate	
Unknown	93.98521	10/22/0116 08:05.45	00005639	0.000	Inter625t13-0	-0.086	1	2	0.000	11.111	-218.4	0.000	0.000	P	F	0.0	0.012	0.209	0.000	1503.502	523.207	0.028	-	-0.000	0.000	-	-	-	-	-	-	-	PAVEMENT_GENERAL	Urban	F	1011101000000001	0000000000000000	-	-	-	-	-	-	-	-	-	-	Terminate	
Unknown	94.98523	10/22/0116 08:05.46	00005699	0.000	Inter625t13-0	-0.086	1	2	0.000	11.111	-218.4	0.000	0.000	P	F	0.0	0.012	0.209	0.000	1503.502	523.207	0.028	-	-0.000	0.000	-	-	-	-	-	-	-	PAVEMENT_GENERAL	Urban	F	1111101000000001	0000000000000000	-	-	-	-	-	-	-	-	-	-	Terminate	
Unknown	95.98525	10/22/0116 08:05.47	00005759	0.000	Inter625t13-0	-0.086	1	2	0.000	11.111	-218.4	0.000	0.000	P	F	0.0	0.012	0.209	0.000	1503.502	523.207	0.028	-	-0.000	0.000	-	-	-	-	-	-	-	PAVEMENT_GENERAL	Urban	F	1011101000000001	0000000000000000	-	-	-	-	-	-	-	-	-	-	Terminate	
Unknown	96.98528	10/22/0116 08:05.48	00005819	0.000	Inter625t13-0	-0.086	1	2	0.000	11.111	-218.4	0.000	0.000	P	F	0.0	0.012	0.209	0.000	1503.502	523.207	0.028	-	-0.000	0.000	-	-	-	-	-	-	-	PAVEMENT_GENERAL	Urban	F	1011101000000001	0000000000000000	-	-	-	-	-	-	-	-	-	-	Terminate	
Unknown	97.98529	10/22/0116 08:05.49	00005879	0.000	Inter625t13-0	-0.086	1	2	0.000	11.111	-218.4	0.000	0.000	P	F	0.0	0.012	0.209	0.000	1503.502	523.207	0.028	-	-0.000	0.000	-	-	-	-	-	-	-	PAVEMENT_GENERAL	Urban	F	1011101000000001	0000000000000000	-	-	-	-	-	-	-	-	-	-	Terminate	
Unknown	98.98531	10/22/0116 08:05.50	00005939	0.000	Inter625t13-0	-0.086	1	2	0.000	11.111	-218.4	0.000	0.000	P	F	0.0	0.012	0.209	0.000	1503.502	523.207	0.028	-	-0.000	0.000	-	-	-	-	-	-	-	PAVEMENT_GENERAL	Urban	F	1011101000000001	0000000000000000	-	-	-	-	-	-	-	-	-	-	Terminate	
Unknown	99.98534	10/22/0116 08:05.51	00005999	0.000	Inter625t13-0	-0.086	1	2	0.000	11.111	-218.4	0.000	0.000	P	F	0.0	0.012	0.209	0.000	1503.502	523.207	0.028	-	-0.000	0.000	-	-	-	-	-	-	-	PAVEMENT_GENERAL	Urban	F	1011101000000001	0000000000000000	-	-	-	-	-	-	-	-	-	-	Terminate	
Unknown	100.98535	10/22/0116 08:05.52	00006059	0.000	Inter625t13-0	-0.086	1	2	0.000	11.111	-218.4	0.000	0.000	P	F	0.0	0.012	0.209	0.000	1503.502	523.207	0.028	-	-0.000	0.000	-	-	-	-	-	-	-	PAVEMENT_GENERAL	Urban	F	1111101000000001	0000000000000000	-	-	-	-	-	-	-	-	-	-	Terminate	
Unknown	101.98537	10/22/0116 08:05.53	00006119	0.000	Inter625t13-0	-0.086	1	2	0.000	11.111	-218.4	0.000	0.000	P	F	0.0	0.012	0.209	0.000	1503.502	523.207	0.028	-	-0.000	0.000	-	-	-	-	-	-	-	PAVEMENT_GENERAL	Urban	F	1011101000000001	0000000000000000	-	-	-	-	-	-	-	-	-	-	Terminate	
Unknown	102.98539	10/22/0116 08:05.54	00006179	0.000	Inter625t13-0	-0.086	1	2	0.000	11.111	-218.4	0.000	0.000	P	F	0.0	0.012	0.209	0.000	1503.502	523.207	0.028	-	-0.000	0.000	-	-	-	-	-	-	-	PAVEMENT_GENERAL	Urban	F	1011101000000001	0000000000000000	-	-	-	-	-	-	-	-	-	-	Terminate	
Unknown	103.98541	10/22/0116 08:05.55	00006239	0.000	Inter625t13-0	-0.086	1	2	0.000	11.111	-218.6	0.000	0.000	P	F	0.0	0.012	0.209	0.000	1503.502	523.207	0.028	-	-0.000	0.000	-	-	-	-	-	-	-	PAVEMENT_GENERAL	Urban	F	1011101000000001	0000000000000000	-	-	-	-	-	-	-	-	-	-	Terminate	
Unknown	104.98544	10/22/0116 08:05.56	00006299	0.000	Inter625t13-0	-0.086	1	2	0.000	11.111	-218.2	0.000	0.000	P	F	0.0	0.012	0.209	0.000	1503.502	523.207	0.028	-	-0.000	0.000	-	-	-	-	-	-	-	PAVEMENT_GENERAL	Urban	F	1011101000000001	0000000000000000	-	-	-	-	-	-	-	-	-	-	Terminate	
Unknown	105.98545	10/22/0116 08:05.57	00006359	0.000	Inter625t13-0	-0.086	1	2	0.000	11.111	-223.4	0.000	0.000	P	F	0.0	0.012	0.209	0.000	1503.502	523.207	0.028	-	-0.000	0.000	-	-	-	-	-	-	-	PAVEMENT_GENERAL	Urban	F	1011101000000001	0000000000000000	-	-	-	-	-	-	-	-	-	-	Terminate	
Unknown	106.98547	10/22/0116 08:05.58	00006419	0.000	Inter625t13-0	-0.086	1	2	0.000	11.111	-225.0	0.000	0.000	P	F	0.0	0.012	0.209	0.000	1503.502	523.207	0.028	-	-0.000	0.000	-	-	-	-	-	-	-	PAVEMENT_GENERAL	Urban	F	1011101000000001	0000000000000000	-	-	-	-	-	-	-	-	-	-	Terminate	
Unknown	107.98550	10/22/0116 08:05.59	00006479	-0.000	Inter625t13-0	-0.086	1	2	0.000	11.111	-225.9	0.000	0.000	P	F	144.4	0.012	0.209	0.000	1503.502	523.207	0.028	-	-0.000	0.000	-	-	-	-	-	-	-	PAVEMENT_GENERAL	Urban	F	1011101000000011	0000000000000000	-	-	-	-	-	-	-	-	-	-	Terminate	
Unknown	108.98551	10/22/0116 08:06.00	00006539	-0.000	Inter625t13-0	-0.086	1	2	0.000	11.111	-225.4	0.000	0.000	P	F	477.8	0.012	0.209	0.000	1503.502	523.207	0.028	-	-0.000	0.000	-	-	-	-	-	-	-	PAVEMENT_GENERAL	Urban	F	1011101000000001	0000000000000000	-	-	-	-	-	-	-	-	-	-	Terminate	
Unknown	109.98553	10/22/0116 08:06.01	00006599	-0.000	Inter625t13-0	-0.086	1	2	0.000	11.111	-226.3	0.000	0.000	P	F	477.5	0.012	0.209	0.000	1503.502	523.207	0.028	-	-0.000	0.000	-	-	-	-	-	-	-	PAVEMENT_GENERAL	Urban	F	1011101000000001	0000000000000000	-	-	-	-	-	-	-	-	-	-	Terminate	
Unknown	110.98555	10/22/0116 08:06.02	00006659	-0.000	Inter625t13-0	-0.086	1	2	0.000	11.111	-227.1	0.000	0.809	P	F	477.5	0.012	0.209	0.000	1503.502	523.207	0.028	-	0.000	0.000	-	-	-	-	-	-	-	PAVEMENT_GENERAL	Urban	F	1011101000000001	0000000000000000	-	-	-	-	-	-	-	-	-	-	Terminate	
Unknown	111.98557	10/22/0116 08:06.03	00006719	0.000	Inter625t13-0	-0.086	1	2	0.000	11.111	-228.6	0.000	0.842	P	F	477.5	0.012	0.209	0.000	1503.502	523.207	0.028	-	0.000	-0.000	-	-	-	-	-	-	-	PAVEMENT_GENERAL	Urban	F	1111101000000001	0000000000000000	-	-	-	-	-	-	-	-	-	-	Terminate	
Unknown	112.98560	10/22/0116 08:06.04	00006779	0.000	Inter625t13-0	-0.086	1	2	0.000	11.111	-228.6	0.000	0.740	P	F	477.5	0.012	0.209	-0.000	1503.502	523.207	0.028	-	0.000	-0.000	-	-	-	-	-	-	-	PAVEMENT_GENERAL	Urban	F	1011101000000001	0000000000000000	-	-	-	-	-	-	-	-	-	-	Terminate	
Unknown	113.98561	10/22/0116 08:06.05	00006839	0.000	Inter625t13-0	-0.086	1	2	0.000	11.111	-228.8	0.000	0.716	P	F	477.5	0.012	0.209	-0.000	1503.502	523.207	0.028	-	0.000	-0.000	-	-	-	-	-	-	-	PAVEMENT_GENERAL	Urban	F	1011101000000001	0000000000000000	-	-	-	-	-	-	-	-	-	-	Terminate	
Unknown	114.98563	10/22/0116 08:06.06	00006899	0.000	Inter625t13-0	-0.086	1	2	0.000	11.111	-228.8	0.000	0.713	P	F	477.5	0.012	0.209	-0.000	1503.502	523.207	0.028	-	0.000	-0.000	-	-	-	-	-	-	-	PAVEMENT_GENERAL	Urban	F	1011101000000001	0000000000000000	-	-	-	-	-	-	-	-	-	-	Terminate	
Unknown	115.98566	10/22/0116 08:06.07	00006959	0.000	Inter625t13-0	-0.086	1	2	0.000	11.111	-229.0	0.000	0.770	P	F	477.5	0.012	0.209	-0.000	1503.502	523.207	0.028	-	0.000	-0.000	-	-	-	-	-	-	-	PAVEMENT_GENERAL	Urban	F	1011101000000001	0000000000000000	-	-	-	-	-	-	-	-	-	-	Terminate	
Unknown	116.98567	10/22/0116 08:06.08	00007019	0.000	Inter625t13-0	-0.086	1	2	0.000	11.111	-229.0	0.000	1.000	P	F	477.5	0.012	0.209	-0.000	1503.502	523.207	0.028	-	0.000	-0.000	-	-	-	-	-	-	-	PAVEMENT_GENERAL	Urban	F	1011101000000001	0000000000000000	-	-	-	-	-	-	-	-	-	-	Terminate	
Unknown	117.98569	10/22/0116 08:06.09	00007079	-0.000	Inter625t13-0	-0.086	1	2	0.000	11.111	-229.1	0.000	0.970	D	F	477.5	0.012	0.209	-0.000	1503.502	523.207	0.028	-	0.000	-0.000	-	-	-	-	-	-	-	PAVEMENT_GENERAL	Urban	F	1111101000000001	0000000000000000	-	-	-	-	-	-	-	-	-	-	Terminate	
Unknown	118.98571	10/22/0116 08:06.10	00007139	0.000	Inter625t13-0	-0.086	1	2	0.000	11.111	-229.3	0.000	0.940	D	F	477.5	0.012	0.209	0.000	1503.502	523.207	0.028	-	-0.000	-0.000	-	-	-	-	-	-	-	PAVEMENT_GENERAL	Urban	F	1011101000000001	0000000000000000	-	-	-	-	-	-	-	-	-	-	Terminate	
Unknown	119.98573	10/22/0116 08:06.11	00007199	0.000	Inter625t13-0	-0.086	1	2	0.000	11.111	-228.7	0.000	0.866	D	F	477.5	0.012	0.209	-0.000	1503.502	523.207	0.028	-	-0.000	0.000	-	-	-	-	-	-	-	PAVEMENT_GENERAL	Urban	F	1011101000000001	0000000000000000	-	-	-	-	-	-	-	-	-	-	Terminate	
Unknown	120.98576	10/22/0116 08:06.12	00007259	0.000	Inter625t13-0	-0.086	1	2	0.000	11.111	-222.0	0.000	0.719	D	F	477.5	0.012	0.209	-0.000	1503.502	523.207	0.028	-	-0.000	0.000	-	-	-	-	-	-	-	PAVEMENT_GENERAL	Urban	F	1011101000000001	0000000000000000	-	-	-	-	-	-	-	-	-	-	Terminate	
Unknown	121.98577	10/22/0116 08:06.13	00007319	0.000	Inter625t13-0	-0.086	1	2	0.000	11.111	-221.5	0.000	0.513	D	F	477.5	0.012	0.209	-0.000	1503.502	523.207	0.028	-	0.000	-0.000	-	-	-	-	-	-	-	PAVEMENT_GENERAL	Urban	F	1011101000000001	0000000000000000	-	-	-	-	-	-	-	-	-	-	Terminate	
Unknown	122.98579	10/22/0116 08:06.14	00007379	0.000	Inter625t13-0	-0.086	1	2	0.000	11.111	-221.2	0.000	0.075	D	F	477.5	0.012	0.209	-0.000	1503.502	523.207	0.028	-	0.000	-0.000	-	-	-	-	-	-	-	PAVEMENT_GENERAL	Urban	F	1111101000000001	0000000000000000	-	-	-	-	-	-	-	-	-	-	Terminate	
Unknown	123.98581	10/22/0116 08:06.15	00007439	0.005	Inter625t13-0	-0.086	1	2	0.000	11.111	-220.5	0.000	0.000	D	F	477.5	0.003	0.206	0.002	1503.502	523.208	0.027	-	-0.006	0.018	-	-	-	-	-	-	-	PAVEMENT_GENERAL	Urban	F	1111101000000001	0000000000000000	-	-	-	-	-	-	-	-	-	-	Terminate	
Unknown	124.98583	10/22/0116 08:06.16	00007499	1.381	Inter625t13-0	-0.132	1	2	0.000	11.111	-208.2	0.168	0.000	D	F	1420.6	358.522	0.220	0.129	1503.456	523.482	0.011	-	-0.608	3.775	-	-	-	-	-	-	-	PAVEMENT_GENERAL	Urban	F	1111101000000001	0000000000000000	-	-	-	-	-	-	-	-	-	-	Terminate	
Unknown	125.98586	10/22/0116 08:06.17	00007559	4.110	Inter625t13-0	-0.655	1	2	0.000	11.111	-23.5	0.155	0.000	D	F	1615.9	350.778	0.231	-0.026	1502.933	526.323	0.015	-	0.116	2.128	-	-	-	-	-	-	-	PAVEMENT_GENERAL	Urban	F	1111101000000001	0000000000000000	-	-	-	-	-	-	-	-	-	-	Terminate	
Unknown	126.98587	10/22/0116 08:06.18	00007619	5.794	Inter625t13-0	-1.171	1	2	0.000	11.111	89.6	0.160	0.000	D	F	1867.1	356.401	0.213	-0.139	1502.417	531.292	0.019	-	1.048	1.430	-	-	-	-	-	-	-	PAVEMENT_GENERAL	Urban	F	1111101000000001	0000000000000000	-	-	-	-	-	-	-	-	-	-	Terminate	
Unknown	127.98589	10/22/0116 08:06.19	00007679	7.100	Inter625t49-0	-0.835	1	1	0.006	11.111	10.5	0.155	0.000	D	F	1603.5	4.912	0.210	-0.004	1502.753	537.777	0.021	-	0.063	1.081	-	-	-	-	-	-	-	PAVEMENT_GENERAL	Urban	F	1111101000000001	0000000000000000	-	-	-	-	-	-	-	-	-	-	Terminate	
Unknown	128.98592	10/22/0116 08:06.20	00007739	8.009	Inter625t49-0	-0.311	1	1	0.007	11.111	-10.4	0.141	0.000	D	F	1616.4	2.949	0.210	0.022	1503.278	545.340	0.023	-	-0.201	0.768	-	-	-	-	-	-	-	PAVEMENT_GENERAL	Urban	F	1011101000000001	0000000000000000	-	-	-	-	-	-	-	-	-	-	Terminate	
Unknown	129.98593	10/22/0116 08:06.21	00007799	8.766	Inter625t49-0	0.024	1	1	0.007	11.111	-9.5	0.196	0.000	D	F	1791.2	1.904	0.212	0.034	1503.614	553.715	0.023	-	-0.223	0.932	-	-	-	-	-	-	-	PAVEMENT_GENERAL	Urban	F	1011101000000001	0000000000000000	-	-	-	-	-	-	-	-	-	-	Terminate	
Unknown	130.98595	10/22/0116 08:06.22	00007859	10.063	Inter625t49-0	0.186	1	1	0.005	11.111	-6.2	0.213	0.000	D	F	1946.6	0.382	0.208	0.026	1503.777	563.140	0.021	-	-0.197	1.131	-	-	-	-	-	-	-	PAVEMENT_GENERAL	Urban	F	1011101000000001	0000000000000000	-	-	-	-	-	-	-	-	-	-	Terminate	
Unknown	131.98598	10/22/0116 08:06.23	00007919	11.068	Inter625t49-0	0.219	1	1	0.005	11.111	2.0	0.203	0.000	D	F	2009.4	0.325	0.207	-0.007	1503.812	573.722	0.022	-	0.078	0.921	-	-	-	-	-	-	-	PAVEMENT_GENERAL	Urban	F	1111101000000001	0000000000000000	-	-	-	-	-	-	-	-	-	-	Terminate	
Unknown	132.98599	10/22/0116 08:06.24	00007979	11.927	Inter625t15-0	0.278	1	2	0.000	11.111	-0.9	0.199	0.000	D	F	2097.4	0.154	0.206	0.003	1503.872	585.227	0.023	-	-0.046	0.819	-	-	-	-	-	-	-	PAVEMENT_GENERAL	Urban	F	1011101000000001	0000000000000000	-	-	-	-	-	-	-	-	-	-	Terminate	
Unknown	133.98601	10/22/0116 08:06.25	00008039	12.710	Inter625t15-0	0.291	1	2	0.000	11.111	-0.7	0.196	0.000	D	F	2174.5	0.000	0.204	0.004	1503.884	597.551	0.023	-	-0.034	0.740	-	-	-	-	-	-	-	PAVEMENT_GENERAL	Urban	F	1011101000000001	0000000000000000	-	-	-	-	-	-	-	-	-	-	Terminate	
Unknown	134.98604	10/22/0116 08:06.26	00008099	13.363	Inter614t1-0	0.280	1	2	0.000	11.111	1.6	0.194	0.000	D	F	1806.4	0.035	0.202	-0.009	1503.873	610.608	0.024	-	0.073	0.576	-	-	-	-	-	-	-	PAVEMENT_GENERAL	Urban	F	1011101000000001	0000000000000000	-	-	-	-	-	-	-	-	-	-	Terminate	
Unknown	135.98605	10/22/0116 08:06.27	00008159	13.916	Inter614t1-0	0.290	1	2	0.000	11.111	-1.1	0.194	0.000	D	F	1824.6	359.943	0.201	0.008	1503.883	624.251	0.024	-	-0.062	0.532	-	-	-	-	-	-	-	PAVEMENT_GENERAL	Urban	F	1011101000000001	0000000000000000	-	-	-	-	-	-	-	-	-	-	Terminate	
Unknown	136.98607	10/22/0116 08:06.28	00008219	14.411	Inter614t1-0	0.266	1	2	0.000	11.111	0.9	0.187	0.000	D	F	1826.7	359.923	0.200	-0.005	1503.859	638.422	0.024	-	0.035	0.456	-	-	-	-	-	-	-	PAVEMENT_GENERAL	Urban	F	1011101000000001	0000000000000000	-	-	-	-	-	-	-	-	-	-	Terminate	
Unknown	137.98610	10/22/0116 08:06.29	00008279	14.854	Inter614t1-0	0.266	1	2	0.000	11.111	0.3	0.185	0.000	D	F	1846.6	0.059	0.199	-0.003	1503.859	653.057	0.024	-	0.020	0.426	-	-	-	-	-	-	-	PAVEMENT_GENERAL	Urban	F	1111101000000001	0000000000000000	-	-	-	-	-	-	-	-	-	-	Terminate	
Unknown	138.98611	10/22/0116 08:06.30	00008339	15.263	Inter614t1-0	0.284	1	2	0.000	11.111	-1.5	0.187	0.000	D	F	1863.0	0.037	0.198	0.009	1503.877	668.118	0.025	-	-0.058	0.392	-	-	-	-	-	-	-	PAVEMENT_GENERAL	Urban	F	1011101000000001	0000000000000000	-	-	-	-	-	-	-	-	-	-	Terminate	
Unknown	139.98613	10/22/0116 08:06.31	00008399	15.642	Inter614t1-0	0.267	1	2	0.000	11.111	0.9	0.183	0.000	D	F	1881.7	359.895	0.198	-0.005	1503.860	683.573	0.025	-	0.026	0.367	-	-	-	-	-	-	-	PAVEMENT_GENERAL	Urban	F	1011101000000001	0000000000000000	-	-	-	-	-	-	-	-	-	-	Terminate	
Unknown	140.98616	10/22/0116 08:06.32	00008459	15.999	Inter614t1-0	0.248	1	2	0.000	11.111	-1.2	0.187	0.000	D	F	1898.3	359.902	0.197	0.007	1503.841	699.396	0.025	-	-0.053	0.347	-	-	-	-	-	-	-	PAVEMENT_GENERAL	Urban	F	1011101000000001	0000000000000000	-	-	-	-	-	-	-	-	-	-	Terminate	
Unknown	141.98618	10/22/0116 08:06.33	00008519	16.315	Inter614t1-0	0.193	1	2	0.000	11.111	0.0	0.171	0.000	D	F	1888.3	359.745	0.195	-0.000	1503.786	715.560	0.025	-	-0.007	0.257	-	-	-	-	-	-	-	PAVEMENT_GENERAL	Urban	F	1111101000000001	0000000000000000	-	-	-	-	-	-	-	-	-	-	Terminate	
Unknown	142.98619	10/22/0116 08:06.34	00008579	16.540	Inter614t1-0	0.127	1	2	0.000	11.111	0.1	0.162	0.000	D	F	1890.9	359.799	0.195	-0.001	1503.720	731.992	0.026	-	0.009	0.207	-	-	-	-	-	-	-	PAVEMENT_GENERAL	Urban	F	1111101000000001	0000000000000000	-	-	-	-	-	-	-	-	-	-	Terminate	
Unknown	143.98621	10/22/0116 08:06.35	00008639	16.744	Inter614t1-0	0.072	1	2	0.000	11.111	1.2	0.162	0.000	D	F	1905.5	359.850	0.194	-0.007	1503.665	748.634	0.026	-	0.049	0.198	-	-	-	-	-	-	-	PAVEMENT_GENERAL	Urban	F	1011101000000001	0000000000000000	-	-	-	-	-	-	-	-	-	-	Terminate	
Unknown	144.98624	10/22/0116 08:06.36	00008699	16.942	Inter614t1-0	0.068	1	2	0.000	11.111	-0.2	0.162	0.000	D	F	1920.9	0.092	0.194	-0.001	1503.661	765.478	0.026	-	0.009	0.194	-	-	-	-	-	-	-	PAVEMENT_GENERAL	Urban	F	1111101000000001	0000000000000000	-	-	-	-	-	-	-	-	-	-	Terminate	
Unknown	145.98625	10/22/0116 08:06.37	00008759	17.134	Inter614t1-0	0.084	1	2	0.000	11.111	0.3	0.166	0.000	D	F	1935.7	0.016	0.194	-0.000	1503.677	782.516	0.026	-	-0.001	0.190	-	-	-	-	-	-	-	PAVEMENT_GENERAL	Urban	F	1011101000000001	0000000000000000	-	-	-	-	-	-	-	-	-	-	Terminate	
Unknown	146.98627	10/22/0116 08:06.38	00008819	17.320	Inter614t1-0	0.102	1	2	0.000	11.111	0.2	0.164	0.000	D	F	1948.7	0.112	0.194	-0.003	1503.695	799.743	0.026	-	0.021	0.185	-	-	-	-	-	-	-	PAVEMENT_GENERAL	Urban	F	1011101000000001	0000000000000000	-	-	-	-	-	-	-	-	-	-	Terminate	
Unknown	147.98630	10/22/0116 08:06.39	00008879	17.501	Inter612t1-0	0.135	1	2	0.000	11.111	0.3	0.166	0.000	D	F	1962.4	0.110	0.193	-0.001	1503.729	817.154	0.026	-	0.007	0.180	-	-	-	-	-	-	-	PAVEMENT_GENERAL	Urban	F	1011101000000001	0000000000000000	-	-	-	-	-	-	-	-	-	-	Terminate	
Unknown	148.98631	10/22/0116 08:06.40	00008939	17.677	Inter612t1-0	0.185	1	2	0.000	11.111	0.7	0.164	0.000	D	F	1972.9	0.248	0.193	-0.006	1503.778	834.745	0.026	-	0.049	0.169	-	-	-	-	-	-	-	PAVEMENT_GENERAL	Urban	F	1011101000000001	0000000000000000	-	-	-	-	-	-	-	-	-	-	Terminate	
Unknown	149.98633	10/22/0116 08:06.41	00008999	17.843	Inter612t1-0	0.280	1	2	0.000	11.111	0.1	0.164	0.000	D	F	1986.6	0.365	0.193	-0.002	1503.873	852.505	0.026	-	0.017	0.165	-	-	-	-	-	-	-	PAVEMENT_GENERAL	Urban	F	1011101000000001	0000000000000000	-	-	-	-	-	-	-	-	-	-	Terminate	
Unknown	150.98636	10/22/0116 08:06.42	00009059	18.015	Inter612t1-0	0.378	1	2	0.000	11.111	-1.4	0.169	0.000	D	F	2001.1	0.199	0.192	0.011	1503.972	870.434	0.026	-	-0.082	0.173	-	-	-	-	-	-	-	PAVEMENT_GENERAL	Urban	F	1011101000000001	0000000000000000	-	-	-	-	-	-	-	-	-	-	Terminate	
Unknown	151.98637	10/22/0116 08:06.43	00009119	18.182	Inter612t1-0	0.409	1	2	0.000	11.111	-0.7	0.169	0.000	D	F	2021.4	0.000	0.192	0.005	1504.002	888.531	0.026	-	-0.047	0.184	-	-	-	-	-	-	-	PAVEMENT_GENERAL	Urban	F	1011101000000001	0000000000000000	-	-	-	-	-	-	-	-	-	-	Terminate	
Unknown	152.98639	10/22/0116 08:06.44	00009179	18.366	Inter612t1-0	0.385	1	2	0.000	11.111	-0.9	0.175	0.000	D	F	2034.5	359.830	0.192	0.008	1503.978	906.805	0.026	-	-0.057	0.182	-	-	-	-	-	-	-	PAVEMENT_GENERAL	Urban	F	1011101000000001	0000000000000000	-	-	-	-	-	-	-	-	-	-	Terminate	
Unknown	153.98642	10/22/0116 08:06.45	00009239	18.538	Inter612t1-0	0.308	1	2	0.000	11.111	-0.6	0.171	0.000	D	F	2045.7	359.671	0.191	0.005	1503.901	925.258	0.026	-	-0.044	0.170	-	-	-	-	-	-	-	PAVEMENT_GENERAL	Urban	F	1111101000000001	0000000000000000	-	-	-	-	-	-	-	-	-	-	Terminate	
Unknown	154.98643	10/22/0116 08:06.46	00009299	18.705	Inter612t1-0	0.183	1	2	0.000	11.111	-0.9	0.171	0.000	D	F	2062.2	359.526	0.191	0.007	1503.776	943.878	0.026	-	-0.055	0.168	-	-	-	-	-	-	-	PAVEMENT_GENERAL	Urban	F	1111101000000001	0000000000000000	-	-	-	-	-	-	-	-	-	-	Terminate	
Unknown	155.98645	10/22/0116 08:06.47	00009359	18.867	Inter612t1-0	0.004	1	2	0.000	11.111	1.6	0.173	0.000	D	F	2079.6	359.394	0.191	-0.007	1503.597	962.664	0.026	-	0.035	0.164	-	-	-	-	-	-	-	PAVEMENT_GENERAL	Urban	F	1011101000000001	0000000000000000	-	-	-	-	-	-	-	-	-	-	Terminate	
Unknown	156.98647	10/22/0116 08:06.48	00009419	19.028	Inter612t1-0	-0.124	1	2	0.000	11.111	3.5	0.175	0.000	D	F	2093.3	0.000	0.190	-0.030	1503.469	981.611	0.026	-	0.233	0.154	-	-	-	-	-	-	-	PAVEMENT_GENERAL	Urban	F	1011101000000001	0000000000000000	-	-	-	-	-	-	-	-	-	-	Terminate	
Unknown	157.98650	10/22/0116 08:06.49	00009479	19.181	Inter613t1-0	-0.043	1	2	0.000	11.111	2.1	0.173	0.000	D	F	2105.8	0.608	0.190	-0.026	1503.551	1000.715	0.026	-	0.184	0.153	-	-	-	-	-	-	-	PAVEMENT_GENERAL	Urban	F	1011101000000001	0000000000000000	-	-	-	-	-	-	-	-	-	-	Terminate	
Unknown	158.98651	10/22/0116 08:06.50	00009539	19.344	Inter613t1-0	0.157	1	2	0.000	11.111	0.3	0.178	0.000	D	F	2126.6	0.510	0.190	0.003	1503.750	1019.976	0.026	-	-0.028	0.169	-	-	-	-	-	-	-	PAVEMENT_GENERAL	Urban	F	1111101000000001	0000000000000000	-	-	-	-	-	-	-	-	-	-	Terminate	
Unknown	159.98653	10/22/0116 08:06.51	00009599	19.496	Inter613t1-0	0.345	1	2	0.000	11.111	-1.4	0.169	0.000	D	F	2129.1	0.544	0.190	0.007	1503.938	1039.400	0.026	-	-0.055	0.127	-	-	-	-	-	-	-	PAVEMENT_GENERAL	Urban	F	1111101000000001	0000000000000000	-	-	-	-	-	-	-	-	-	-	Terminate	
Unknown	160.98656	10/22/0116 08:06.52	00009659	19.607	Inter613t1-0	0.479	1	2	0.000	11.111	-1.1	0.159	0.000	D	F	2123.3	0.205	0.189	0.010	1504.072	1058.954	0.026	-	-0.085	0.090	-	-	-	-	-	-	-	PAVEMENT_GENERAL	Urban	F	1011101000000001	0000000000000000	-	-	-	-	-	-	-	-	-	-	Terminate	
Unknown	161.98657	10/22/0116 08:06.53	00009719	19.679	Inter613t1-0	0.512	1	2	0.000	11.111	-1.8	0.168	0.000	D	F	2142.6	359.887	0.189	0.017	1504.105	1078.592	0.026	-	-0.135	0.100	-	-	-	-	-	-	-	PAVEMENT_GENERAL	Urban	F	1111101000000001	0000000000000000	-	-	-	-	-	-	-	-	-	-	Terminate	
Unknown	162.98659	10/22/0116 08:06.54	00009779	19.786	Inter613t1-0	0.445	1	2	0.000	11.111	0.1	0.166	0.000	D	F	2154.2	359.734	0.189	0.001	1504.039	1098.324	0.026	-	-0.012	0.108	-	-	-	-	-	-	-	PAVEMENT_GENERAL	Urban	F	1011101000000001	0000000000000000	-	-	-	-	-	-	-	-	-	-	Terminate	
Unknown	163.98662	10/22/0116 08:06.55	00009839	19.887	Inter613t1-0	0.364	1	2	0.000	11.111	0.1	0.168	0.000	D	F	2161.1	359.793	0.189	-0.000	1503.957	1118.162	0.026	-	0.008	0.095	-	-	-	-	-	-	-	PAVEMENT_GENERAL	Urban	F	1011101000000001	0000000000000000	-	-	-	-	-	-	-	-	-	-	Terminate	
Unknown	164.98663	10/22/0116 08:06.56	00009899	19.981	Inter613t1-0	0.296	1	2	0.000	11.111	0.2	0.169	0.000	D	F	2170.9	359.831	0.188	-0.002	1503.889	1138.096	0.026	-	0.015	0.093	-	-	-	-	-	-	-	PAVEMENT_GENERAL	Urban	F	1111101000000001	0000000000000000	-	-	-	-	-	-	-	-	-	-	Terminate	
Unknown	165.98665	10/22/0116 08:06.57	00009959	20.071	Inter613t1-0	0.246	1	2	0.000	11.111	0.8	0.166	0.000	D	F	2177.6	359.912	0.188	-0.006	1503.840	1158.123	0.026	-	0.044	0.089	-	-	-	-	-	-	-	PAVEMENT_GENERAL	Urban	F	1111101000000001	0000000000000000	-	-	-	-	-	-	-	-	-	-	Terminate	
Unknown	166.98668	10/22/0116 08:06.58	00010019	20.160	Inter613t1-0	0.232	1	2	0.000	11.111	0.1	0.171	0.000	D	F	2186.5	0.003	0.188	-0.002	1503.825	1178.239	0.026	-	0.014	0.090	-	-	-	-	-	-	-	PAVEMENT_GENERAL	Urban	F	1011101000000001	0000000000000000	-	-	-	-	-	-	-	-	-	-	Terminate	
Unknown	167.98669	10/22/0116 08:06.59	00010079	20.246	Inter613t1-0	0.234	1	2	0.000	11.111	0.1	0.169	0.000	D	F	2192.8	0.011	0.188	-0.001	1503.827	1198.443	0.026	-	0.005	0.082	-	-	-	-	-	-	-	PAVEMENT_GENERAL	Urban	F	1011101000000001	0000000000000000	-	-	-	-	-	-	-	-	-	-	Terminate	
Unknown	168.98671	10/22/0116 08:07.00	00010139	20.325	Inter746t1-0	0.241	1	2	0.000	11.111	0.2	0.168	0.000	D	F	2199.0	0.036	0.188	-0.002	1503.834	1218.729	0.026	-	0.011	0.076	-	-	-	-	-	-	-	PAVEMENT_GENERAL	Urban	F	1011101000000001	0000000000000000	-	-	-	-	-	-	-	-	-	-	Terminate	
Unknown	169.98674	10/22/0116 08:07.01	00010199	20.398	Inter746t1-0	0.259	1	2	0.000	11.111	0.2	0.169	0.000	D	F	2203.1	0.074	0.187	-0.002	1503.852	1239.091	0.026	-	0.013	0.071	-	-	-	-	-	-	-	PAVEMENT_GENERAL	Urban	F	1011101000000001	0000000000000000	-	-	-	-	-	-	-	-	-	-	Terminate	
Unknown	170.98676	10/22/0116 08:07.02	00010259	20.465	Inter746t1-0	0.292	1	2	0.000	11.111	0.4	0.169	0.000	D	F	1795.2	0.131	0.187	-0.004	1503.885	1259.526	0.027	-	0.027	0.038	-	-	-	-	-	-	-	PAVEMENT_GENERAL	Urban	F	1111101000000001	0000000000000000	-	-	-	-	-	-	-	-	-	-	Terminate	
Unknown	171.98677	10/22/0116 08:07.03	00010319	20.458	Inter746t1-0	0.348	1	2	0.000	11.111	-0.5	0.159	0.000	D	F	1742.4	0.194	0.186	0.006	1503.941	1279.989	0.027	-	-0.006	0.003	-	-	-	-	-	-	-	PAVEMENT_GENERAL	Urban	F	1111101000000001	0000000000000000	-	-	-	-	-	-	-	-	-	-	Terminate	
Unknown	172.98679	10/22/0116 08:07.04	00010379	20.439	Inter746t1-0	0.399	1	2	0.000	11.111	-2.3	0.157	0.000	D	F	1722.5	0.021	0.186	0.017	1503.992	1300.439	0.027	-	-0.121	-0.032	-	-	-	-	-	-	-	PAVEMENT_GENERAL	Urban	F	1111101000000001	0000000000000000	-	-	-	-	-	-	-	-	-	-	Terminate	
Unknown	173.98682	10/22/0116 08:07.05	00010439	20.407	Inter746t1-0	0.285	1	2	0.000	11.111	-7.1	0.155	0.000	D	F	1723.2	358.927	0.186	0.075	1503.878	1320.862	0.027	-	-0.557	-0.027	-	-	-	-	-	-	-	PAVEMENT_GENERAL	Urban	F	1111101000000001	0000000000000000	-	-	-	-	-	-	-	-	-	-	Terminate	
Unknown	174.98683	10/22/0116 08:07.06	00010499	20.377	Inter746t1-0	-0.280	1	2	0.000	11.111	0.9	0.153	0.000	D	F	1723.8	357.920	0.187	-0.005	1503.313	1341.246	0.027	-	-0.063	-0.022	-	-	-	-	-	-	-	PAVEMENT_GENERAL	Urban	F	1011101000000001	0000000000000000	-	-	-	-	-	-	-	-	-	-	Terminate	
Unknown	175.98685	10/22/0116 08:07.07	00010559	19.971	Inter746t1-0	-1.059	1	2	0.000	11.111	-4.4	0.000	0.000	D	F	1361.8	357.233	0.180	0.059	1502.534	1361.469	0.029	L	-0.437	-0.603	-	-	-	-	-	-	-	PAVEMENT_GENERAL	Urban	F	1011101000100001	0000000000000000	-	-	-	-	-	-	-	-	-	-	Terminate	
Unknown	176.98688	10/22/0116 08:07.08	00010619	19.372	-	-	CL	0	-	-	5.8	0.000	0.000	D	F	1320.8	357.395	0.182	-0.054	1501.551	1381.115	0.029	L	0.385	-0.594	-	-	-	-	-	-	-	PAVEMENT_GENERAL	Urban	F	1011101000100001	0000000000000000	-	-	-	-	-	-	-	-	-	-	Terminate	
Unknown	177.98689	10/22/0116 08:07.09	00010679	18.088	-	-	CL	0	-	-	8.3	0.000	0.230	D	F	1195.9	359.253	0.113	-0.078	1500.931	1400.070	0.033	L	0.591	-3.255	-	-	-	-	-	-	-	PAVEMENT_GENERAL	Urban	F	1111101000100001	0000000000000000	-	-	-	-	-	-	-	-	-	-	Terminate	
Unknown	178.98691	10/22/0116 08:07.10	00010739	14.763	-	-	CL	0	-	-	5.4	0.000	0.221	D	F	976.6	0.859	0.141	-0.050	1500.896	1416.486	0.035	L	0.383	-3.323	-	-	-	-	-	-	-	PAVEMENT_GENERAL	Urban	F	1111101000100001	0000000000000000	-	-	-	-	-	-	-	-	-	-	Terminate	
Unknown	179.98694	10/22/0116 08:07.11	00010799	11.457	Inter749t31-0	-1.755	1	1	354.888	11.111	-6.2	0.000	0.215	D	F	1060.8	1.121	0.150	0.028	1501.145	1429.577	0.035	L	-0.171	-3.198	-	-	-	-	-	-	-	PAVEMENT_GENERAL	Urban	F	1011101000100001	0000000000000000	-	-	-	-	-	-	-	-	-	-	Terminate	
Unknown	180.98695	10/22/0116 08:07.12	00010859	8.652	Inter749t31-0	-0.851	1	1	355.172	11.111	-7.9	0.000	0.101	D	F	838.7	0.000	0.173	0.025	1501.242	1439.492	0.031	L	-0.197	-1.910	-	-	-	-	-	-	-	PAVEMENT_GENERAL	Urban	F	1011101000100001	0000000000000000	-	-	-	-	-	-	-	-	-	-	Terminate	
Unknown	181.98697	10/22/0116 08:07.13	00010919	8.106	Inter749t31-0	-0.128	1	1	356.470	11.111	-8.0	0.000	0.000	D	F	796.6	358.716	0.197	0.023	1501.129	1447.839	0.029	L	-0.178	-0.476	-	-	-	-	-	-	-	PAVEMENT_GENERAL	Urban	F	1011101000100001	0000000000000000	-	-	-	-	-	-	-	-	-	-	Terminate	
Unknown	182.98700	10/22/0116 08:07.14	00010979	7.634	Inter749t31-0	0.171	1	1	356.903	11.111	-0.0	0.000	0.000	D	F	750.3	357.971	0.197	-0.001	1500.874	1455.704	0.028	L	-0.002	-0.469	-	-	-	-	-	-	-	PAVEMENT_GENERAL	Urban	F	1011101000100001	0000000000000000	-	-	-	-	-	-	-	-	-	-	Terminate	
Unknown	183.98701	10/22/0116 08:07.15	00011039	7.166	Inter749t31-0	0.318	1	1	356.903	11.111	3.1	0.000	0.000	D	F	704.3	358.131	0.197	-0.008	1500.620	1463.100	0.028	L	0.060	-0.467	-	-	-	-	-	-	-	PAVEMENT_GENERAL	Urban	F	1111101000100001	0000000000000000	-	-	-	-	-	-	-	-	-	-	Terminate	
Unknown	184.98703	10/22/0116 08:07.16	00011099	6.770	Inter749t11-0	0.387	LT1	2	0.000	11.111	9.4	0.093	0.000	D	F	1226.3	358.991	0.210	-0.015	1500.449	1470.036	0.027	L	0.137	0.068	-	-	-	-	-	-	-	PAVEMENT_GENERAL	Urban	F	1011101000100001	0000000000000000	-	-	-	-	-	-	-	-	-	-	Terminate	
Unknown	185.98706	10/22/0116 08:07.17	00011159	7.271	Inter749t11-0	0.311	LT1	2	0.000	11.111	-0.6	0.145	0.000	D	F	1439.9	359.447	0.213	0.001	1500.373	1477.048	0.024	L	-0.014	0.691	-	-	-	-	-	-	-	PAVEMENT_GENERAL	Urban	F	1011101000100001	0000000000000000	-	-	-	-	-	-	-	-	-	-	Terminate	
Unknown	186.98708	10/22/0116 08:07.18	00011219	7.923	Inter749t65-0	0.416	1	1	349.420	11.111	-31.2	0.146	0.000	D	F	1461.2	358.112	0.207	0.088	1500.228	1484.641	0.023	L	-0.644	0.657	-	-	-	-	-	-	-	PAVEMENT_GENERAL	Urban	F	1111101000100001	0000000000000000	-	-	-	-	-	-	-	-	-	-	Terminate	
Unknown	187.98709	10/22/0116 08:07.19	00011279	8.429	-Inter749t61-0	0.056	-1	1	89.733	11.111	-130.6	0.132	0.000	D	F	1433.6	347.235	0.195	0.409	1499.183	1492.757	0.025	L	-3.011	0.328	-	-	-	-	-	-	-	PAVEMENT_GENERAL	Urban	F	1011101000100001	0000000000000000	-	-	-	-	-	-	-	-	-	-	Terminate	
Unknown	188.98711	10/22/0116 08:07.20	00011339	8.856	-Inter749t83-0	1.059	-1	1	179.883	11.111	-170.1	0.145	0.000	D	F	1474.3	323.911	0.171	0.555	1495.365	1500.456	0.027	L	-4.192	0.214	-	-	-	24	19.674	174.239	19.674	PAVEMENT_GENERAL	Urban	F	1011101000100001	0000000000000000	-	-	-	-	-	-	-	-	-	-	Terminate	
Unknown	189.98714	10/22/0116 08:07.21	00011399	9.159	Inter749t77-0	-1.352	1	1	269.734	11.111	-183.8	0.150	0.000	D	F	1516.1	294.440	0.151	0.631	1488.232	1505.810	0.030	L	-4.846	0.182	-	-	-	Ambient403	6.786	62.154	-	PAVEMENT_GENERAL	Urban	F	1111101000100001	0000000000000000	-	-	-	-	-	-	-	-	-	-	Terminate	
Unknown	190.98715	10/22/0116 08:07.22	00011459	9.605	Inter749t3-4	0.031	2	2	270.000	11.111	-70.3	0.157	0.000	D	F	1540.7	268.741	0.167	0.264	1479.044	1507.161	0.025	L	-2.266	0.530	-	-	-	Ambient403	6.699	64.346	-	PAVEMENT_GENERAL	Urban	F	1011101000100001	0000000000000000	-	-	-	-	-	-	-	-	-	-	Terminate	
Unknown	191.98717	10/22/0116 08:07.23	00011519	10.168	Inter749t3-4	-0.535	2	2	270.000	11.111	26.5	0.159	0.000	D	F	1571.8	268.261	0.205	-0.088	1469.174	1506.596	0.024	-	0.828	0.568	-	-	-	Ambient403	6.242	63.468	-	PAVEMENT_GENERAL	Urban	F	1111101000000001	0000000000000000	-	-	-	-	-	-	-	-	-	-	Terminate	
Unknown	192.98720	10/22/0116 08:07.24	00011579	10.771	Inter749t17-0	-0.440	1	1	270.088	11.111	7.3	0.169	0.000	D	F	1625.3	271.998	0.204	-0.038	1458.710	1506.700	0.024	-	0.311	0.604	-	-	-	Ambient403	6.199	66.768	-	PAVEMENT_GENERAL	Urban	F	1011101000000001	0000000000000000	-	-	-	-	-	-	-	-	-	-	Terminate	
Unknown	193.98721	10/22/0116 08:07.25	00011639	11.368	Inter749t17-0	-0.042	1	1	270.104	11.111	-1.6	0.178	0.000	D	F	1666.8	271.924	0.205	0.004	1447.648	1507.112	0.024	-	-0.074	0.599	-	-	-	Ambient403	5.901	67.081	-	PAVEMENT_GENERAL	Urban	F	1011101000000001	0000000000000000	-	-	-	-	-	-	-	-	-	-	Terminate	
Unknown	194.98723	10/22/0116 08:07.26	00011699	11.961	Inter749t17-0	0.264	1	1	270.068	11.111	-8.3	0.178	0.000	D	F	1695.8	271.207	0.204	0.045	1435.987	1507.442	0.024	-	-0.294	0.577	-	-	-	Ambient403	5.584	66.793	114.113	PAVEMENT_GENERAL	Urban	F	1011101000000001	0000000000000000	-	-	-	-	-	-	-	-	-	-	Terminate	
Unknown	195.98726	10/22/0116 08:07.27	00011759	12.562	Inter749t17-0	0.371	1	1	270.061	11.111	-5.4	0.194	0.000	D	F	1761.8	270.098	0.204	0.030	1423.729	1507.564	0.024	-	-0.211	0.619	-	-	-	Ambient403	5.247	65.910	55.541	PAVEMENT_GENERAL	Urban	F	1011101000000001	0000000000000000	-	-	-	-	-	-	-	-	-	-	Terminate	
Unknown	196.98727	10/22/0116 08:07.28	00011819	13.210	Inter749t1-3	0.252	2	2	270.000	11.111	-12.6	0.205	0.000	D	F	1821.5	268.716	0.203	0.069	1410.846	1507.452	0.023	L	-0.515	0.656	-	-	-	Ambient403	4.875	64.403	35.096	PAVEMENT_GENERAL	Urban	F	1011101000100001	0000000000000000	-	-	-	-	-	-	-	-	-	-	Terminate	
Unknown	197.98729	10/22/0116 08:07.29	00011879	13.829	Inter747t1-3	-0.343	2	2	270.000	11.111	-6.3	0.203	0.000	D	F	1841.0	266.408	0.201	0.045	1397.335	1506.864	0.024	L	-0.378	0.587	-	-	-	Ambient403	4.502	62.258	25.370	PAVEMENT_GENERAL	Urban	F	1011101000100001	0000000000000000	-	-	-	-	-	-	-	-	-	-	Terminate	
Unknown	198.98732	10/22/0116 08:07.30	00011939	14.426	Inter747t1-3	-1.272	2	2	270.000	11.111	9.3	0.219	0.000	D	F	1914.4	266.523	0.203	-0.053	1383.242	1505.934	0.024	-	0.377	0.655	-	-	-	Ambient403	4.127	59.541	19.513	PAVEMENT_GENERAL	Urban	F	1011101000000001	0000000000000000	-	-	-	-	-	-	-	-	-	-	Terminate	
Unknown	199.98734	10/22/0116 08:07.31	00011999	15.064	Inter747t1-2	1.686	1	2	270.000	11.111	0.6	0.222	0.000	D	F	1946.5	268.361	0.200	-0.013	1368.509	1505.292	0.024	-	0.167	0.619	-	-	-	Ambient403	3.572	53.801	14.586	PAVEMENT_GENERAL	Urban	F	1011101000000001	0000000000000000	-	-	-	-	-	-	-	-	-	-	Terminate	
Unknown	200.98735	10/22/0116 08:07.32	00012059	15.664	Inter747t1-2	1.287	1	2	270.000	11.111	3.5	0.222	0.000	D	F	1974.9	268.853	0.200	-0.027	1353.147	1504.894	0.024	-	0.202	0.580	-	-	-	Ambient403	3.181	49.820	11.617	PAVEMENT_GENERAL	Urban	F	1011101000000001	0000000000000000	-	-	-	-	-	-	-	-	-	-	Terminate	
Unknown	201.98737	10/22/0116 08:07.33	00012119	16.229	Inter747t1-2	1.004	1	2	270.000	11.111	-0.2	0.226	0.000	D	F	2005.0	268.951	0.199	0.004	1337.201	1504.611	0.024	-	-0.042	0.554	-	-	-	Ambient403	3.079	49.968	10.295	PAVEMENT_GENERAL	Urban	F	1111101000000001	0000000000000000	-	-	-	-	-	-	-	-	-	-	Terminate	
Unknown	202.98740	10/22/0116 08:07.34	00012179	16.760	Inter747t1-2	0.728	1	2	270.000	11.111	1.7	0.224	0.000	D	F	2028.7	269.233	0.197	-0.015	1320.706	1504.334	0.024	-	0.113	0.514	-	-	-	-	-	-	-	PAVEMENT_GENERAL	Urban	F	1011101000000001	0000000000000000	-	-	-	-	-	-	-	-	-	-	Terminate	
Unknown	203.98741	10/22/0116 08:07.35	00012239	17.244	Inter747t1-2	0.542	1	2	270.000	11.111	1.6	0.219	0.000	D	F	2044.3	269.540	0.196	-0.011	1303.700	1504.149	0.024	-	0.089	0.466	-	-	-	-	-	-	-	PAVEMENT_GENERAL	Urban	F	1011101000000001	0000000000000000	-	-	-	-	-	-	-	-	-	-	Terminate	
Unknown	204.98743	10/22/0116 08:07.36	00012299	17.697	Inter747t1-2	0.451	1	2	270.000	11.111	1.6	0.224	0.000	D	F	2072.6	269.932	0.195	-0.012	1286.229	1504.057	0.024	-	0.115	0.450	-	-	-	-	-	-	-	PAVEMENT_GENERAL	Urban	F	1011101000000001	0000000000000000	-	-	-	-	-	-	-	-	-	-	Terminate	
Unknown	205.98746	10/22/0116 08:07.37	00012359	18.108	Inter747t1-2	0.424	1	2	270.000	11.111	-0.5	0.219	0.000	D	F	2099.8	269.797	0.194	0.005	1268.324	1504.031	0.025	-	-0.063	0.407	-	-	-	-	-	-	-	PAVEMENT_GENERAL	Urban	F	1011101000000001	0000000000000000	-	-	-	-	-	-	-	-	-	-	Terminate	
Unknown	206.98747	10/22/0116 08:07.38	00012419	18.499	Inter747t1-2	0.343	1	2	270.000	11.111	-0.1	0.210	0.000	D	F	2115.9	269.645	0.194	0.006	1250.014	1503.950	0.025	-	-0.040	0.365	-	-	-	-	-	-	-	PAVEMENT_GENERAL	Urban	F	1011101000000001	0000000000000000	-	-	-	-	-	-	-	-	-	-	Terminate	
Unknown	207.98749	10/22/0116 08:07.39	00012479	18.855	Inter747t1-2	0.221	1	2	270.000	11.111	2.2	0.213	0.000	D	F	2149.0	269.673	0.193	-0.018	1231.337	1503.828	0.025	-	0.105	0.356	-	-	-	-	-	-	-	PAVEMENT_GENERAL	Urban	F	1011101000000001	0000000000000000	-	-	-	-	-	-	-	-	-	-	Terminate	
Unknown	208.98752	10/22/0116 08:07.40	00012539	19.013	Inter747t1-2	0.132	1	2	270.000	11.111	-0.0	0.150	0.000	D	F	2065.1	269.686	0.190	0.006	1212.361	1503.739	0.027	-	-0.031	0.048	-	-	-	-	-	-	-	PAVEMENT_GENERAL	Urban	F	1111101000000001	0000000000000000	-	-	-	-	-	-	-	-	-	-	Terminate	
Unknown	209.98753	10/22/0116 08:07.41	00012599	19.079	Inter748t1-2	0.047	1	2	270.000	11.111	1.1	0.157	0.000	D	F	2080.1	269.855	0.190	-0.011	1193.317	1503.654	0.026	-	0.071	0.079	-	-	-	-	-	-	-	PAVEMENT_GENERAL	Urban	F	1011101000000001	0000000000000000	-	-	-	-	-	-	-	-	-	-	Terminate	
Unknown	210.98755	10/22/0116 08:07.42	00012659	19.173	Inter748t1-2	0.030	1	2	270.000	11.111	1.4	0.162	0.000	D	F	2095.1	270.114	0.190	-0.015	1174.194	1503.637	0.026	-	0.103	0.116	-	-	-	-	-	-	-	PAVEMENT_GENERAL	Urban	F	1011101000000001	0000000000000000	-	-	-	-	-	-	-	-	-	-	Terminate	
Unknown	211.98758	10/22/0116 08:07.43	00012719	19.284	Inter748t1-2	0.080	1	2	270.000	11.111	-1.0	0.168	0.000	D	F	2106.1	270.122	0.190	0.009	1154.966	1503.687	0.026	-	-0.055	0.113	-	-	-	-	-	-	-	PAVEMENT_GENERAL	Urban	F	1111101000000001	0000000000000000	-	-	-	-	-	-	-	-	-	-	Terminate	
