"Name"	"Project"	"Time"	ZoneName	Time	SystemTime	Frame	Velocity	LaneName	LanePos	LaneIndex	LaneCount	LaneHeading	SpeedLimit	Steer	Accel	Brake	Gear	Horn	SubjectEngineRPM	SubjectHeading	SubjectPitch	SubjectRoll	SubjectX	SubjectY	SubjectZ	Signal	LatAccel	LongAccel	Collision	CollisionAngle	CollisionVelocity	VehAhead	HeadwayTime	HeadwayDist	TTC	TerrainType	CultureType	Slip	DigitalInputs	DigitalInputs2	ActiveTrigger	EntityName	DistToEntity	TimeToEntity	EntityVelocity	EntityAccel	EntityHeading	EntityX	EntityY	EntityZ	GrabData	
"default"	"Seema_Shokoufeh_Track2"	"Feb 14, 2017 09:44:30 AM"	Unknown	0.98335	01/14/0117 09:44.35	00000059	0.002	Inter625t13-0	-0.088	1	2	0.000	11.111	1.2	0.000	0.000	D	F	0.0	0.002	0.153	-0.001	1503.500	523.206	0.019	-	-0.000	0.000	-	-	-	-	-	-	-	PAVEMENT_GENERAL	Urban	F	1011101000011101	0000000000000000	-	-	-	-	-	-	-	-	-	-	Terminate	
"default"	"Seema_Shokoufeh_Track2"	"Feb 14, 2017 09:44:30 AM"	Unknown	1.98337	01/14/0117 09:44.36	00000119	0.000	Inter625t13-0	-0.088	1	2	0.000	11.111	3.0	0.005	0.000	D	F	0.0	0.001	0.197	-0.000	1503.500	523.208	0.026	-	0.000	-0.001	-	-	-	-	-	-	-	PAVEMENT_GENERAL	Urban	F	1011101000011101	0000000000000000	-	-	-	-	-	-	-	-	-	-	Terminate	
"default"	"Seema_Shokoufeh_Track2"	"Feb 14, 2017 09:44:30 AM"	Unknown	2.98339	01/14/0117 09:44.37	00000179	-0.000	Inter625t13-0	-0.088	1	2	0.000	11.111	3.7	0.630	0.000	D	F	0.0	0.001	0.207	-0.000	1503.500	523.208	0.028	-	0.000	-0.000	-	-	-	-	-	-	-	PAVEMENT_GENERAL	Urban	F	1011101000011101	0000000000000000	-	-	-	-	-	-	-	-	-	-	Terminate	
"default"	"Seema_Shokoufeh_Track2"	"Feb 14, 2017 09:44:30 AM"	Unknown	3.98341	01/14/0117 09:44.38	00000239	-0.000	Inter625t13-0	-0.088	1	2	0.000	11.111	4.7	0.986	0.000	D	F	0.0	0.001	0.210	-0.000	1503.500	523.208	0.028	-	-0.000	-0.000	-	-	-	-	-	-	-	PAVEMENT_GENERAL	Urban	F	1011101000011101	0000000000000000	-	-	-	-	-	-	-	-	-	-	Terminate	
"default"	"Seema_Shokoufeh_Track2"	"Feb 14, 2017 09:44:30 AM"	Unknown	4.98343	01/14/0117 09:44.39	00000299	-0.000	Inter625t13-0	-0.088	1	2	0.000	11.111	-1.3	0.000	0.000	D	F	0.0	0.001	0.210	-0.000	1503.500	523.208	0.028	-	-0.000	0.000	-	-	-	-	-	-	-	PAVEMENT_GENERAL	Urban	F	1011101000011101	0000000000000000	-	-	-	-	-	-	-	-	-	-	Terminate	
"default"	"Seema_Shokoufeh_Track2"	"Feb 14, 2017 09:44:30 AM"	Unknown	5.98345	01/14/0117 09:44.40	00000359	0.000	Inter625t13-0	-0.088	1	2	0.000	11.111	-2.4	0.000	0.000	D	F	150.0	0.001	0.209	-0.000	1503.500	523.208	0.028	-	-0.000	0.000	-	-	-	-	-	-	-	PAVEMENT_GENERAL	Urban	F	1011101000011101	0000000000000000	-	-	-	-	-	-	-	-	-	-	Terminate	
"default"	"Seema_Shokoufeh_Track2"	"Feb 14, 2017 09:44:30 AM"	Unknown	6.98347	01/14/0117 09:44.41	00000419	0.009	Inter625t13-0	-0.088	1	2	0.000	11.111	4.3	0.240	0.000	D	F	483.3	0.001	0.209	-0.000	1503.500	523.209	0.027	-	0.000	0.097	-	-	-	-	-	-	-	PAVEMENT_GENERAL	Urban	F	1011101000011101	0000000000000000	-	-	-	-	-	-	-	-	-	-	Terminate	
"default"	"Seema_Shokoufeh_Track2"	"Feb 14, 2017 09:44:30 AM"	Unknown	7.98349	01/14/0117 09:44.42	00000479	3.879	Inter625t13-0	-0.082	1	2	0.000	11.111	2.7	0.168	0.000	D	F	1767.1	0.136	0.195	0.010	1503.506	524.876	0.005	-	0.007	3.907	-	-	-	-	-	-	-	PAVEMENT_GENERAL	Urban	F	1011101000011101	0000000000000000	-	-	-	-	-	-	-	-	-	-	Terminate	
"default"	"Seema_Shokoufeh_Track2"	"Feb 14, 2017 09:44:30 AM"	Unknown	8.98351	01/14/0117 09:44.43	00000539	5.905	Inter625t13-0	-0.050	1	2	0.000	11.111	3.1	0.171	0.000	D	F	1891.8	0.451	0.216	-0.005	1503.538	529.652	0.014	-	0.036	1.974	-	-	-	-	-	-	-	PAVEMENT_GENERAL	Urban	F	1011101000011101	0000000000000000	-	-	-	-	-	-	-	-	-	-	Terminate	
"default"	"Seema_Shokoufeh_Track2"	"Feb 14, 2017 09:44:30 AM"	Unknown	9.98353	01/14/0117 09:44.44	00000599	7.335	Inter625t49-0	0.037	1	1	0.006	11.111	2.7	0.185	0.000	D	F	1695.4	0.884	0.215	-0.007	1503.625	536.309	0.020	-	0.049	1.277	-	-	-	-	-	-	-	PAVEMENT_GENERAL	Urban	F	1011101000011101	0000000000000000	-	-	-	-	-	-	-	-	-	-	Terminate	
"default"	"Seema_Shokoufeh_Track2"	"Feb 14, 2017 09:44:30 AM"	Unknown	10.98355	01/14/0117 09:44.45	00000659	8.554	Inter625t49-0	0.181	1	1	0.007	11.111	1.8	0.185	0.000	D	F	1768.9	1.146	0.208	-0.006	1503.770	544.267	0.021	-	0.043	1.073	-	-	-	-	-	-	-	PAVEMENT_GENERAL	Urban	F	1011101000011101	0000000000000000	-	-	-	-	-	-	-	-	-	-	Terminate	
"default"	"Seema_Shokoufeh_Track2"	"Feb 14, 2017 09:44:30 AM"	Unknown	11.98357	01/14/0117 09:44.46	00000719	9.726	Inter625t49-0	0.388	1	1	0.007	11.111	1.5	0.210	0.000	D	F	1922.9	1.390	0.211	-0.007	1503.978	553.393	0.021	-	0.043	1.168	-	-	-	-	-	-	-	PAVEMENT_GENERAL	Urban	F	1011101000011101	0000000000000000	-	-	-	-	-	-	-	-	-	-	Terminate	
"default"	"Seema_Shokoufeh_Track2"	"Feb 14, 2017 09:44:30 AM"	Unknown	12.98359	01/14/0117 09:44.47	00000779	10.729	Inter625t49-0	0.662	1	1	0.005	11.111	1.3	0.199	0.000	D	F	1960.5	1.666	0.207	-0.007	1504.253	563.631	0.022	-	0.048	0.897	-	-	-	-	-	-	-	PAVEMENT_GENERAL	Urban	F	1011101000011101	0000000000000000	-	-	-	-	-	-	-	-	-	-	Terminate	
"default"	"Seema_Shokoufeh_Track2"	"Feb 14, 2017 09:44:30 AM"	Unknown	13.98361	01/14/0117 09:44.48	00000839	11.684	Inter625t49-0	0.986	1	1	0.005	11.111	-1.3	0.215	0.000	D	F	2099.6	1.664	0.208	0.005	1504.579	574.838	0.022	-	-0.031	0.940	-	-	-	12	5.637	65.863	-	PAVEMENT_GENERAL	Urban	F	1011101000011101	0000000000000000	-	-	-	-	-	-	-	-	-	-	Terminate	
"default"	"Seema_Shokoufeh_Track2"	"Feb 14, 2017 09:44:30 AM"	Unknown	14.98363	01/14/0117 09:44.49	00000899	12.604	Inter625t15-0	1.315	1	2	0.000	11.111	-2.7	0.220	0.000	D	F	2212.9	1.376	0.206	0.013	1504.908	586.976	0.022	-	-0.110	0.921	-	-	-	12	5.662	71.358	-	PAVEMENT_GENERAL	Urban	F	1011101000011101	0000000000000000	-	-	-	-	-	-	-	-	-	-	Terminate	
"default"	"Seema_Shokoufeh_Track2"	"Feb 14, 2017 09:44:30 AM"	Unknown	15.98365	01/14/0117 09:44.50	00000959	13.611	Inter614t1-0	1.574	1	2	0.000	11.111	-2.2	0.259	0.000	D	F	2368.2	0.909	0.205	0.011	1505.167	600.056	0.021	-	-0.101	1.066	-	-	-	12	5.584	76.009	-	PAVEMENT_GENERAL	Urban	F	1011101000011101	0000000000000000	-	-	-	-	-	-	-	-	-	-	Terminate	
"default"	"Seema_Shokoufeh_Track2"	"Feb 14, 2017 09:44:30 AM"	Unknown	16.98367	01/14/0117 09:44.51	00001019	14.640	Inter614t1-0	1.752	1	2	0.000	11.111	-2.4	0.268	0.000	D	F	2517.2	0.514	0.206	0.015	1505.345	614.183	0.022	-	-0.113	1.023	-	-	-	12	5.442	79.675	-	PAVEMENT_GENERAL	Urban	F	1011101000011101	0000000000000000	-	-	-	-	-	-	-	-	-	-	Terminate	
"default"	"Seema_Shokoufeh_Track2"	"Feb 14, 2017 09:44:30 AM"	Unknown	17.98369	01/14/0117 09:44.52	00001079	15.666	Inter614t1-1	-1.767	2	2	0.000	11.111	-1.9	0.275	0.000	D	F	2665.7	0.132	0.203	0.011	1505.427	629.337	0.022	-	-0.088	0.987	-	-	-	12	5.407	84.707	-	PAVEMENT_GENERAL	Urban	F	1011101000011101	0000000000000000	-	-	-	-	-	-	-	-	-	-	Terminate	
"default"	"Seema_Shokoufeh_Track2"	"Feb 14, 2017 09:44:30 AM"	Unknown	18.98371	01/14/0117 09:44.53	00001139	16.651	Inter614t1-1	-1.769	2	2	0.000	11.111	-0.3	0.273	0.000	D	F	2804.0	359.839	0.202	0.004	1505.424	645.499	0.022	-	-0.046	0.968	-	-	-	12	5.189	86.398	-	PAVEMENT_GENERAL	Urban	F	1011101000011101	0000000000000000	-	-	-	-	-	-	-	-	-	-	Terminate	
"default"	"Seema_Shokoufeh_Track2"	"Feb 14, 2017 09:44:30 AM"	Unknown	19.98373	01/14/0117 09:44.54	00001199	17.429	Inter614t1-0	1.753	1	2	0.000	11.111	-1.0	0.266	0.000	D	F	2120.8	359.556	0.196	0.010	1505.346	662.585	0.024	-	-0.087	0.597	-	-	-	12	4.866	84.812	-	PAVEMENT_GENERAL	Urban	F	1011101000011101	0000000000000000	-	-	-	-	-	-	-	-	-	-	Terminate	
"default"	"Seema_Shokoufeh_Track2"	"Feb 14, 2017 09:44:30 AM"	Unknown	20.98375	01/14/0117 09:44.55	00001259	18.004	Inter614t1-0	1.617	1	2	0.000	11.111	1.0	0.270	0.000	D	F	2144.9	359.650	0.196	-0.009	1505.210	680.303	0.024	-	0.072	0.566	-	-	-	12	4.719	84.967	659.595	PAVEMENT_GENERAL	Urban	F	1011101000011101	0000000000000000	-	-	-	-	-	-	-	-	-	-	Terminate	
"default"	"Seema_Shokoufeh_Track2"	"Feb 14, 2017 09:44:30 AM"	Unknown	21.98377	01/14/0117 09:44.56	00001319	18.547	Inter614t1-0	1.544	1	2	0.000	11.111	1.3	0.270	0.000	D	F	2175.5	359.948	0.195	-0.012	1505.137	698.581	0.024	-	0.092	0.530	-	-	-	12	4.560	84.570	127.008	PAVEMENT_GENERAL	Urban	F	1011101000011101	0000000000000000	-	-	-	-	-	-	-	-	-	-	Terminate	
"default"	"Seema_Shokoufeh_Track2"	"Feb 14, 2017 09:44:30 AM"	Unknown	22.98379	01/14/0117 09:44.57	00001379	19.066	Inter614t1-0	1.555	1	2	0.000	11.111	0.9	0.272	0.000	D	F	2215.7	0.115	0.194	-0.007	1505.148	717.388	0.024	-	0.044	0.510	-	-	-	12	4.387	83.643	70.584	PAVEMENT_GENERAL	Urban	F	1011101000011101	0000000000000000	-	-	-	-	-	-	-	-	-	-	Terminate	
"default"	"Seema_Shokoufeh_Track2"	"Feb 14, 2017 09:44:30 AM"	Unknown	23.98381	01/14/0117 09:44.58	00001439	19.562	Inter614t1-0	1.603	1	2	0.000	11.111	0.1	0.266	0.000	D	F	2251.5	0.165	0.193	-0.001	1505.196	736.705	0.024	-	0.008	0.486	-	-	-	12	4.202	82.206	48.900	PAVEMENT_GENERAL	Urban	F	1111101000011101	0000000000000000	-	-	-	-	-	-	-	-	-	-	Terminate	
"default"	"Seema_Shokoufeh_Track2"	"Feb 14, 2017 09:44:30 AM"	Unknown	24.98383	01/14/0117 09:44.59	00001499	20.041	Inter614t1-0	1.664	1	2	0.000	11.111	0.3	0.270	0.000	D	F	2289.6	0.205	0.192	-0.003	1505.257	756.507	0.025	-	0.021	0.472	-	-	-	12	4.005	80.255	37.154	PAVEMENT_GENERAL	Urban	F	1011101000011101	0000000000000000	-	-	-	-	-	-	-	-	-	-	Terminate	
"default"	"Seema_Shokoufeh_Track2"	"Feb 14, 2017 09:44:30 AM"	Unknown	25.98385	01/14/0117 09:45.00	00001559	20.216	Inter614t1-0	1.735	1	2	0.000	11.111	-1.0	0.049	0.000	D	F	1544.0	0.123	0.191	0.010	1505.329	776.731	0.028	-	-0.076	-0.371	-	-	-	12	4.009	81.054	201.826	PAVEMENT_GENERAL	Urban	F	1011101000011101	0000000000000000	-	-	-	-	-	-	-	-	-	-	Terminate	
"default"	"Seema_Shokoufeh_Track2"	"Feb 14, 2017 09:44:30 AM"	Unknown	26.98387	01/14/0117 09:45.01	00001619	20.286	Inter614t1-0	1.752	1	2	0.000	11.111	-1.0	0.235	0.000	D	F	1910.5	0.000	0.189	0.005	1505.345	796.915	0.025	-	-0.046	0.281	-	-	-	12	4.013	81.411	-	PAVEMENT_GENERAL	Urban	F	1011101000011101	0000000000000000	-	-	-	-	-	-	-	-	-	-	Terminate	
"default"	"Seema_Shokoufeh_Track2"	"Feb 14, 2017 09:44:30 AM"	Unknown	27.98389	01/14/0117 09:45.02	00001679	20.576	Inter612t1-0	1.702	1	2	0.000	11.111	-1.4	0.243	0.000	D	F	1924.3	359.695	0.189	0.014	1505.295	817.347	0.025	-	-0.101	0.286	-	-	-	12	4.006	82.437	-	PAVEMENT_GENERAL	Urban	F	1011101000011101	0000000000000000	-	-	-	-	-	-	-	-	-	-	Terminate	
"default"	"Seema_Shokoufeh_Track2"	"Feb 14, 2017 09:44:30 AM"	Unknown	28.98391	01/14/0117 09:45.03	00001739	20.850	Inter612t1-0	1.556	1	2	0.000	11.111	-1.5	0.235	0.000	D	F	1926.8	359.445	0.188	0.013	1505.149	838.062	0.026	-	-0.097	0.263	-	-	-	12	4.014	83.700	-	PAVEMENT_GENERAL	Urban	F	1011101000011101	0000000000000000	-	-	-	-	-	-	-	-	-	-	Terminate	
"default"	"Seema_Shokoufeh_Track2"	"Feb 14, 2017 09:44:30 AM"	Unknown	29.98393	01/14/0117 09:45.04	00001799	21.090	Inter612t1-0	1.336	1	2	0.000	11.111	1.1	0.199	0.000	D	F	1891.5	359.461	0.189	-0.015	1504.929	859.035	0.026	-	0.095	0.236	-	-	-	12	4.033	85.064	-	PAVEMENT_GENERAL	Urban	F	1011101000011101	0000000000000000	-	-	-	-	-	-	-	-	-	-	Terminate	
"default"	"Seema_Shokoufeh_Track2"	"Feb 14, 2017 09:44:30 AM"	Unknown	30.98395	01/14/0117 09:45.05	00001859	21.124	Inter612t1-0	1.152	1	2	0.000	11.111	-1.0	0.235	0.000	D	F	1935.7	359.512	0.190	0.003	1504.745	880.117	0.026	-	-0.029	0.248	-	-	-	12	4.087	86.335	-	PAVEMENT_GENERAL	Urban	F	1011101000011101	0000000000000000	-	-	-	-	-	-	-	-	-	-	Terminate	
"default"	"Seema_Shokoufeh_Track2"	"Feb 14, 2017 09:44:30 AM"	Unknown	31.98397	01/14/0117 09:45.06	00001919	21.406	Inter612t1-0	0.934	1	2	0.000	11.111	-1.4	0.257	0.000	D	F	1964.8	359.336	0.187	0.006	1504.528	901.379	0.025	-	-0.050	0.277	-	-	-	12	4.084	87.427	-	PAVEMENT_GENERAL	Urban	F	1011101000011101	0000000000000000	-	-	-	-	-	-	-	-	-	-	Terminate	
"default"	"Seema_Shokoufeh_Track2"	"Feb 14, 2017 09:44:30 AM"	Unknown	32.98399	01/14/0117 09:45.07	00001979	21.670	Inter612t1-0	0.640	1	2	0.000	11.111	1.7	0.256	0.000	D	F	1970.3	359.084	0.187	-0.006	1504.233	922.916	0.026	-	0.014	0.257	-	-	-	12	4.072	88.244	-	PAVEMENT_GENERAL	Urban	F	1011101000011101	0000000000000000	-	-	-	-	-	-	-	-	-	-	Terminate	
"default"	"Seema_Shokoufeh_Track2"	"Feb 14, 2017 09:44:30 AM"	Unknown	33.98401	01/14/0117 09:45.08	00002039	21.916	Inter612t1-0	0.365	1	2	0.000	11.111	2.0	0.243	0.000	D	F	1968.2	359.491	0.186	-0.016	1503.958	944.709	0.026	-	0.126	0.227	-	-	-	12	4.052	88.804	-	PAVEMENT_GENERAL	Urban	F	1011101000011101	0000000000000000	-	-	-	-	-	-	-	-	-	-	Terminate	
"default"	"Seema_Shokoufeh_Track2"	"Feb 14, 2017 09:44:30 AM"	Unknown	34.98403	01/14/0117 09:45.09	00002099	21.971	Inter612t1-0	0.232	1	2	0.000	11.111	1.5	0.196	0.000	D	F	1883.3	359.903	0.185	-0.018	1503.825	966.666	0.026	-	0.137	0.076	-	-	-	12	4.060	89.200	-	PAVEMENT_GENERAL	Urban	F	1011101000011101	0000000000000000	-	-	-	-	-	-	-	-	-	-	Terminate	
"default"	"Seema_Shokoufeh_Track2"	"Feb 14, 2017 09:44:30 AM"	Unknown	35.98405	01/14/0117 09:45.10	00002159	21.965	Inter612t1-0	0.239	1	2	0.000	11.111	2.1	0.169	0.000	D	F	1801.9	0.256	0.182	-0.021	1503.832	988.655	0.027	-	0.158	-0.095	-	-	-	12	4.078	89.565	-	PAVEMENT_GENERAL	Urban	F	1011101000011101	0000000000000000	-	-	-	-	-	-	-	-	-	-	Terminate	
"default"	"Seema_Shokoufeh_Track2"	"Feb 14, 2017 09:44:30 AM"	Unknown	36.98407	01/14/0117 09:45.11	00002219	21.795	Inter613t1-0	0.392	1	2	0.000	11.111	0.8	0.109	0.000	D	F	1681.4	0.608	0.182	-0.008	1503.985	1010.562	0.028	-	0.090	-0.237	-	-	-	12	4.130	90.012	-	PAVEMENT_GENERAL	Urban	F	1011101000011101	0000000000000000	-	-	-	-	-	-	-	-	-	-	Terminate	
"default"	"Seema_Shokoufeh_Track2"	"Feb 14, 2017 09:44:30 AM"	Unknown	37.98409	01/14/0117 09:45.12	00002279	21.552	Inter613t1-0	0.651	1	2	0.000	11.111	1.4	0.101	0.000	D	F	1643.7	0.843	0.183	-0.012	1504.244	1032.238	0.028	-	0.100	-0.265	-	-	-	12	4.208	90.689	-	PAVEMENT_GENERAL	Urban	F	1011101000011101	0000000000000000	-	-	-	-	-	-	-	-	-	-	Terminate	
"default"	"Seema_Shokoufeh_Track2"	"Feb 14, 2017 09:44:30 AM"	Unknown	38.98411	01/14/0117 09:45.13	00002339	21.318	Inter613t1-0	1.000	1	2	0.000	11.111	0.6	0.108	0.000	D	F	1657.5	1.070	0.183	-0.007	1504.594	1053.668	0.028	-	0.061	-0.219	-	-	-	11	3.553	75.740	22.037	PAVEMENT_GENERAL	Urban	F	1011101000011101	0000000000000000	-	-	-	-	-	-	-	-	-	-	Terminate	
"default"	"Seema_Shokoufeh_Track2"	"Feb 14, 2017 09:44:30 AM"	Unknown	39.98413	01/14/0117 09:45.14	00002399	21.004	Inter613t1-0	1.417	1	2	0.000	11.111	1.3	0.062	0.000	D	F	1550.8	1.280	0.182	-0.015	1505.010	1074.841	0.028	R	0.110	-0.370	-	-	-	11	3.449	72.448	23.195	PAVEMENT_GENERAL	Urban	F	1011101001011101	0000000000000000	-	-	-	-	-	-	-	-	-	-	Terminate	
"default"	"Seema_Shokoufeh_Track2"	"Feb 14, 2017 09:44:30 AM"	Unknown	40.98415	01/14/0117 09:45.15	00002459	20.647	Inter613t1-1	-1.679	2	2	0.000	11.111	1.8	0.071	0.000	D	F	1544.4	1.588	0.183	-0.016	1505.514	1095.658	0.028	L	0.132	-0.331	-	-	-	11	3.480	71.851	25.979	PAVEMENT_GENERAL	Urban	F	1011101000111101	0000000000000000	-	-	-	-	-	-	-	-	-	-	Terminate	
"default"	"Seema_Shokoufeh_Track2"	"Feb 14, 2017 09:44:30 AM"	Unknown	41.98417	01/14/0117 09:45.16	00002519	20.421	Inter613t1-1	-1.065	2	2	0.000	11.111	0.5	0.210	0.000	D	F	1853.6	1.880	0.197	-0.007	1506.128	1116.138	0.026	-	0.062	0.180	-	-	-	11	3.391	69.250	27.262	PAVEMENT_GENERAL	Urban	F	1011101000011101	0000000000000000	-	-	-	-	-	-	-	-	-	-	Terminate	
"default"	"Seema_Shokoufeh_Track2"	"Feb 14, 2017 09:44:30 AM"	Unknown	42.98419	01/14/0117 09:45.17	00002579	20.521	Inter613t1-1	-0.410	2	2	0.000	11.111	-9.6	0.175	0.000	D	F	1781.5	1.526	0.189	0.076	1506.783	1136.617	0.026	-	-0.478	0.056	-	-	-	11	3.248	66.649	25.248	PAVEMENT_GENERAL	Urban	F	1111101000011101	0000000000000000	-	-	-	-	-	-	-	-	-	-	Terminate	
"default"	"Seema_Shokoufeh_Track2"	"Feb 14, 2017 09:44:30 AM"	Unknown	43.98421	01/14/0117 09:45.18	00002639	20.629	Inter613t1-1	-0.225	2	2	0.000	11.111	-0.4	0.272	0.000	D	F	1954.9	359.427	0.190	0.035	1506.968	1157.168	0.025	-	-0.294	0.329	-	-	-	11	3.101	63.977	23.285	PAVEMENT_GENERAL	Urban	F	1011101000011101	0000000000000000	-	-	-	-	-	-	-	-	-	-	Terminate	
"default"	"Seema_Shokoufeh_Track2"	"Feb 14, 2017 09:44:30 AM"	Unknown	44.98423	01/14/0117 09:45.19	00002699	20.956	Inter613t1-1	-0.476	2	2	0.000	11.111	-3.3	0.238	0.000	D	F	1939.0	358.865	0.181	0.033	1506.718	1177.971	0.026	-	-0.276	0.192	-	-	-	11	2.913	61.051	19.855	PAVEMENT_GENERAL	Urban	F	1011101000011101	0000000000000000	-	-	-	-	-	-	-	-	-	-	Terminate	
"default"	"Seema_Shokoufeh_Track2"	"Feb 14, 2017 09:44:30 AM"	Unknown	45.98425	01/14/0117 09:45.20	00002759	20.757	Inter613t1-1	-0.988	2	2	0.000	11.111	-3.4	0.129	0.000	D	F	1676.1	358.106	0.186	0.040	1506.205	1198.893	0.029	-	-0.297	-0.225	-	-	-	11	2.680	55.624	19.339	PAVEMENT_GENERAL	Urban	F	1111101000011101	0000000000000000	-	-	-	-	-	-	-	-	-	-	Terminate	
"default"	"Seema_Shokoufeh_Track2"	"Feb 14, 2017 09:44:30 AM"	Unknown	46.98427	01/14/0117 09:45.21	00002819	20.716	Inter746t1-1	-1.704	2	2	0.000	11.111	0.5	0.122	0.000	D	F	1672.5	358.084	0.186	-0.009	1505.489	1219.639	0.028	-	0.072	-0.144	-	-	-	11	2.662	55.140	19.452	PAVEMENT_GENERAL	Urban	F	1011101000011101	0000000000000000	-	-	-	-	-	-	-	-	-	-	Terminate	
"default"	"Seema_Shokoufeh_Track2"	"Feb 14, 2017 09:44:30 AM"	Unknown	47.98429	01/14/0117 09:45.22	00002879	20.195	Inter746t1-0	1.214	1	2	0.000	11.111	0.5	0.000	0.000	D	F	1377.0	358.107	0.184	-0.002	1504.808	1240.137	0.030	-	0.015	-0.602	-	-	-	11	2.483	50.138	21.669	PAVEMENT_GENERAL	Urban	F	1011101000011101	0000000000000000	-	-	-	-	-	-	-	-	-	-	Terminate	
"default"	"Seema_Shokoufeh_Track2"	"Feb 14, 2017 09:44:30 AM"	Unknown	48.98431	01/14/0117 09:45.23	00002939	20.122	Inter746t1-0	0.580	1	2	0.000	11.111	2.3	0.063	0.000	D	F	1530.1	358.448	0.186	-0.030	1504.173	1260.237	0.026	-	0.201	-0.052	-	-	-	12	5.396	108.579	-	PAVEMENT_GENERAL	Urban	F	1011101000011101	0000000000000000	-	-	-	-	-	-	-	-	-	-	Terminate	
"default"	"Seema_Shokoufeh_Track2"	"Feb 14, 2017 09:44:30 AM"	Unknown	49.98433	01/14/0117 09:45.24	00002999	19.814	Inter746t1-0	0.078	1	2	0.000	11.111	2.1	0.157	0.000	D	F	1680.9	358.687	0.189	-0.014	1503.671	1280.195	0.028	-	0.098	-0.124	-	-	-	12	5.601	110.975	-	PAVEMENT_GENERAL	Urban	F	1011101000011101	0000000000000000	-	-	-	-	-	-	-	-	-	-	Terminate	
"default"	"Seema_Shokoufeh_Track2"	"Feb 14, 2017 09:44:30 AM"	Unknown	50.98435	01/14/0117 09:45.25	00003059	19.767	Inter746t1-0	-0.333	1	2	0.000	11.111	0.4	0.226	0.000	D	F	1878.0	358.935	0.186	-0.005	1503.260	1299.947	0.025	-	0.046	0.224	-	-	-	12	5.695	112.569	400.101	PAVEMENT_GENERAL	Urban	F	1011101000011101	0000000000000000	-	-	-	-	-	-	-	-	-	-	Terminate	
"default"	"Seema_Shokoufeh_Track2"	"Feb 14, 2017 09:44:30 AM"	Unknown	51.98437	01/14/0117 09:45.26	00003119	19.868	Inter746t1-0	-0.688	1	2	0.000	11.111	2.1	0.185	0.000	D	F	1790.6	359.054	0.188	-0.012	1502.905	1319.796	0.027	-	0.090	0.041	-	-	-	12	5.548	110.237	25.151	PAVEMENT_GENERAL	Urban	F	1011101000011101	0000000000000000	-	-	-	-	-	-	-	-	-	-	Terminate	
"default"	"Seema_Shokoufeh_Track2"	"Feb 14, 2017 09:44:30 AM"	Unknown	52.98439	01/14/0117 09:45.27	00003179	19.793	Inter746t1-0	-0.960	1	2	0.000	11.111	1.9	0.092	0.000	D	F	1564.1	359.416	0.185	-0.015	1502.634	1339.648	0.027	-	0.116	-0.129	-	-	-	12	5.253	103.974	13.402	PAVEMENT_GENERAL	Urban	F	1011101000011101	0000000000000000	-	-	-	-	-	-	-	-	-	-	Terminate	
"default"	"Seema_Shokoufeh_Track2"	"Feb 14, 2017 09:44:30 AM"	Unknown	53.98441	01/14/0117 09:45.28	00003239	19.363	Inter746t1-0	-1.096	1	2	0.000	11.111	1.4	0.000	0.000	D	F	1320.2	359.864	0.181	-0.019	1502.497	1359.273	0.029	-	0.144	-0.594	-	-	-	12	4.953	95.908	11.669	PAVEMENT_GENERAL	Urban	F	1011101000011101	0000000000000000	-	-	-	-	-	-	-	-	-	-	Terminate	
"default"	"Seema_Shokoufeh_Track2"	"Feb 14, 2017 09:44:30 AM"	Unknown	54.98443	01/14/0117 09:45.29	00003299	17.095	Inter746t1-0	-1.099	1	2	0.000	11.111	0.2	0.000	0.442	D	F	1091.4	0.143	0.022	-0.006	1502.494	1378.046	0.041	-	0.043	-5.730	-	-	-	-	-	-	-	PAVEMENT_GENERAL	Urban	F	1011101000011101	0000000000000000	-	-	-	-	-	-	-	-	-	-	Terminate	
"default"	"Seema_Shokoufeh_Track2"	"Feb 14, 2017 09:44:30 AM"	Unknown	55.98445	01/14/0117 09:45.30	00003359	14.231	Inter746t1-0	-1.063	1	2	0.000	11.111	-0.2	0.138	0.000	D	F	1478.4	0.143	0.207	0.001	1502.531	1393.056	0.028	-	-0.008	-0.066	-	-	-	-	-	-	-	PAVEMENT_GENERAL	Urban	F	1011101000011101	0000000000000000	-	-	-	-	-	-	-	-	-	-	Terminate	
"default"	"Seema_Shokoufeh_Track2"	"Feb 14, 2017 09:44:30 AM"	Unknown	56.98447	01/14/0117 09:45.31	00003419	14.714	Inter749t9-0	-1.030	1	2	0.000	11.111	-0.3	0.136	0.000	D	F	1728.5	0.107	0.190	0.001	1502.563	1407.494	0.024	-	-0.013	0.319	-	-	-	-	-	-	-	PAVEMENT_GENERAL	Urban	F	1011101000011101	0000000000000000	-	-	-	-	-	-	-	-	-	-	Terminate	
"default"	"Seema_Shokoufeh_Track2"	"Feb 14, 2017 09:44:30 AM"	Unknown	57.98449	01/14/0117 09:45.32	00003479	14.337	Inter749t33-0	-1.016	1	1	0.077	11.111	-0.4	0.000	0.000	D	F	1408.0	0.035	0.189	0.003	1502.583	1422.085	0.029	-	-0.025	-0.564	-	-	-	12	3.636	52.133	3.636	PAVEMENT_GENERAL	Urban	F	1011101000011101	0000000000000000	-	-	-	-	-	-	-	-	-	-	Terminate	
"default"	"Seema_Shokoufeh_Track2"	"Feb 14, 2017 09:44:30 AM"	Unknown	58.98451	01/14/0117 09:45.33	00003539	12.673	Inter749t33-0	-1.035	1	1	0.106	11.111	0.5	0.000	0.522	D	F	1154.2	0.000	0.050	-0.004	1502.581	1435.989	0.036	-	0.006	-5.933	-	-	-	12	3.018	38.253	3.018	PAVEMENT_GENERAL	Urban	F	1011101000011101	0000000000000000	-	-	-	-	-	-	-	-	-	-	Terminate	
"default"	"Seema_Shokoufeh_Track2"	"Feb 14, 2017 09:44:30 AM"	Unknown	59.98453	01/14/0117 09:45.34	00003599	5.767	Inter749t33-0	-1.050	1	1	0.078	11.111	1.5	0.000	0.576	D	F	542.4	0.093	-0.120	-0.004	1502.583	1445.214	0.042	L	0.021	-6.850	-	-	-	12	5.042	29.074	5.042	PAVEMENT_GENERAL	Urban	F	1011101000111101	0000000000000000	-	-	-	-	-	-	-	-	-	-	Terminate	
"default"	"Seema_Shokoufeh_Track2"	"Feb 14, 2017 09:44:30 AM"	Unknown	60.98455	01/14/0117 09:45.35	00003659	0.021	Inter749t33-0	-1.048	1	1	0.070	11.111	1.8	0.000	0.388	D	F	477.5	0.164	0.161	0.000	1502.590	1447.740	0.041	L	-0.001	-1.065	-	-	-	12	1285.953	26.562	1285.953	PAVEMENT_GENERAL	Urban	F	1011101000111101	0000000000000000	-	-	-	-	-	-	-	-	-	-	Terminate	
"default"	"Seema_Shokoufeh_Track2"	"Feb 14, 2017 09:44:30 AM"	Unknown	61.98457	01/14/0117 09:45.36	00003719	0.138	Inter749t33-0	-1.048	1	1	0.070	11.111	2.0	0.055	0.000	D	F	601.8	0.166	0.200	0.000	1502.591	1447.799	0.028	L	0.000	0.223	-	-	-	12	192.702	26.503	192.702	PAVEMENT_GENERAL	Urban	F	1011101000111101	0000000000000000	-	-	-	-	-	-	-	-	-	-	Terminate	
"default"	"Seema_Shokoufeh_Track2"	"Feb 14, 2017 09:44:30 AM"	Unknown	62.98459	01/14/0117 09:45.37	00003779	2.689	Inter749t33-0	-1.045	1	1	0.066	11.111	2.7	0.342	0.000	D	F	1741.0	0.221	0.188	-0.004	1502.596	1448.846	0.009	L	0.012	4.610	-	-	-	12	9.469	25.462	9.469	PAVEMENT_GENERAL	Urban	F	1011101000111101	0000000000000000	-	-	-	-	-	-	-	-	-	-	Terminate	
"default"	"Seema_Shokoufeh_Track2"	"Feb 14, 2017 09:44:30 AM"	Unknown	63.98461	01/14/0117 09:45.38	00003839	6.014	Inter749t33-0	-1.011	1	1	0.061	11.111	5.5	0.280	0.000	D	F	2098.6	0.610	0.221	-0.011	1502.637	1453.383	0.014	L	0.072	2.551	-	-	-	12	3.852	23.169	3.852	PAVEMENT_GENERAL	Urban	F	1011101000111101	0000000000000000	-	-	-	-	-	-	-	-	-	-	Terminate	
"default"	"Seema_Shokoufeh_Track2"	"Feb 14, 2017 09:44:30 AM"	Unknown	64.98463	01/14/0117 09:45.39	00003899	8.132	Inter749t33-0	-0.881	1	1	0.061	11.111	5.5	0.217	0.000	D	F	1893.1	1.358	0.214	-0.015	1502.774	1460.539	0.018	L	0.115	1.629	-	-	-	12	1.970	16.019	1.970	PAVEMENT_GENERAL	Urban	F	1011101000111101	0000000000000000	-	-	-	-	-	-	-	-	-	-	Terminate	
"default"	"Seema_Shokoufeh_Track2"	"Feb 14, 2017 09:44:30 AM"	Unknown	65.98465	01/14/0117 09:45.40	00003959	9.513	Inter749t11-1	-0.603	2	2	0.000	11.111	-0.4	0.242	0.000	D	F	1954.6	2.140	0.213	0.001	1503.059	1469.346	0.020	L	0.008	1.370	-	-	-	-	-	-	-	PAVEMENT_GENERAL	Urban	F	1011101000111101	0000000000000000	-	-	-	-	-	-	-	-	-	-	Terminate	
"default"	"Seema_Shokoufeh_Track2"	"Feb 14, 2017 09:44:30 AM"	Unknown	66.98467	01/14/0117 09:45.41	00004019	10.161	Inter749t11-1	-0.504	2	2	0.000	11.111	-63.5	0.000	0.000	D	F	1052.5	357.629	0.180	0.270	1503.159	1479.354	0.027	L	-1.987	-0.480	-	-	-	-	-	-	-	PAVEMENT_GENERAL	Urban	F	1011101000111101	0000000000000000	-	-	-	-	-	-	-	-	-	-	Terminate	
"default"	"Seema_Shokoufeh_Track2"	"Feb 14, 2017 09:44:30 AM"	Unknown	67.98470	01/14/0117 09:45.42	00004079	9.941	-	-	INT	0	-	-	-81.7	0.131	0.000	D	F	1482.1	344.352	0.189	0.327	1501.500	1489.142	0.025	L	-2.518	0.322	-	-	-	-	-	-	-	PAVEMENT_GENERAL	Urban	F	1011101000111101	0000000000000000	-	-	-	-	-	-	-	-	-	-	Terminate	
"default"	"Seema_Shokoufeh_Track2"	"Feb 14, 2017 09:44:30 AM"	Unknown	68.98471	01/14/0117 09:45.43	00004139	10.158	-Inter749t83-0	-0.900	-1	1	179.883	11.111	-99.8	0.081	0.000	D	F	1294.5	328.171	0.171	0.419	1497.328	1498.290	0.027	L	-3.194	-0.132	-	-	-	24	16.940	172.069	16.940	PAVEMENT_GENERAL	Urban	F	1011101000111101	0000000000000000	-	-	-	-	-	-	-	-	-	-	Terminate	
"default"	"Seema_Shokoufeh_Track2"	"Feb 14, 2017 09:44:30 AM"	Unknown	69.98473	01/14/0117 09:45.44	00004199	9.852	Inter749t77-0	-1.481	1	1	269.734	11.111	-118.3	0.000	0.000	D	F	967.5	308.672	0.149	0.483	1490.555	1505.692	0.031	L	-3.661	-0.693	-	-	-	Ambient229	23.780	234.288	-	PAVEMENT_GENERAL	Urban	F	1011101000111101	0000000000000000	-	-	-	-	-	-	-	-	-	-	Terminate	
"default"	"Seema_Shokoufeh_Track2"	"Feb 14, 2017 09:44:30 AM"	Unknown	70.98476	01/14/0117 09:45.45	00004259	9.214	-	-	INT	0	-	-	-130.9	0.000	0.000	D	F	906.1	286.882	0.145	0.476	1482.076	1509.918	0.032	L	-3.641	-0.706	-	-	-	-	-	-	-	PAVEMENT_GENERAL	Urban	F	1011101000111101	0000000000000000	-	-	-	-	-	-	-	-	-	-	Terminate	
"default"	"Seema_Shokoufeh_Track2"	"Feb 14, 2017 09:44:30 AM"	Unknown	71.98477	01/14/0117 09:45.46	00004319	8.369	-	-	-	0	-	-	-102.5	0.016	0.000	D	F	867.0	266.921	0.188	-6.187	1473.428	1510.590	0.101	L	-2.462	-0.498	-	-	-	-	-	-	-	CURB	Urban	F	1011101000111101	0000000000000000	-	-	-	-	-	-	-	-	-	-	Terminate	
"default"	"Seema_Shokoufeh_Track2"	"Feb 14, 2017 09:44:30 AM"	Unknown	72.98479	01/14/0117 09:45.47	00004379	8.479	-	-	SH	1	-	-	1.2	0.090	0.000	D	F	1310.2	255.283	0.406	0.328	1465.205	1508.956	0.015	-	-0.537	0.193	-	-	-	-	-	-	-	PAVEMENT_GENERAL	Urban	F	1011101000011101	0000000000000000	-	-	-	-	-	-	-	-	-	-	Terminate	
"default"	"Seema_Shokoufeh_Track2"	"Feb 14, 2017 09:44:30 AM"	Unknown	73.98481	01/14/0117 09:45.48	00004439	8.436	Inter749t17-0	-0.142	1	1	270.094	11.111	22.6	0.000	0.000	D	F	829.6	258.271	0.189	-0.076	1456.901	1507.000	0.028	-	0.544	-0.501	-	-	-	Ambient229	29.030	244.909	-	PAVEMENT_GENERAL	Urban	F	1011101000011101	0000000000000000	-	-	-	-	-	-	-	-	-	-	Terminate	
"default"	"Seema_Shokoufeh_Track2"	"Feb 14, 2017 09:44:30 AM"	Unknown	74.98483	01/14/0117 09:45.49	00004499	7.981	Inter749t17-0	-1.652	1	1	270.108	11.111	15.5	0.078	0.000	D	F	1146.1	259.810	0.201	-0.041	1448.840	1505.500	0.028	-	0.345	-0.205	-	-	-	-	-	-	-	PAVEMENT_GENERAL	Urban	F	1011101000011101	0000000000000000	-	-	-	-	-	-	-	-	-	-	Terminate	
"default"	"Seema_Shokoufeh_Track2"	"Feb 14, 2017 09:44:30 AM"	Unknown	75.98486	01/14/0117 09:45.50	00004559	8.272	Inter749t19-0	0.795	1	1	270.083	11.111	7.8	0.037	0.000	D	F	1040.2	263.285	0.194	-0.016	1440.771	1504.363	0.026	-	0.169	-0.086	-	-	-	-	-	-	-	PAVEMENT_GENERAL	Urban	F	1011101000011101	0000000000000000	-	-	-	-	-	-	-	-	-	-	Terminate	
"default"	"Seema_Shokoufeh_Track2"	"Feb 14, 2017 09:44:30 AM"	Unknown	76.98487	01/14/0117 09:45.51	00004619	7.904	Inter749t19-0	-0.100	1	1	270.061	11.111	20.6	0.016	0.000	D	F	864.2	264.328	0.199	-0.065	1432.717	1503.483	0.028	-	0.450	-0.335	-	-	-	-	-	-	-	PAVEMENT_GENERAL	Urban	F	1111101000011101	0000000000000000	-	-	-	-	-	-	-	-	-	-	Terminate	
"default"	"Seema_Shokoufeh_Track2"	"Feb 14, 2017 09:44:30 AM"	Unknown	77.98489	01/14/0117 09:45.52	00004679	7.477	Inter749t19-0	-0.634	1	1	270.061	11.111	12.5	0.002	0.000	D	F	734.9	266.923	0.197	-0.033	1425.035	1502.957	0.028	-	0.240	-0.464	-	-	-	-	-	-	-	PAVEMENT_GENERAL	Urban	F	1011101000011101	0000000000000000	-	-	-	-	-	-	-	-	-	-	Terminate	
"default"	"Seema_Shokoufeh_Track2"	"Feb 14, 2017 09:44:30 AM"	Unknown	78.98492	01/14/0117 09:45.53	00004739	7.010	Inter749t19-0	-0.902	1	1	270.061	11.111	10.0	0.011	0.000	D	F	696.4	268.445	0.197	-0.023	1417.796	1502.697	0.028	-	0.173	-0.462	-	-	-	-	-	-	-	PAVEMENT_GENERAL	Urban	F	1111101000011101	0000000000000000	-	-	-	-	-	-	-	-	-	-	Terminate	
"default"	"Seema_Shokoufeh_Track2"	"Feb 14, 2017 09:44:30 AM"	Unknown	79.98493	01/14/0117 09:45.54	00004799	8.458	Inter749t1-2	-0.993	1	2	270.000	11.111	7.5	0.342	0.000	D	F	1954.8	269.781	0.218	-0.021	1410.221	1502.607	0.018	-	0.166	1.846	-	-	-	-	-	-	-	PAVEMENT_GENERAL	Urban	F	1011101000011101	0000000000000000	-	-	-	-	-	-	-	-	-	-	Terminate	
"default"	"Seema_Shokoufeh_Track2"	"Feb 14, 2017 09:44:30 AM"	Unknown	80.98495	01/14/0117 09:45.55	00004859	10.165	Inter749t1-2	-0.914	1	2	270.000	11.111	6.7	0.347	0.000	D	F	2102.4	270.970	0.215	-0.025	1400.895	1502.686	0.019	-	0.203	1.639	-	-	-	-	-	-	-	PAVEMENT_GENERAL	Urban	F	1011101000011101	0000000000000000	-	-	-	-	-	-	-	-	-	-	Terminate	
"default"	"Seema_Shokoufeh_Track2"	"Feb 14, 2017 09:44:30 AM"	Unknown	81.98497	01/14/0117 09:45.56	00004919	11.731	Inter747t1-2	-0.631	1	2	270.000	11.111	5.3	0.344	0.000	D	F	2235.1	271.950	0.212	-0.027	1389.936	1502.976	0.019	-	0.200	1.480	-	-	-	-	-	-	-	PAVEMENT_GENERAL	Urban	F	1011101000011101	0000000000000000	-	-	-	-	-	-	-	-	-	-	Terminate	
"default"	"Seema_Shokoufeh_Track2"	"Feb 14, 2017 09:44:30 AM"	Unknown	82.98499	01/14/0117 09:45.57	00004979	13.143	Inter747t1-2	-0.104	1	2	270.000	11.111	2.1	0.363	0.000	D	F	2389.8	272.857	0.211	-0.017	1377.502	1503.503	0.020	-	0.137	1.383	-	-	-	-	-	-	-	PAVEMENT_GENERAL	Urban	F	1011101000011101	0000000000000000	-	-	-	-	-	-	-	-	-	-	Terminate	
"default"	"Seema_Shokoufeh_Track2"	"Feb 14, 2017 09:44:30 AM"	Unknown	83.98502	01/14/0117 09:45.58	00005039	14.516	Inter747t1-2	0.643	1	2	270.000	11.111	-1.2	0.372	0.000	D	F	2562.2	273.245	0.209	0.005	1363.690	1504.250	0.020	-	-0.019	1.357	-	-	-	-	-	-	-	PAVEMENT_GENERAL	Urban	F	1011101000011101	0000000000000000	-	-	-	-	-	-	-	-	-	-	Terminate	
"default"	"Seema_Shokoufeh_Track2"	"Feb 14, 2017 09:44:30 AM"	Unknown	84.98503	01/14/0117 09:45.59	00005099	15.857	Inter747t1-2	1.460	1	2	270.000	11.111	-5.6	0.395	0.000	D	F	2749.4	272.848	0.207	0.036	1348.524	1505.067	0.020	-	-0.229	1.344	-	-	-	-	-	-	-	PAVEMENT_GENERAL	Urban	F	1011101000011101	0000000000000000	-	-	-	-	-	-	-	-	-	-	Terminate	
"default"	"Seema_Shokoufeh_Track2"	"Feb 14, 2017 09:44:30 AM"	Unknown	85.98505	01/14/0117 09:46.00	00005159	17.109	Inter747t1-3	-1.454	2	2	270.000	11.111	-6.7	0.314	0.000	D	F	2902.2	271.910	0.203	0.040	1332.026	1505.753	0.022	-	-0.307	1.105	-	-	-	-	-	-	-	PAVEMENT_GENERAL	Urban	F	1011101000011101	0000000000000000	-	-	-	-	-	-	-	-	-	-	Terminate	
"default"	"Seema_Shokoufeh_Track2"	"Feb 14, 2017 09:44:30 AM"	Unknown	86.98507	01/14/0117 09:46.01	00005219	18.245	Inter747t1-3	-1.187	2	2	270.000	11.111	-4.5	0.314	0.000	D	F	3059.0	269.208	0.198	0.090	1314.345	1506.020	0.022	-	-0.699	1.095	-	-	-	-	-	-	-	PAVEMENT_GENERAL	Urban	F	1011101000011101	0000000000000000	-	-	-	-	-	-	-	-	-	-	Terminate	
"default"	"Seema_Shokoufeh_Track2"	"Feb 14, 2017 09:44:30 AM"	Unknown	87.98509	01/14/0117 09:46.02	00005279	19.171	Inter747t1-3	-1.399	2	2	270.000	11.111	4.7	0.247	0.000	D	F	2282.4	269.796	0.190	-0.045	1295.583	1505.808	0.024	-	0.335	0.523	-	-	-	Ambient229	12.442	238.521	29.430	PAVEMENT_GENERAL	Urban	F	1011101000011101	0000000000000000	-	-	-	-	-	-	-	-	-	-	Terminate	
"default"	"Seema_Shokoufeh_Track2"	"Feb 14, 2017 09:44:30 AM"	Unknown	88.98512	01/14/0117 09:46.03	00005339	19.562	Inter747t1-3	-1.362	2	2	270.000	11.111	2.4	0.236	0.000	D	F	2225.1	270.410	0.192	-0.021	1276.216	1505.845	0.025	-	0.136	0.402	-	-	-	Ambient229	11.769	230.220	27.097	PAVEMENT_GENERAL	Urban	F	1011101000011101	0000000000000000	-	-	-	-	-	-	-	-	-	-	Terminate	
"default"	"Seema_Shokoufeh_Track2"	"Feb 14, 2017 09:44:30 AM"	Unknown	89.98513	01/14/0117 09:46.04	00005399	19.962	Inter747t1-3	-1.153	2	2	270.000	11.111	-3.2	0.231	0.000	D	F	2251.1	270.825	0.190	0.004	1256.453	1506.054	0.025	-	-0.024	0.387	-	-	-	Ambient229	11.097	221.524	24.900	PAVEMENT_GENERAL	Urban	F	1011101000011101	0000000000000000	-	-	-	-	-	-	-	-	-	-	Terminate	
"default"	"Seema_Shokoufeh_Track2"	"Feb 14, 2017 09:44:30 AM"	Unknown	90.98515	01/14/0117 09:46.05	00005459	20.338	Inter747t1-3	-1.125	2	2	270.000	11.111	-2.4	0.245	0.000	D	F	2290.0	268.884	0.189	0.048	1236.307	1506.082	0.025	-	-0.480	0.399	-	-	-	Ambient229	10.446	212.445	22.913	PAVEMENT_GENERAL	Urban	F	1011101000011101	0000000000000000	-	-	-	-	-	-	-	-	-	-	Terminate	
"default"	"Seema_Shokoufeh_Track2"	"Feb 14, 2017 09:44:30 AM"	Unknown	91.98518	01/14/0117 09:46.06	00005519	20.724	Inter747t1-3	-1.657	2	2	270.000	11.111	-34.1	0.249	0.000	D	F	2314.7	266.263	0.190	0.337	1215.779	1505.550	0.026	-	-2.398	0.375	-	-	-	Ambient229	9.794	202.984	21.016	PAVEMENT_GENERAL	Urban	F	1011101000011101	0000000000000000	-	-	-	-	-	-	-	-	-	-	Terminate	
"default"	"Seema_Shokoufeh_Track2"	"Feb 14, 2017 09:44:30 AM"	Unknown	92.98519	01/14/0117 09:46.07	00005579	21.090	Inter748t1-2	-0.100	1	2	270.000	11.111	6.8	0.245	0.000	D	F	2344.1	263.708	0.189	-0.071	1194.980	1503.507	0.025	-	0.391	0.381	-	-	-	-	-	-	-	PAVEMENT_GENERAL	Urban	F	1011101000011101	0000000000000000	-	-	-	-	-	-	-	-	-	-	Terminate	
"default"	"Seema_Shokoufeh_Track2"	"Feb 14, 2017 09:44:30 AM"	Unknown	93.98521	01/14/0117 09:46.08	00005639	21.444	-	-	CL	0	-	-	18.0	0.314	0.000	D	F	2451.2	265.729	0.187	-0.165	1173.811	1501.432	0.026	-	1.158	0.532	-	-	-	-	-	-	-	PAVEMENT_GENERAL	Urban	F	1011101000011101	0000000000000000	-	-	-	-	-	-	-	-	-	-	Terminate	
"default"	"Seema_Shokoufeh_Track2"	"Feb 14, 2017 09:44:30 AM"	Unknown	94.98523	01/14/0117 09:46.09	00005699	21.588	-	-	CL	0	-	-	13.9	0.164	0.000	D	F	1863.9	269.146	0.179	-0.118	1152.263	1500.432	0.027	-	0.970	-0.065	-	-	-	-	-	-	-	PAVEMENT_GENERAL	Urban	F	1011101000011101	0000000000000000	-	-	-	-	-	-	-	-	-	-	Terminate	
"default"	"Seema_Shokoufeh_Track2"	"Feb 14, 2017 09:44:30 AM"	Unknown	95.98525	01/14/0117 09:46.10	00005759	21.532	-	-	CL	0	-	-	-0.6	0.180	0.000	D	F	1830.1	273.665	0.173	-0.070	1130.720	1500.813	0.027	-	0.863	0.036	-	-	-	-	-	-	-	PAVEMENT_GENERAL	Urban	F	1011101000011101	0000000000000000	-	-	-	-	-	-	-	-	-	-	Terminate	
"default"	"Seema_Shokoufeh_Track2"	"Feb 14, 2017 09:44:30 AM"	Unknown	96.98528	01/14/0117 09:46.11	00005819	21.562	Inter748t1-2	-1.557	1	2	270.000	11.111	2.9	0.175	0.000	D	F	1825.3	273.530	0.186	-0.047	1109.209	1502.050	0.027	-	0.312	0.031	-	-	-	-	-	-	-	PAVEMENT_GENERAL	Urban	F	1011101000011101	0000000000000000	-	-	-	-	-	-	-	-	-	-	Terminate	
"default"	"Seema_Shokoufeh_Track2"	"Feb 14, 2017 09:44:30 AM"	Unknown	97.98529	01/14/0117 09:46.12	00005879	21.619	Inter748t1-2	-0.360	1	2	270.000	11.111	-4.2	0.201	0.000	D	F	1887.3	272.341	0.184	0.058	1087.657	1503.247	0.026	-	-0.496	0.099	-	-	-	-	-	-	-	PAVEMENT_GENERAL	Urban	F	1011101000011101	0000000000000000	-	-	-	-	-	-	-	-	-	-	Terminate	
"default"	"Seema_Shokoufeh_Track2"	"Feb 14, 2017 09:44:30 AM"	Unknown	98.98531	01/14/0117 09:46.13	00005939	21.792	Inter748t1-2	0.412	1	2	270.000	11.111	-3.7	0.215	0.000	D	F	1929.7	271.507	0.185	0.038	1065.967	1504.018	0.026	-	-0.297	0.171	-	-	-	-	-	-	-	PAVEMENT_GENERAL	Urban	F	1111101000011101	0000000000000000	-	-	-	-	-	-	-	-	-	-	Terminate	
"default"	"Seema_Shokoufeh_Track2"	"Feb 14, 2017 09:44:30 AM"	Unknown	99.98534	01/14/0117 09:46.14	00005999	21.991	Inter748t1-2	0.886	1	2	270.000	11.111	-2.4	0.235	0.000	D	F	1964.3	270.836	0.186	0.024	1044.084	1504.493	0.026	-	-0.211	0.214	-	-	-	-	-	-	-	PAVEMENT_GENERAL	Urban	F	1011101000011101	0000000000000000	-	-	-	-	-	-	-	-	-	-	Terminate	
"default"	"Seema_Shokoufeh_Track2"	"Feb 14, 2017 09:44:30 AM"	Unknown	100.98535	01/14/0117 09:46.15	00006059	22.211	Inter748t1-2	1.167	1	2	270.000	11.111	-1.3	0.247	0.000	D	F	1981.2	270.552	0.186	0.013	1021.985	1504.773	0.026	-	-0.098	0.221	-	-	-	-	-	-	-	PAVEMENT_GENERAL	Urban	F	1011101000011101	0000000000000000	-	-	-	-	-	-	-	-	-	-	Terminate	
"default"	"Seema_Shokoufeh_Track2"	"Feb 14, 2017 09:44:30 AM"	Unknown	101.98537	01/14/0117 09:46.16	00006119	22.424	Inter752t1-2	0.577	1	2	270.000	24.444	-5.4	0.245	0.000	D	F	1984.7	269.588	0.191	0.061	999.666	1504.877	0.026	-	-0.481	0.187	-	-	-	-	-	-	-	PAVEMENT_GENERAL	Urban	F	1011101000011101	0000000000000000	-	-	-	-	-	-	-	-	-	-	Terminate	
"default"	"Seema_Shokoufeh_Track2"	"Feb 14, 2017 09:44:30 AM"	Unknown	102.98539	01/14/0117 09:46.17	00006179	22.656	Inter752t1-2	0.388	1	2	269.609	24.444	-1.9	0.266	0.000	D	F	2007.5	269.122	0.317	-0.503	977.133	1504.637	0.065	-	-0.188	0.269	-	-	-	-	-	-	-	FREEWAY_SMOOTH	Urban	F	1011101000011101	0000000000000000	-	-	-	-	-	-	-	-	-	-	Terminate	
"default"	"Seema_Shokoufeh_Track2"	"Feb 14, 2017 09:44:30 AM"	Unknown	103.98541	01/14/0117 09:46.18	00006239	22.972	Inter752t1-2	0.327	1	2	268.285	24.444	-8.1	0.296	0.000	D	F	2055.2	268.448	0.303	-1.034	954.325	1504.176	0.110	-	-0.490	0.329	-	-	-	-	-	-	-	FREEWAY_SMOOTH	Urban	F	1011101000011101	0000000000000000	-	-	-	-	-	-	-	-	-	-	Terminate	
"default"	"Seema_Shokoufeh_Track2"	"Feb 14, 2017 09:44:30 AM"	Unknown	104.98544	01/14/0117 09:46.19	00006299	23.278	Inter752t1-2	0.407	1	2	265.995	24.444	-12.3	0.289	0.000	D	F	2054.5	265.637	0.285	-1.501	931.222	1503.114	0.158	-	-1.312	0.295	-	-	-	-	-	-	-	FREEWAY_SMOOTH	Urban	F	1011101000011101	0000000000000000	-	-	-	-	-	-	-	-	-	-	Terminate	
"default"	"Seema_Shokoufeh_Track2"	"Feb 14, 2017 09:44:30 AM"	Unknown	105.98545	01/14/0117 09:46.20	00006359	23.560	Inter752t1-2	0.377	1	2	262.715	24.444	-12.4	0.284	0.000	D	F	2061.3	262.299	0.281	-2.071	907.919	1500.783	0.204	-	-1.402	0.278	-	-	-	-	-	-	-	FREEWAY_SMOOTH	Urban	F	1011101000011101	0000000000000000	-	-	-	-	-	-	-	-	-	-	Terminate	
"default"	"Seema_Shokoufeh_Track2"	"Feb 14, 2017 09:44:30 AM"	Unknown	106.98547	01/14/0117 09:46.21	00006419	23.819	Inter752t1-2	0.368	1	2	258.444	24.444	-19.6	0.280	0.000	D	F	2068.1	257.582	0.253	-2.544	884.555	1496.886	0.251	-	-2.230	0.278	-	-	-	-	-	-	-	FREEWAY_SMOOTH	Urban	F	1011101000011101	0000000000000000	-	-	-	-	-	-	-	-	-	-	Terminate	
"default"	"Seema_Shokoufeh_Track2"	"Feb 14, 2017 09:44:30 AM"	Unknown	107.98550	01/14/0117 09:46.22	00006479	24.055	Inter752t1-2	0.237	1	2	253.123	24.444	-17.7	0.272	0.000	D	F	2065.7	252.194	0.236	-3.142	861.393	1490.855	0.290	-	-2.223	0.238	-	-	-	-	-	-	-	FREEWAY_SMOOTH	Urban	F	1011101000011101	0000000000000000	-	-	-	-	-	-	-	-	-	-	Terminate	
"default"	"Seema_Shokoufeh_Track2"	"Feb 14, 2017 09:44:30 AM"	Unknown	108.98551	01/14/0117 09:46.23	00006539	24.224	Inter752t1-2	0.326	1	2	247.091	24.444	-17.0	0.272	0.000	D	F	2071.1	247.218	0.188	-3.233	838.684	1482.665	0.305	-	-2.092	0.169	-	-	-	-	-	-	-	FREEWAY_SMOOTH	Urban	F	1011101000011101	0000000000000000	-	-	-	-	-	-	-	-	-	-	Terminate	
"default"	"Seema_Shokoufeh_Track2"	"Feb 14, 2017 09:44:30 AM"	Unknown	109.98553	01/14/0117 09:46.24	00006599	24.375	Inter752t1-2	0.883	1	2	241.055	24.444	-20.7	0.282	0.000	D	F	2085.8	242.239	0.253	-3.206	816.624	1472.484	0.338	-	-2.289	0.171	-	-	-	-	-	-	-	FREEWAY_SMOOTH	Urban	F	1011101000011101	0000000000000000	-	-	-	-	-	-	-	-	-	-	Terminate	
"default"	"Seema_Shokoufeh_Track2"	"Feb 14, 2017 09:44:30 AM"	Unknown	110.98555	01/14/0117 09:46.25	00006659	24.491	Inter752t1-2	1.634	1	2	234.950	24.444	-30.2	0.277	0.000	D	F	2085.4	235.077	0.178	-3.057	795.552	1460.126	0.384	-	-3.421	0.162	-	-	-	-	-	-	-	FREEWAY_SMOOTH	Urban	F	1011101000011101	0000000000000000	-	-	-	-	-	-	-	-	-	-	Terminate	
"default"	"Seema_Shokoufeh_Track2"	"Feb 14, 2017 09:44:30 AM"	Unknown	111.98557	01/14/0117 09:46.26	00006719	24.524	Inter752t1-2	1.591	1	2	228.887	24.444	-34.8	0.113	0.000	D	F	1831.4	225.848	-0.033	-2.975	776.324	1444.926	0.383	-	-4.056	-0.262	-	-	-	-	-	-	-	FREEWAY_SMOOTH	Urban	F	1011101000011101	0000000000000000	-	-	-	-	-	-	-	-	-	-	Terminate	
"default"	"Seema_Shokoufeh_Track2"	"Feb 14, 2017 09:44:30 AM"	Unknown	112.98560	01/14/0117 09:46.27	00006779	24.213	Inter752t1-2	0.190	1	2	222.837	24.444	-0.4	0.213	0.000	D	F	2004.2	217.316	-0.180	-3.236	759.933	1426.983	0.298	-	-2.249	0.085	-	-	-	-	-	-	-	FREEWAY_SMOOTH	Urban	F	1011101000011101	0000000000000000	-	-	-	-	-	-	-	-	-	-	Terminate	
"default"	"Seema_Shokoufeh_Track2"	"Feb 14, 2017 09:44:30 AM"	Unknown	113.98561	01/14/0117 09:46.28	00006839	24.329	Inter752t1-2	-1.056	1	2	216.771	24.444	-10.9	0.236	0.000	D	F	2041.9	214.276	0.032	-3.236	745.423	1407.527	0.222	-	-1.998	0.139	-	-	-	-	-	-	-	FREEWAY_SMOOTH	Urban	F	1011101000011101	0000000000000000	-	-	-	-	-	-	-	-	-	-	Terminate	
"default"	"Seema_Shokoufeh_Track2"	"Feb 14, 2017 09:44:30 AM"	Unknown	114.98563	01/14/0117 09:46.29	00006899	24.447	Inter752t1-2	-1.172	1	2	210.626	24.444	-14.3	0.257	0.000	D	F	2068.5	212.057	0.271	-3.320	732.040	1387.140	0.215	-	-1.252	0.144	-	-	-	-	-	-	-	FREEWAY_SMOOTH	Urban	F	1011101000011101	0000000000000000	-	-	-	-	-	-	-	-	-	-	Terminate	
"default"	"Seema_Shokoufeh_Track2"	"Feb 14, 2017 09:44:30 AM"	Unknown	115.98566	01/14/0117 09:46.30	00006959	24.239	Inter752t1-2	-0.059	1	2	204.537	24.444	-29.6	0.076	0.000	D	F	1737.4	206.802	0.296	-3.124	719.809	1365.990	0.285	-	-2.876	-0.567	-	-	-	-	-	-	-	FREEWAY_SMOOTH	Urban	F	1011101000011101	0000000000000000	-	-	-	-	-	-	-	-	-	-	Terminate	
"default"	"Seema_Shokoufeh_Track2"	"Feb 14, 2017 09:44:30 AM"	Unknown	116.98567	01/14/0117 09:46.31	00007019	23.937	Inter752t1-2	0.506	1	2	198.544	24.444	-31.9	0.192	0.000	D	F	1933.7	195.822	-0.038	-2.941	710.530	1343.829	0.319	-	-4.388	-0.005	-	-	-	-	-	-	-	FREEWAY_SMOOTH	Urban	F	1011101000011101	0000000000000000	-	-	-	-	-	-	-	-	-	-	Terminate	
"default"	"Seema_Shokoufeh_Track2"	"Feb 14, 2017 09:44:30 AM"	Unknown	117.98569	01/14/0117 09:46.32	00007079	23.812	Inter752t1-2	-0.306	1	2	192.932	24.444	-10.8	0.173	0.000	D	F	1905.0	190.800	-0.028	-2.793	704.930	1320.632	0.234	-	-1.393	-0.099	-	-	-	-	-	-	-	FREEWAY_SMOOTH	Urban	F	1011101000011101	0000000000000000	-	-	-	-	-	-	-	-	-	-	Terminate	
"default"	"Seema_Shokoufeh_Track2"	"Feb 14, 2017 09:44:30 AM"	Unknown	118.98571	01/14/0117 09:46.33	00007139	23.673	Inter752t1-2	-0.777	1	2	188.364	24.444	-16.5	0.168	0.000	D	F	1888.7	186.891	0.032	-2.143	701.084	1297.201	0.174	-	-1.877	-0.132	-	-	-	-	-	-	-	FREEWAY_SMOOTH	Urban	F	1011101000011101	0000000000000000	-	-	-	-	-	-	-	-	-	-	Terminate	
"default"	"Seema_Shokoufeh_Track2"	"Feb 14, 2017 09:44:30 AM"	Unknown	119.98573	01/14/0117 09:46.34	00007199	23.447	Inter752t1-2	-1.240	1	2	184.771	24.444	6.1	0.009	0.000	D	F	1595.9	183.960	0.059	-1.808	698.916	1273.709	0.125	-	-0.124	-0.672	-	-	-	-	-	-	-	FREEWAY_SMOOTH	Urban	F	1011101000011101	0000000000000000	-	-	-	-	-	-	-	-	-	-	Terminate	
"default"	"Seema_Shokoufeh_Track2"	"Feb 14, 2017 09:44:30 AM"	Unknown	120.98576	01/14/0117 09:46.35	00007259	22.810	Inter752t1-2	-0.803	1	2	182.218	24.444	-34.6	0.104	0.000	D	F	1727.1	183.873	0.126	-0.939	697.126	1250.675	0.105	-	-1.975	-0.390	-	-	-	-	-	-	-	FREEWAY_SMOOTH	Urban	F	1011101000011101	0000000000000000	-	-	-	-	-	-	-	-	-	-	Terminate	
"default"	"Seema_Shokoufeh_Track2"	"Feb 14, 2017 09:44:30 AM"	Unknown	121.98577	01/14/0117 09:46.36	00007319	22.519	Inter752t1-2	-1.291	1	2	180.660	24.444	4.6	0.111	0.000	D	F	1716.9	175.984	0.028	-0.548	697.088	1228.036	0.064	-	-1.128	-0.296	-	-	-	-	-	-	-	FREEWAY_SMOOTH	Urban	F	1011101000011101	0000000000000000	-	-	-	-	-	-	-	-	-	-	Terminate	
"default"	"Seema_Shokoufeh_Track2"	"Feb 14, 2017 09:44:30 AM"	Unknown	122.98579	01/14/0117 09:46.37	00007379	22.347	-	-	CL	0	-	-	5.6	0.150	0.000	D	F	1789.9	178.098	0.135	-0.181	698.283	1205.641	0.033	-	0.682	-0.137	-	-	-	-	-	-	-	FREEWAY_SMOOTH	Urban	F	1011101000011101	0000000000000000	-	-	-	-	-	-	-	-	-	-	Terminate	
"default"	"Seema_Shokoufeh_Track2"	"Feb 14, 2017 09:44:30 AM"	Unknown	123.98581	01/14/0117 09:46.38	00007439	22.202	-	-	CL	0	-	-	5.1	0.132	0.000	D	F	1747.7	180.349	0.177	-0.112	698.756	1183.370	0.028	-	0.891	-0.167	-	-	-	-	-	-	-	PAVEMENT_GENERAL	Urban	F	1011101000011101	0000000000000000	-	-	-	-	-	-	-	-	-	-	Terminate	
"default"	"Seema_Shokoufeh_Track2"	"Feb 14, 2017 09:44:30 AM"	Unknown	124.98583	01/14/0117 09:46.39	00007499	22.130	-	-	CL	0	-	-	-2.5	0.192	0.000	D	F	1878.6	180.623	0.183	0.014	698.565	1161.220	0.027	-	-0.097	0.021	-	-	-	-	-	-	-	PAVEMENT_GENERAL	Urban	F	1011101000011101	0000000000000000	-	-	-	-	-	-	-	-	-	-	Terminate	
"default"	"Seema_Shokoufeh_Track2"	"Feb 14, 2017 09:44:30 AM"	Unknown	125.98586	01/14/0117 09:46.40	00007559	22.159	-	-	CL	0	-	-	-2.2	0.166	0.000	D	F	1809.5	180.053	0.181	0.024	698.417	1139.067	0.027	-	-0.190	-0.045	-	-	-	-	-	-	-	PAVEMENT_GENERAL	Urban	F	1011101000011101	0000000000000000	-	-	-	-	-	-	-	-	-	-	Terminate	
"default"	"Seema_Shokoufeh_Track2"	"Feb 14, 2017 09:44:30 AM"	Unknown	126.98587	01/14/0117 09:46.41	00007619	22.058	-	-	CL	0	-	-	0.3	0.143	0.000	D	F	1761.3	179.840	0.182	-0.000	698.437	1116.952	0.027	-	-0.011	-0.125	-	-	-	-	-	-	-	PAVEMENT_GENERAL	Urban	F	1011101000011101	0000000000000000	-	-	-	-	-	-	-	-	-	-	Terminate	
"default"	"Seema_Shokoufeh_Track2"	"Feb 14, 2017 09:44:30 AM"	Unknown	127.98589	01/14/0117 09:46.42	00007679	21.858	-	-	SH-	1	-	-	0.1	0.046	0.000	D	F	1548.4	180.013	0.172	-0.005	698.470	1094.964	0.028	-	0.039	-0.480	-	-	-	-	-	-	-	PAVEMENT_GENERAL	Urban	F	1011101000011101	0000000000000000	-	-	-	-	-	-	-	-	-	-	Terminate	
"default"	"Seema_Shokoufeh_Track2"	"Feb 14, 2017 09:44:30 AM"	Unknown	128.98592	01/14/0117 09:46.43	00007739	21.390	-	-	SH-	1	-	-	1.7	0.067	0.000	D	F	1586.9	180.379	0.182	-0.026	698.432	1073.346	0.029	-	0.187	-0.367	-	-	-	-	-	-	-	PAVEMENT_GENERAL	Urban	F	1011101000011101	0000000000000000	-	-	-	-	-	-	-	-	-	-	Terminate	
"default"	"Seema_Shokoufeh_Track2"	"Feb 14, 2017 09:44:30 AM"	Unknown	129.98593	01/14/0117 09:46.44	00007799	20.912	-	-	SH-	1	-	-	1.0	0.000	0.000	D	F	1425.4	180.543	0.179	-0.011	698.269	1052.174	0.029	-	0.071	-0.614	-	-	-	-	-	-	-	PAVEMENT_GENERAL	Urban	F	1011101000011101	0000000000000000	-	-	-	-	-	-	-	-	-	-	Terminate	
"default"	"Seema_Shokoufeh_Track2"	"Feb 14, 2017 09:44:30 AM"	Unknown	130.98595	01/14/0117 09:46.45	00007859	20.300	Inter754t9-0	-1.625	1	1	179.996	11.111	2.9	0.000	0.000	D	F	1384.1	180.939	0.180	-0.032	698.028	1031.570	0.030	-	0.223	-0.608	-	-	-	Ambient326	5.872	119.207	13.749	PAVEMENT_GENERAL	Urban	F	1111101000011101	0000000000000000	-	-	-	-	-	-	-	-	-	-	Terminate	
"default"	"Seema_Shokoufeh_Track2"	"Feb 14, 2017 09:44:30 AM"	Unknown	131.98598	01/14/0117 09:46.46	00007919	19.701	Inter754t1-1	-1.182	1	1	180.000	11.111	3.1	0.005	0.000	D	F	1343.7	181.756	0.182	-0.036	697.586	1011.577	0.029	-	0.288	-0.579	-	-	-	Ambient326	5.747	113.213	14.026	PAVEMENT_GENERAL	Urban	F	1011101000011101	0000000000000000	-	-	-	-	-	-	-	-	-	-	Terminate	
"default"	"Seema_Shokoufeh_Track2"	"Feb 14, 2017 09:44:30 AM"	Unknown	132.98599	01/14/0117 09:46.47	00007979	19.176	Inter686t1-0	-0.545	1	1	180.000	11.111	-8.4	0.021	0.000	D	F	1311.9	181.755	0.184	0.074	696.941	992.153	0.029	-	-0.439	-0.502	-	-	-	Ambient326	5.498	105.420	13.970	PAVEMENT_GENERAL	Urban	F	1011101000011101	0000000000000000	-	-	-	-	-	-	-	-	-	-	Terminate	
"default"	"Seema_Shokoufeh_Track2"	"Feb 14, 2017 09:44:30 AM"	Unknown	133.98601	01/14/0117 09:46.48	00008039	18.728	Inter686t1-0	-0.195	1	1	180.000	11.111	-3.6	0.016	0.000	D	F	1279.3	180.385	0.181	0.040	696.591	973.212	0.029	-	-0.309	-0.503	-	-	-	Ambient326	5.239	98.109	13.821	PAVEMENT_GENERAL	Urban	F	1011101000011101	0000000000000000	-	-	-	-	-	-	-	-	-	-	Terminate	
"default"	"Seema_Shokoufeh_Track2"	"Feb 14, 2017 09:44:30 AM"	Unknown	134.98604	01/14/0117 09:46.49	00008099	18.197	Inter686t1-0	-0.195	1	1	180.000	11.111	-0.3	0.019	0.000	D	F	1256.2	179.488	0.186	0.018	696.592	954.754	0.029	-	-0.161	-0.470	-	-	-	Ambient326	5.016	91.283	13.899	PAVEMENT_GENERAL	Urban	F	1011101000011101	0000000000000000	-	-	-	-	-	-	-	-	-	-	Terminate	
"default"	"Seema_Shokoufeh_Track2"	"Feb 14, 2017 09:44:30 AM"	Unknown	135.98605	01/14/0117 09:46.50	00008159	17.716	Inter686t1-0	-0.371	1	1	180.000	11.111	-1.4	0.019	0.000	D	F	1225.1	179.310	0.186	0.012	696.767	936.798	0.029	-	-0.089	-0.474	-	-	-	Ambient326	4.795	84.957	13.958	PAVEMENT_GENERAL	Urban	F	1011101000011101	0000000000000000	-	-	-	-	-	-	-	-	-	-	Terminate	
"default"	"Seema_Shokoufeh_Track2"	"Feb 14, 2017 09:44:30 AM"	Unknown	136.98607	01/14/0117 09:46.51	00008219	17.336	Inter686t1-0	-0.629	1	1	180.000	11.111	-1.6	0.069	0.000	D	F	1367.7	178.981	0.188	0.014	697.025	919.302	0.027	-	-0.093	-0.234	-	-	-	Ambient326	4.562	79.093	13.860	PAVEMENT_GENERAL	Urban	F	1011101000011101	0000000000000000	-	-	-	-	-	-	-	-	-	-	Terminate	
"default"	"Seema_Shokoufeh_Track2"	"Feb 14, 2017 09:44:30 AM"	Unknown	137.98610	01/14/0117 09:46.52	00008279	17.100	Inter686t1-0	-0.971	1	1	180.000	11.111	1.1	0.026	0.000	D	F	1221.0	178.865	0.185	-0.012	697.367	902.060	0.028	-	0.074	-0.433	-	-	-	Ambient326	4.297	73.481	13.432	PAVEMENT_GENERAL	Urban	F	1011101000011101	0000000000000000	-	-	-	-	-	-	-	-	-	-	Terminate	
"default"	"Seema_Shokoufeh_Track2"	"Feb 14, 2017 09:44:30 AM"	Unknown	138.98611	01/14/0117 09:46.53	00008339	16.844	Inter686t1-0	-1.271	1	1	180.000	11.111	5.8	0.063	0.000	D	F	1330.5	179.247	0.188	-0.047	697.667	885.102	0.028	-	0.289	-0.270	-	-	-	Ambient326	4.046	68.154	13.071	PAVEMENT_GENERAL	Urban	F	1011101000011101	0000000000000000	-	-	-	-	-	-	-	-	-	-	Terminate	
"default"	"Seema_Shokoufeh_Track2"	"Feb 14, 2017 09:44:30 AM"	Unknown	139.98613	01/14/0117 09:46.54	00008399	16.609	Inter686t1-0	-1.416	1	1	180.000	11.111	0.1	0.076	0.000	D	F	1359.4	179.629	0.190	-0.005	697.813	868.379	0.028	-	0.018	-0.228	-	-	-	Ambient326	3.797	63.062	12.665	PAVEMENT_GENERAL	Urban	F	1011101000011101	0000000000000000	-	-	-	-	-	-	-	-	-	-	Terminate	
"default"	"Seema_Shokoufeh_Track2"	"Feb 14, 2017 09:44:30 AM"	Unknown	140.98616	01/14/0117 09:46.55	00008459	16.404	Inter686t1-0	-1.530	1	1	180.000	11.111	0.7	0.072	0.000	D	F	1342.5	179.564	0.191	-0.002	697.926	851.868	0.028	-	0.004	-0.222	-	-	-	Ambient326	3.547	58.182	12.187	PAVEMENT_GENERAL	Urban	F	1011101000011101	0000000000000000	-	-	-	-	-	-	-	-	-	-	Terminate	
"default"	"Seema_Shokoufeh_Track2"	"Feb 14, 2017 09:44:30 AM"	Unknown	141.98618	01/14/0117 09:46.56	00008519	16.287	Inter686t1-0	-1.610	1	1	180.000	11.111	3.5	0.180	0.000	D	F	1675.9	179.944	0.198	-0.029	698.006	835.560	0.026	-	0.165	0.240	-	-	-	Ambient326	3.285	53.505	11.487	PAVEMENT_GENERAL	Urban	F	1011101000011101	0000000000000000	-	-	-	-	-	-	-	-	-	-	Terminate	
"default"	"Seema_Shokoufeh_Track2"	"Feb 14, 2017 09:44:30 AM"	Unknown	142.98619	01/14/0117 09:46.57	00008579	16.382	Inter686t1-0	-1.554	1	1	180.000	11.111	1.3	0.127	0.000	D	F	1532.7	180.418	0.194	-0.011	697.950	819.208	0.026	-	0.086	0.035	-	-	-	Ambient326	2.978	48.784	10.264	PAVEMENT_GENERAL	Urban	F	1011101000011101	0000000000000000	-	-	-	-	-	-	-	-	-	-	Terminate	
"default"	"Seema_Shokoufeh_Track2"	"Feb 14, 2017 09:44:30 AM"	Unknown	143.98621	01/14/0117 09:46.58	00008639	16.395	Inter686t1-0	-1.388	1	1	180.000	11.111	1.6	0.118	0.000	D	F	1513.7	180.785	0.193	-0.015	697.784	802.817	0.026	-	0.093	0.004	-	-	-	Ambient326	2.685	44.024	9.237	PAVEMENT_GENERAL	Urban	F	1011101000011101	0000000000000000	-	-	-	-	-	-	-	-	-	-	Terminate	
"default"	"Seema_Shokoufeh_Track2"	"Feb 14, 2017 09:44:30 AM"	Unknown	144.98624	01/14/0117 09:46.59	00008699	16.380	Inter682t1-1	-1.120	1	1	180.000	11.111	1.5	0.115	0.000	D	F	1501.8	181.054	0.193	-0.010	697.524	786.432	0.027	-	0.079	-0.011	-	-	-	Ambient326	2.397	39.269	8.267	PAVEMENT_GENERAL	Urban	F	1011101000011101	0000000000000000	-	-	-	-	-	-	-	-	-	-	Terminate	
"default"	"Seema_Shokoufeh_Track2"	"Feb 14, 2017 09:44:30 AM"	Unknown	145.98625	01/14/0117 09:47.00	00008759	16.337	Inter682t1-1	-0.784	1	1	180.000	11.111	1.2	0.109	0.000	D	F	1477.2	181.311	0.192	-0.009	697.188	770.074	0.027	-	0.068	-0.051	-	-	-	Ambient326	2.114	34.542	7.338	PAVEMENT_GENERAL	Urban	F	1011101000011101	0000000000000000	-	-	-	-	-	-	-	-	-	-	Terminate	
"default"	"Seema_Shokoufeh_Track2"	"Feb 14, 2017 09:44:30 AM"	Unknown	146.98627	01/14/0117 09:47.01	00008819	16.287	Inter682t1-1	-0.381	1	1	180.000	11.111	1.5	0.097	0.000	D	F	1444.2	181.533	0.192	-0.007	696.784	753.768	0.027	-	0.066	-0.064	-	-	-	Ambient326	1.834	29.867	6.412	PAVEMENT_GENERAL	Urban	F	1011101000011101	0000000000000000	-	-	-	-	-	-	-	-	-	-	Terminate	
"default"	"Seema_Shokoufeh_Track2"	"Feb 14, 2017 09:44:30 AM"	Unknown	147.98630	01/14/0117 09:47.02	00008879	16.224	Inter682t1-1	0.071	1	1	180.000	11.111	-13.6	0.026	0.000	D	F	1253.6	181.491	0.185	0.075	696.333	737.511	0.027	-	-0.488	-0.254	-	-	-	Ambient326	1.556	25.241	5.494	PAVEMENT_GENERAL	Urban	F	1011101000011101	0000000000000000	-	-	-	-	-	-	-	-	-	-	Terminate	
"default"	"Seema_Shokoufeh_Track2"	"Feb 14, 2017 09:44:30 AM"	Unknown	148.98631	01/14/0117 09:47.03	00008939	15.856	Inter682t1-1	-0.141	1	1	180.000	11.111	-4.0	0.123	0.000	D	F	1507.5	176.795	0.195	0.062	696.545	721.534	0.026	-	-0.634	0.085	-	-	-	Ambient326	1.318	20.895	4.944	PAVEMENT_GENERAL	Urban	F	1011101000011101	0000000000000000	-	-	-	-	-	-	-	-	-	-	Terminate	
"default"	"Seema_Shokoufeh_Track2"	"Feb 14, 2017 09:44:30 AM"	Unknown	149.98633	01/14/0117 09:47.04	00008999	15.729	Inter682t1-1	-1.106	1	1	180.000	11.111	4.9	0.085	0.000	D	F	1350.3	176.084	0.193	-0.014	697.510	705.711	0.029	-	0.031	-0.327	-	-	-	Ambient326	1.062	16.703	4.074	PAVEMENT_GENERAL	Urban	F	1011101000011101	0000000000000000	-	-	-	-	-	-	-	-	-	-	Terminate	
"default"	"Seema_Shokoufeh_Track2"	"Feb 14, 2017 09:44:30 AM"	Unknown	150.98636	01/14/0117 09:47.05	00009059	15.866	-	-	CL	0	-	-	3.9	0.076	0.000	D	F	1391.5	177.415	0.191	-0.034	698.416	689.956	0.026	-	0.285	0.027	-	-	-	-	-	-	-	PAVEMENT_GENERAL	Urban	F	1011101000011101	0000000000000000	-	-	-	-	-	-	-	-	-	-	Terminate	
"default"	"Seema_Shokoufeh_Track2"	"Feb 14, 2017 09:44:30 AM"	Unknown	151.98637	01/14/0117 09:47.06	00009119	15.932	-	-	CL	0	-	-	5.5	0.162	0.000	D	F	1617.1	178.694	0.195	-0.041	698.982	674.108	0.026	-	0.347	0.208	-	-	-	-	-	-	-	PAVEMENT_GENERAL	Urban	F	1011101000011101	0000000000000000	-	-	-	-	-	-	-	-	-	-	Terminate	
"default"	"Seema_Shokoufeh_Track2"	"Feb 14, 2017 09:44:30 AM"	Unknown	152.98639	01/14/0117 09:47.07	00009179	16.103	-	-	CL	0	-	-	4.9	0.145	0.000	D	F	1571.4	179.754	0.194	-0.037	699.207	658.086	0.026	-	0.274	0.133	-	-	-	-	-	-	-	PAVEMENT_GENERAL	Urban	F	1011101000011101	0000000000000000	-	-	-	-	-	-	-	-	-	-	Terminate	
"default"	"Seema_Shokoufeh_Track2"	"Feb 14, 2017 09:44:30 AM"	Unknown	153.98642	01/14/0117 09:47.08	00009239	16.177	-	-	CL	0	-	-	3.9	0.136	0.000	D	F	1547.7	180.628	0.195	-0.029	699.161	641.941	0.026	-	0.229	0.073	-	-	-	-	-	-	-	PAVEMENT_GENERAL	Urban	F	1011101000011101	0000000000000000	-	-	-	-	-	-	-	-	-	-	Terminate	
"default"	"Seema_Shokoufeh_Track2"	"Feb 14, 2017 09:44:30 AM"	Unknown	154.98643	01/14/0117 09:47.09	00009299	15.883	-	-	CL	0	-	-	1.0	0.000	0.000	D	F	1083.1	181.265	0.188	-0.011	698.893	625.850	0.029	-	0.095	-0.543	-	-	-	-	-	-	-	PAVEMENT_GENERAL	Urban	F	1011101000011101	0000000000000000	-	-	-	-	-	-	-	-	-	-	Terminate	
"default"	"Seema_Shokoufeh_Track2"	"Feb 14, 2017 09:44:30 AM"	Unknown	155.98645	01/14/0117 09:47.10	00009359	15.405	-	-	CL	0	-	-	2.8	0.000	0.000	D	F	1050.6	181.761	0.188	-0.025	698.499	610.199	0.029	-	0.191	-0.538	-	-	-	-	-	-	-	PAVEMENT_GENERAL	Urban	F	1011101000011101	0000000000000000	-	-	-	-	-	-	-	-	-	-	Terminate	
"default"	"Seema_Shokoufeh_Track2"	"Feb 14, 2017 09:44:30 AM"	Unknown	156.98647	01/14/0117 09:47.11	00009419	15.237	Inter688t25-1	-1.553	1	1	180.000	11.111	-5.0	0.113	0.000	D	F	1662.0	182.286	0.198	0.025	697.949	594.963	0.026	-	-0.115	0.082	-	-	-	-	-	-	-	PAVEMENT_GENERAL	Urban	F	1011101000011101	0000000000000000	-	-	-	-	-	-	-	-	-	-	Terminate	
"default"	"Seema_Shokoufeh_Track2"	"Feb 14, 2017 09:44:30 AM"	Unknown	157.98650	01/14/0117 09:47.12	00009479	14.800	Inter688t29-0	-1.079	1	1	180.079	11.111	-19.5	0.000	0.000	D	F	1452.3	180.888	0.188	0.134	697.471	579.898	0.029	-	-0.934	-0.580	-	-	-	-	-	-	-	PAVEMENT_GENERAL	Urban	F	1011101000011101	0000000000000000	-	-	-	-	-	-	-	-	-	-	Terminate	
"default"	"Seema_Shokoufeh_Track2"	"Feb 14, 2017 09:44:30 AM"	Unknown	158.98651	01/14/0117 09:47.13	00009539	14.226	Inter688t29-0	-1.340	1	1	180.077	11.111	8.6	0.000	0.000	D	F	1397.4	178.269	0.191	-0.042	697.711	565.390	0.029	-	0.300	-0.563	-	-	-	-	-	-	-	PAVEMENT_GENERAL	Urban	F	1011101000011101	0000000000000000	-	-	-	-	-	-	-	-	-	-	Terminate	
"default"	"Seema_Shokoufeh_Track2"	"Feb 14, 2017 09:44:30 AM"	Unknown	159.98653	01/14/0117 09:47.14	00009599	13.703	Inter688t29-0	-1.665	1	1	180.009	11.111	-0.1	0.086	0.000	D	F	1539.5	178.855	0.199	0.002	698.018	551.445	0.028	-	-0.005	-0.217	-	-	-	-	-	-	-	PAVEMENT_GENERAL	Urban	F	1011101000011101	0000000000000000	-	-	-	-	-	-	-	-	-	-	Terminate	
"default"	"Seema_Shokoufeh_Track2"	"Feb 14, 2017 09:44:30 AM"	Unknown	160.98656	01/14/0117 09:47.15	00009659	13.239	Inter688t27-1	1.643	LT1	1	179.909	11.111	-9.3	0.012	0.000	D	F	1301.5	178.445	0.191	0.051	698.317	537.947	0.029	L	-0.356	-0.505	-	-	-	-	-	-	-	PAVEMENT_GENERAL	Urban	F	1011101000111101	0000000000000000	-	-	-	-	-	-	-	-	-	-	Terminate	
"default"	"Seema_Shokoufeh_Track2"	"Feb 14, 2017 09:44:30 AM"	Unknown	161.98657	01/14/0117 09:47.16	00009719	12.693	Inter688t27-1	0.826	LT1	1	179.909	11.111	-41.5	0.000	0.000	D	F	1246.4	173.072	0.182	0.244	699.155	525.005	0.029	L	-1.881	-0.570	-	-	-	-	-	-	-	PAVEMENT_GENERAL	Urban	F	1011101000111101	0000000000000000	-	-	-	-	-	-	-	-	-	-	Terminate	
"default"	"Seema_Shokoufeh_Track2"	"Feb 14, 2017 09:44:30 AM"	Unknown	162.98659	01/14/0117 09:47.17	00009779	12.082	Inter688t59-0	-0.965	1	1	161.910	11.111	-79.8	0.000	0.000	D	F	1185.2	160.705	0.165	0.449	701.852	512.934	0.031	L	-3.365	-0.641	-	-	-	-	-	-	-	PAVEMENT_GENERAL	Urban	F	1011101000111101	0000000000000000	-	-	-	-	-	-	-	-	-	-	Terminate	
"default"	"Seema_Shokoufeh_Track2"	"Feb 14, 2017 09:44:30 AM"	Unknown	163.98662	01/14/0117 09:47.18	00009839	11.439	Inter688t59-0	-0.448	1	1	135.949	11.111	-94.2	0.000	0.000	D	F	1121.8	144.100	0.155	0.479	707.312	502.567	0.031	L	-3.630	-0.664	-	-	-	-	-	-	-	PAVEMENT_GENERAL	Urban	F	1011101000111101	0000000000000000	-	-	-	-	-	-	-	-	-	-	Terminate	
"default"	"Seema_Shokoufeh_Track2"	"Feb 14, 2017 09:44:30 AM"	Unknown	164.98663	01/14/0117 09:47.19	00009899	10.722	Inter688t59-0	1.793	1	1	101.205	11.111	-157.6	0.019	0.000	D	F	1097.1	121.516	0.137	0.685	715.363	495.053	0.035	L	-5.161	-0.759	-	-	-	44	0.502	5.379	-	PAVEMENT_GENERAL	Urban	F	1011101000111101	0000000000000000	-	-	-	-	-	-	-	-	-	-	Terminate	
"default"	"Seema_Shokoufeh_Track2"	"Feb 14, 2017 09:44:30 AM"	Unknown	165.98665	01/14/0117 09:47.20	00009959	9.494	-	-	-	0	-	-	-181.1	0.004	0.000	D	F	924.9	91.088	-0.025	0.869	724.922	492.172	0.192	L	-6.311	-0.914	-	-	-	-	-	-	-	CURB	Urban	F	1011101000111101	0000000000000000	-	-	-	-	-	-	-	-	-	-	Terminate	
"default"	"Seema_Shokoufeh_Track2"	"Feb 14, 2017 09:44:30 AM"	Unknown	166.98668	01/14/0117 09:47.21	00010019	8.860	-	-	SH	1	-	-	-16.2	0.039	0.000	D	F	1101.7	70.387	0.695	0.636	733.824	493.977	0.015	L	-1.752	-0.244	-	-	-	-	-	-	-	PAVEMENT_GENERAL	Urban	F	1111101000111101	0000000000000000	-	-	-	-	-	-	-	-	-	-	Terminate	
"default"	"Seema_Shokoufeh_Track2"	"Feb 14, 2017 09:44:30 AM"	Unknown	167.98669	01/14/0117 09:47.22	00010079	8.594	Inter688t5-0	-0.448	1	1	90.156	11.111	26.0	0.102	0.000	D	F	1358.8	71.305	0.218	-0.071	742.000	496.889	0.026	-	0.597	0.349	-	-	-	44	2.063	17.726	-	PAVEMENT_GENERAL	Urban	F	1011101000011101	0000000000000000	-	-	-	-	-	-	-	-	-	-	Terminate	
"default"	"Seema_Shokoufeh_Track2"	"Feb 14, 2017 09:44:30 AM"	Unknown	168.98671	01/14/0117 09:47.23	00010139	8.637	-Inter688t17-0	-1.346	-1	1	266.091	11.111	66.6	0.004	0.000	D	F	841.9	77.983	0.182	-0.230	750.396	499.170	0.028	-	1.653	-0.541	-	-	-	45	2.878	24.860	2.878	PAVEMENT_GENERAL	Urban	F	1011101000011101	0000000000000000	-	-	-	-	-	-	-	-	-	-	Terminate	
"default"	"Seema_Shokoufeh_Track2"	"Feb 14, 2017 09:44:30 AM"	Unknown	169.98674	01/14/0117 09:47.24	00010199	8.496	-Inter688t17-0	-1.061	-1	1	265.531	11.111	18.3	0.030	0.000	D	F	973.6	85.089	0.196	-0.074	758.898	500.169	0.027	-	0.462	-0.282	-	-	-	45	3.925	33.349	3.925	PAVEMENT_GENERAL	Urban	F	1011101000011101	0000000000000000	-	-	-	-	-	-	-	-	-	-	Terminate	
"default"	"Seema_Shokoufeh_Track2"	"Feb 14, 2017 09:44:30 AM"	Unknown	170.98676	01/14/0117 09:47.25	00010259	8.294	-	-	SH	1	-	-	18.1	0.153	0.000	D	F	1451.3	91.133	0.211	-0.021	767.259	500.383	0.027	-	0.385	0.318	-	-	-	-	-	-	-	PAVEMENT_GENERAL	Urban	F	1011101000011101	0000000000000000	-	-	-	-	-	-	-	-	-	-	Terminate	
