"Name"	"Project"	"Time"	ZoneName	Time	SystemTime	Frame	Velocity	LaneName	LanePos	LaneIndex	LaneCount	LaneHeading	SpeedLimit	Steer	Accel	Brake	Gear	Horn	SubjectEngineRPM	SubjectHeading	SubjectPitch	SubjectRoll	SubjectX	SubjectY	SubjectZ	Signal	LatAccel	LongAccel	Collision	CollisionAngle	CollisionVelocity	VehAhead	HeadwayTime	HeadwayDist	TTC	TerrainType	CultureType	Slip	DigitalInputs	DigitalInputs2	ActiveTrigger	EntityName	DistToEntity	TimeToEntity	EntityVelocity	EntityAccel	EntityHeading	EntityX	EntityY	EntityZ	GrabData	
"Student19Mode1"	"Seema_Shokoufeh_Track2"	"Feb 14, 2017 09:56:58 AM"	Unknown	0.98335	01/14/0117 09:57.02	00000059	0.002	Inter625t13-0	-0.088	1	2	0.000	11.111	0.5	0.000	0.000	D	F	0.0	0.000	0.153	-0.001	1503.500	523.206	0.019	-	-0.000	0.000	-	-	-	-	-	-	-	PAVEMENT_GENERAL	Urban	F	1011101000011101	0000000000000000	-	-	-	-	-	-	-	-	-	-	Terminate	
"Student19Mode1"	"Seema_Shokoufeh_Track2"	"Feb 14, 2017 09:56:58 AM"	Unknown	1.98337	01/14/0117 09:57.03	00000119	0.000	Inter625t13-0	-0.088	1	2	0.000	11.111	-0.3	0.000	0.000	D	F	0.0	0.000	0.197	0.000	1503.500	523.208	0.026	-	-0.000	-0.001	-	-	-	-	-	-	-	PAVEMENT_GENERAL	Urban	F	1011101000011101	0000000000000000	-	-	-	-	-	-	-	-	-	-	Terminate	
"Student19Mode1"	"Seema_Shokoufeh_Track2"	"Feb 14, 2017 09:56:58 AM"	Unknown	2.98339	01/14/0117 09:57.04	00000179	-0.000	Inter625t13-0	-0.088	1	2	0.000	11.111	-0.7	0.000	0.000	D	F	0.0	0.000	0.207	-0.000	1503.500	523.208	0.028	-	0.000	-0.000	-	-	-	-	-	-	-	PAVEMENT_GENERAL	Urban	F	1011101000011101	0000000000000000	-	-	-	-	-	-	-	-	-	-	Terminate	
"Student19Mode1"	"Seema_Shokoufeh_Track2"	"Feb 14, 2017 09:56:58 AM"	Unknown	3.98341	01/14/0117 09:57.05	00000239	-0.000	Inter625t13-0	-0.088	1	2	0.000	11.111	1.6	0.019	0.000	D	F	0.0	0.000	0.210	0.000	1503.500	523.208	0.028	-	-0.000	-0.000	-	-	-	-	-	-	-	PAVEMENT_GENERAL	Urban	F	1011101000011101	0000000000000000	-	-	-	-	-	-	-	-	-	-	Terminate	
"Student19Mode1"	"Seema_Shokoufeh_Track2"	"Feb 14, 2017 09:56:58 AM"	Unknown	4.98343	01/14/0117 09:57.06	00000299	-0.000	Inter625t13-0	-0.088	1	2	0.000	11.111	2.7	0.000	0.000	D	F	0.0	0.000	0.210	-0.000	1503.500	523.208	0.028	-	0.000	0.000	-	-	-	-	-	-	-	PAVEMENT_GENERAL	Urban	F	1011101000011101	0000000000000000	-	-	-	-	-	-	-	-	-	-	Terminate	
"Student19Mode1"	"Seema_Shokoufeh_Track2"	"Feb 14, 2017 09:56:58 AM"	Unknown	5.98345	01/14/0117 09:57.07	00000359	-0.000	Inter625t13-0	-0.088	1	2	0.000	11.111	3.4	0.000	0.000	D	F	0.0	0.000	0.209	0.000	1503.500	523.208	0.028	-	-0.000	0.000	-	-	-	-	-	-	-	PAVEMENT_GENERAL	Urban	F	1011101000011101	0000000000000000	-	-	-	-	-	-	-	-	-	-	Terminate	
"Student19Mode1"	"Seema_Shokoufeh_Track2"	"Feb 14, 2017 09:56:58 AM"	Unknown	6.98347	01/14/0117 09:57.08	00000419	-0.000	Inter625t13-0	-0.088	1	2	0.000	11.111	2.8	0.000	0.000	N	F	0.0	0.000	0.209	0.000	1503.500	523.208	0.028	-	0.000	0.000	-	-	-	-	-	-	-	PAVEMENT_GENERAL	Urban	F	1011101000011101	0000000000000000	-	-	-	-	-	-	-	-	-	-	Terminate	
"Student19Mode1"	"Seema_Shokoufeh_Track2"	"Feb 14, 2017 09:56:58 AM"	Unknown	7.98349	01/14/0117 09:57.09	00000479	-0.000	Inter625t13-0	-0.088	1	2	0.000	11.111	4.2	0.000	0.000	N	F	5.6	0.000	0.209	0.000	1503.500	523.208	0.028	-	-0.000	0.000	-	-	-	-	-	-	-	PAVEMENT_GENERAL	Urban	F	1011101000011111	0000000000000000	-	-	-	-	-	-	-	-	-	-	Terminate	
"Student19Mode1"	"Seema_Shokoufeh_Track2"	"Feb 14, 2017 09:56:58 AM"	Unknown	8.98351	01/14/0117 09:57.10	00000539	-0.000	Inter625t13-0	-0.088	1	2	0.000	11.111	5.5	0.000	0.000	N	F	338.9	0.000	0.209	0.000	1503.500	523.208	0.028	-	0.000	0.000	-	-	-	-	-	-	-	PAVEMENT_GENERAL	Urban	F	1011101000011111	0000000000000000	-	-	-	-	-	-	-	-	-	-	Terminate	
"Student19Mode1"	"Seema_Shokoufeh_Track2"	"Feb 14, 2017 09:56:58 AM"	Unknown	9.98353	01/14/0117 09:57.11	00000599	-0.000	Inter625t13-0	-0.088	1	2	0.000	11.111	3.6	0.000	0.000	N	F	477.5	0.000	0.209	0.000	1503.500	523.208	0.028	-	0.000	0.000	-	-	-	-	-	-	-	PAVEMENT_GENERAL	Urban	F	1011101000011101	0000000000000000	-	-	-	-	-	-	-	-	-	-	Terminate	
"Student19Mode1"	"Seema_Shokoufeh_Track2"	"Feb 14, 2017 09:56:58 AM"	Unknown	10.98355	01/14/0117 09:57.12	00000659	0.000	Inter625t13-0	-0.088	1	2	0.000	11.111	5.0	0.000	0.000	D	F	477.5	0.000	0.209	-0.000	1503.500	523.208	0.028	-	0.000	0.000	-	-	-	-	-	-	-	PAVEMENT_GENERAL	Urban	F	1011101000011101	0000000000000000	-	-	-	-	-	-	-	-	-	-	Terminate	
"Student19Mode1"	"Seema_Shokoufeh_Track2"	"Feb 14, 2017 09:56:58 AM"	Unknown	11.98357	01/14/0117 09:57.13	00000719	0.011	Inter625t13-0	-0.088	1	2	0.000	11.111	22.0	0.004	0.000	D	F	506.4	0.002	0.204	0.000	1503.500	523.210	0.026	-	0.001	0.025	-	-	-	-	-	-	-	PAVEMENT_GENERAL	Urban	F	1011101000011101	0000000000000000	-	-	-	-	-	-	-	-	-	-	Terminate	
"Student19Mode1"	"Seema_Shokoufeh_Track2"	"Feb 14, 2017 09:56:58 AM"	Unknown	12.98359	01/14/0117 09:57.14	00000779	1.337	Inter625t13-0	-0.083	1	2	0.000	11.111	20.9	0.120	0.000	D	F	1305.2	0.168	0.222	-0.007	1503.505	523.528	0.015	-	0.043	2.889	-	-	-	-	-	-	-	PAVEMENT_GENERAL	Urban	F	1011101000011101	0000000000000000	-	-	-	-	-	-	-	-	-	-	Terminate	
"Student19Mode1"	"Seema_Shokoufeh_Track2"	"Feb 14, 2017 09:56:58 AM"	Unknown	13.98361	01/14/0117 09:57.15	00000839	3.972	Inter625t13-0	-0.028	1	2	0.000	11.111	14.0	0.335	0.000	D	F	1891.7	1.086	0.290	-0.017	1503.560	526.135	0.013	-	0.106	3.942	-	-	-	-	-	-	-	PAVEMENT_GENERAL	Urban	F	1011101000011101	0000000000000000	-	-	-	-	-	-	-	-	-	-	Terminate	
"Student19Mode1"	"Seema_Shokoufeh_Track2"	"Feb 14, 2017 09:56:58 AM"	Unknown	14.98363	01/14/0117 09:57.16	00000899	6.766	Inter625t13-0	0.159	1	2	0.000	11.111	1.0	0.238	0.000	D	F	2186.2	2.053	0.220	-0.000	1503.747	531.676	0.016	-	0.007	1.948	-	-	-	-	-	-	-	PAVEMENT_GENERAL	Urban	F	1011101000011101	0000000000000000	-	-	-	-	-	-	-	-	-	-	Terminate	
"Student19Mode1"	"Seema_Shokoufeh_Track2"	"Feb 14, 2017 09:56:58 AM"	Unknown	15.98365	01/14/0117 09:57.17	00000959	8.558	Inter625t49-0	0.404	1	1	0.006	11.111	-4.4	0.231	0.000	D	F	1897.2	1.480	0.217	0.012	1503.993	539.409	0.019	-	-0.101	1.491	-	-	-	-	-	-	-	PAVEMENT_GENERAL	Urban	F	1011101000011101	0000000000000000	-	-	-	-	-	-	-	-	-	-	Terminate	
"Student19Mode1"	"Seema_Shokoufeh_Track2"	"Feb 14, 2017 09:56:58 AM"	Unknown	16.98367	01/14/0117 09:57.18	00001019	9.970	Inter625t49-0	0.597	1	1	0.008	11.111	-2.2	0.236	0.000	D	F	1982.5	1.029	0.211	0.006	1504.187	548.680	0.020	-	-0.063	1.303	-	-	-	-	-	-	-	PAVEMENT_GENERAL	Urban	F	1011101000011101	0000000000000000	-	-	-	-	-	-	-	-	-	-	Terminate	
"Student19Mode1"	"Seema_Shokoufeh_Track2"	"Feb 14, 2017 09:56:58 AM"	Unknown	17.98369	01/14/0117 09:57.19	00001079	11.178	Inter625t49-0	0.724	1	1	0.006	11.111	-6.3	0.242	0.000	D	F	2071.7	0.375	0.210	0.025	1504.315	559.269	0.021	-	-0.194	1.112	-	-	-	-	-	-	-	PAVEMENT_GENERAL	Urban	F	1011101000011101	0000000000000000	-	-	-	-	-	-	-	-	-	-	Terminate	
"Student19Mode1"	"Seema_Shokoufeh_Track2"	"Feb 14, 2017 09:56:58 AM"	Unknown	18.98371	01/14/0117 09:57.20	00001139	12.226	Inter625t49-0	0.700	1	1	0.005	11.111	4.7	0.233	0.000	D	F	2181.0	359.814	0.207	-0.023	1504.292	570.978	0.022	-	0.145	1.011	-	-	-	-	-	-	-	PAVEMENT_GENERAL	Urban	F	1011101000011101	0000000000000000	-	-	-	-	-	-	-	-	-	-	Terminate	
"Student19Mode1"	"Seema_Shokoufeh_Track2"	"Feb 14, 2017 09:56:58 AM"	Unknown	19.98373	01/14/0117 09:57.21	00001199	13.333	Inter625t15-0	0.732	1	2	0.000	11.111	3.3	0.300	0.000	D	F	2374.2	0.422	0.209	-0.018	1504.326	583.734	0.021	-	0.136	1.203	-	-	-	-	-	-	-	PAVEMENT_GENERAL	Urban	F	1011101000011101	0000000000000000	-	-	-	-	-	-	-	-	-	-	Terminate	
"Student19Mode1"	"Seema_Shokoufeh_Track2"	"Feb 14, 2017 09:56:58 AM"	Unknown	20.98375	01/14/0117 09:57.22	00001259	14.513	Inter625t15-0	0.887	1	2	0.000	11.111	-4.6	0.296	0.000	D	F	2517.3	0.617	0.207	0.025	1504.480	597.660	0.021	-	-0.163	1.157	-	-	-	-	-	-	-	PAVEMENT_GENERAL	Urban	F	1011101000011101	0000000000000000	-	-	-	-	-	-	-	-	-	-	Terminate	
"Student19Mode1"	"Seema_Shokoufeh_Track2"	"Feb 14, 2017 09:56:58 AM"	Unknown	21.98377	01/14/0117 09:57.23	00001319	15.656	Inter614t1-0	0.939	1	2	0.000	11.111	-0.0	0.302	0.000	D	F	2687.1	359.820	0.205	0.009	1504.532	612.746	0.021	-	-0.081	1.139	-	-	-	-	-	-	-	PAVEMENT_GENERAL	Urban	F	1011101000011101	0000000000000000	-	-	-	-	-	-	-	-	-	-	Terminate	
"Student19Mode1"	"Seema_Shokoufeh_Track2"	"Feb 14, 2017 09:56:58 AM"	Unknown	22.98379	01/14/0117 09:57.24	00001379	16.779	Inter614t1-0	0.893	1	2	0.000	11.111	3.2	0.303	0.000	D	F	2848.8	0.014	0.203	-0.026	1504.486	628.965	0.021	-	0.182	1.112	-	-	-	-	-	-	-	PAVEMENT_GENERAL	Urban	F	1011101000011101	0000000000000000	-	-	-	-	-	-	-	-	-	-	Terminate	
"Student19Mode1"	"Seema_Shokoufeh_Track2"	"Feb 14, 2017 09:56:58 AM"	Unknown	23.98381	01/14/0117 09:57.25	00001439	17.875	Inter614t1-0	0.974	1	2	0.000	11.111	0.2	0.307	0.000	D	F	3001.8	0.535	0.201	-0.008	1504.568	646.294	0.022	-	0.073	1.073	-	-	-	-	-	-	-	PAVEMENT_GENERAL	Urban	F	1011101000011101	0000000000000000	-	-	-	-	-	-	-	-	-	-	Terminate	
"Student19Mode1"	"Seema_Shokoufeh_Track2"	"Feb 14, 2017 09:56:58 AM"	Unknown	24.98383	01/14/0117 09:57.26	00001499	18.890	Inter614t1-0	1.143	1	2	0.000	11.111	-1.1	0.309	0.000	D	F	2361.9	0.556	0.193	0.003	1504.737	664.699	0.023	-	-0.016	0.733	-	-	-	12	9.109	172.068	170.562	PAVEMENT_GENERAL	Urban	F	1011101000011101	0000000000000000	-	-	-	-	-	-	-	-	-	-	Terminate	
"Student19Mode1"	"Seema_Shokoufeh_Track2"	"Feb 14, 2017 09:56:58 AM"	Unknown	25.98385	01/14/0117 09:57.27	00001559	19.486	Inter614t1-0	1.295	1	2	0.000	11.111	-1.7	0.307	0.000	D	F	2282.0	0.267	0.194	0.017	1504.888	683.891	0.024	-	-0.124	0.590	-	-	-	12	8.924	173.894	-	PAVEMENT_GENERAL	Urban	F	1011101000011101	0000000000000000	-	-	-	-	-	-	-	-	-	-	Terminate	
"Student19Mode1"	"Seema_Shokoufeh_Track2"	"Feb 14, 2017 09:56:58 AM"	Unknown	26.98387	01/14/0117 09:57.28	00001619	20.070	Inter614t1-0	1.347	1	2	0.000	11.111	-1.2	0.310	0.000	D	F	2328.3	0.023	0.193	0.012	1504.941	703.669	0.024	-	-0.076	0.580	-	-	-	12	8.703	174.656	-	PAVEMENT_GENERAL	Urban	F	1011101000011101	0000000000000000	-	-	-	-	-	-	-	-	-	-	Terminate	
"Student19Mode1"	"Seema_Shokoufeh_Track2"	"Feb 14, 2017 09:56:58 AM"	Unknown	27.98389	01/14/0117 09:57.29	00001679	20.669	Inter614t1-0	1.320	1	2	0.000	11.111	-1.1	0.323	0.000	D	F	2388.3	359.780	0.192	0.010	1504.913	724.036	0.024	-	-0.078	0.608	-	-	-	12	8.503	175.748	-	PAVEMENT_GENERAL	Urban	F	1011101000011101	0000000000000000	-	-	-	-	-	-	-	-	-	-	Terminate	
"Student19Mode1"	"Seema_Shokoufeh_Track2"	"Feb 14, 2017 09:56:58 AM"	Unknown	28.98391	01/14/0117 09:57.30	00001739	21.275	Inter614t1-0	1.232	1	2	0.000	11.111	1.1	0.326	0.000	D	F	2439.7	359.827	0.191	-0.012	1504.825	745.008	0.024	-	0.079	0.605	-	-	-	12	8.308	176.753	-	PAVEMENT_GENERAL	Urban	F	1111101000011101	0000000000000000	-	-	-	-	-	-	-	-	-	-	Terminate	
"Student19Mode1"	"Seema_Shokoufeh_Track2"	"Feb 14, 2017 09:56:58 AM"	Unknown	29.98393	01/14/0117 09:57.32	00001799	21.866	Inter614t1-0	1.199	1	2	0.000	11.111	1.1	0.321	0.000	D	F	2480.3	0.041	0.190	-0.011	1504.792	766.582	0.024	-	0.078	0.574	-	-	-	12	8.118	177.517	-	PAVEMENT_GENERAL	Urban	F	1011101000011101	0000000000000000	-	-	-	-	-	-	-	-	-	-	Terminate	
"Student19Mode1"	"Seema_Shokoufeh_Track2"	"Feb 14, 2017 09:56:58 AM"	Unknown	30.98395	01/14/0117 09:57.33	00001859	22.456	Inter614t1-0	1.237	1	2	0.000	11.111	-0.2	0.349	0.000	D	F	2542.3	0.139	0.189	0.001	1504.831	788.739	0.024	-	-0.007	0.608	-	-	-	12	7.914	177.714	1703.974	PAVEMENT_GENERAL	Urban	F	1011101000011101	0000000000000000	-	-	-	-	-	-	-	-	-	-	Terminate	
"Student19Mode1"	"Seema_Shokoufeh_Track2"	"Feb 14, 2017 09:56:58 AM"	Unknown	31.98397	01/14/0117 09:57.34	00001919	23.059	Inter612t1-0	1.283	1	2	0.000	11.111	-0.3	0.353	0.000	D	F	2590.1	0.090	0.188	0.003	1504.876	811.497	0.024	-	-0.015	0.601	-	-	-	12	7.689	177.309	250.815	PAVEMENT_GENERAL	Urban	F	1011101000011101	0000000000000000	-	-	-	-	-	-	-	-	-	-	Terminate	
"Student19Mode1"	"Seema_Shokoufeh_Track2"	"Feb 14, 2017 09:56:58 AM"	Unknown	32.98399	01/14/0117 09:57.35	00001979	23.556	Inter612t1-0	1.308	1	2	0.000	11.111	-0.4	0.305	0.000	D	F	2609.1	0.011	0.187	0.003	1504.902	834.823	0.025	-	-0.030	0.488	-	-	-	12	7.486	176.336	146.440	PAVEMENT_GENERAL	Urban	F	1011101000011101	0000000000000000	-	-	-	-	-	-	-	-	-	-	Terminate	
"Student19Mode1"	"Seema_Shokoufeh_Track2"	"Feb 14, 2017 09:56:58 AM"	Unknown	33.98401	01/14/0117 09:57.36	00002039	23.991	Inter612t1-0	1.296	1	2	0.000	11.111	-1.0	0.238	0.000	D	F	2381.1	359.884	0.181	0.010	1504.889	858.607	0.025	-	-0.068	0.359	-	-	-	12	7.290	174.906	106.697	PAVEMENT_GENERAL	Urban	F	1011101000011101	0000000000000000	-	-	-	-	-	-	-	-	-	-	Terminate	
"Student19Mode1"	"Seema_Shokoufeh_Track2"	"Feb 14, 2017 09:56:58 AM"	Unknown	34.98403	01/14/0117 09:57.37	00002099	24.164	Inter612t1-0	1.210	1	2	0.000	11.111	-1.9	0.240	0.000	D	F	2044.1	359.620	0.181	0.020	1504.803	882.696	0.026	-	-0.139	0.133	-	-	-	12	7.167	173.171	95.580	PAVEMENT_GENERAL	Urban	F	1011101000011101	0000000000000000	-	-	-	-	-	-	-	-	-	-	Terminate	
"Student19Mode1"	"Seema_Shokoufeh_Track2"	"Feb 14, 2017 09:56:58 AM"	Unknown	35.98405	01/14/0117 09:57.38	00002159	24.279	Inter612t1-0	0.987	1	2	0.000	11.111	-2.4	0.164	0.000	D	F	1899.7	359.209	0.176	0.024	1504.580	906.925	0.027	-	-0.182	-0.056	-	-	-	12	7.055	171.295	88.905	PAVEMENT_GENERAL	Urban	F	1011101000011101	0000000000000000	-	-	-	-	-	-	-	-	-	-	Terminate	
"Student19Mode1"	"Seema_Shokoufeh_Track2"	"Feb 14, 2017 09:56:58 AM"	Unknown	36.98407	01/14/0117 09:57.39	00002219	24.083	Inter612t1-0	0.612	1	2	0.000	11.111	1.5	0.000	0.000	D	F	1640.5	359.086	0.163	-0.015	1504.205	931.136	0.028	-	0.082	-0.708	-	-	-	12	7.036	169.437	97.882	PAVEMENT_GENERAL	Urban	F	1011101000011101	0000000000000000	-	-	-	-	-	-	-	-	-	-	Terminate	
"Student19Mode1"	"Seema_Shokoufeh_Track2"	"Feb 14, 2017 09:56:58 AM"	Unknown	37.98409	01/14/0117 09:57.40	00002279	23.417	Inter612t1-0	0.312	1	2	0.000	11.111	-0.4	0.016	0.000	D	F	1597.6	359.493	0.175	-0.006	1503.905	954.882	0.030	-	0.046	-0.626	-	-	-	12	7.176	168.045	157.731	PAVEMENT_GENERAL	Urban	F	1011101000011101	0000000000000000	-	-	-	-	-	-	-	-	-	-	Terminate	
"Student19Mode1"	"Seema_Shokoufeh_Track2"	"Feb 14, 2017 09:56:58 AM"	Unknown	38.98411	01/14/0117 09:57.41	00002339	22.854	Inter612t1-0	0.033	1	2	0.000	11.111	-4.3	0.021	0.000	D	F	1560.1	358.889	0.176	0.052	1503.626	978.017	0.029	-	-0.375	-0.558	-	-	-	12	7.319	167.264	333.027	PAVEMENT_GENERAL	Urban	F	1011101000011101	0000000000000000	-	-	-	-	-	-	-	-	-	-	Terminate	
"Student19Mode1"	"Seema_Shokoufeh_Track2"	"Feb 14, 2017 09:56:58 AM"	Unknown	39.98413	01/14/0117 09:57.42	00002399	22.323	Inter613t1-0	-0.504	1	2	0.000	11.111	4.1	0.032	0.000	D	F	1525.3	358.592	0.177	-0.032	1503.089	1000.596	0.029	-	0.220	-0.518	-	-	-	12	7.483	167.038	-	PAVEMENT_GENERAL	Urban	F	1011101000011101	0000000000000000	-	-	-	-	-	-	-	-	-	-	Terminate	
"Student19Mode1"	"Seema_Shokoufeh_Track2"	"Feb 14, 2017 09:56:58 AM"	Unknown	40.98415	01/14/0117 09:57.43	00002459	21.817	Inter613t1-0	-0.845	1	2	0.000	11.111	10.2	0.030	0.000	D	F	1490.1	0.000	0.177	-0.079	1502.748	1022.662	0.029	-	0.686	-0.515	-	-	-	12	7.670	167.325	-	PAVEMENT_GENERAL	Urban	F	1011101000011101	0000000000000000	-	-	-	-	-	-	-	-	-	-	Terminate	
"Student19Mode1"	"Seema_Shokoufeh_Track2"	"Feb 14, 2017 09:56:58 AM"	Unknown	41.98417	01/14/0117 09:57.44	00002519	21.255	Inter613t1-0	-0.301	1	2	0.000	11.111	1.5	0.000	0.000	D	F	1449.2	3.316	0.174	-0.072	1503.292	1044.201	0.030	-	0.641	-0.624	-	-	-	12	7.911	168.140	-	PAVEMENT_GENERAL	Urban	F	1011101000011101	0000000000000000	-	-	-	-	-	-	-	-	-	-	Terminate	
"Student19Mode1"	"Seema_Shokoufeh_Track2"	"Feb 14, 2017 09:56:58 AM"	Unknown	42.98419	01/14/0117 09:57.45	00002579	20.611	Inter613t1-0	0.803	1	2	0.000	11.111	-3.0	0.000	0.122	D	F	1387.9	2.514	0.174	0.038	1504.396	1065.116	0.030	-	-0.314	-1.176	-	-	-	12	8.227	169.578	-	PAVEMENT_GENERAL	Urban	F	1011101000011101	0000000000000000	-	-	-	-	-	-	-	-	-	-	Terminate	
"Student19Mode1"	"Seema_Shokoufeh_Track2"	"Feb 14, 2017 09:56:58 AM"	Unknown	43.98421	01/14/0117 09:57.46	00002639	17.533	Inter613t1-0	1.511	1	2	0.000	11.111	-9.8	0.000	0.209	D	F	1164.2	1.166	0.121	0.077	1505.104	1084.132	0.030	-	-0.573	-3.052	-	-	-	11	7.681	134.669	-	PAVEMENT_GENERAL	Urban	F	1011101000011101	0000000000000000	-	-	-	-	-	-	-	-	-	-	Terminate	
"Student19Mode1"	"Seema_Shokoufeh_Track2"	"Feb 14, 2017 09:56:58 AM"	Unknown	44.98423	01/14/0117 09:57.47	00002699	15.396	Inter613t1-0	1.618	1	2	0.000	11.111	1.3	0.000	0.000	D	F	1049.8	359.632	0.187	-0.008	1505.211	1100.216	0.029	-	-0.038	-0.533	-	-	-	11	8.862	136.442	-	PAVEMENT_GENERAL	Urban	F	1011101000011101	0000000000000000	-	-	-	-	-	-	-	-	-	-	Terminate	
"Student19Mode1"	"Seema_Shokoufeh_Track2"	"Feb 14, 2017 09:56:58 AM"	Unknown	45.98425	01/14/0117 09:57.48	00002759	14.940	Inter613t1-0	1.583	1	2	0.000	11.111	-0.8	0.025	0.000	D	F	1115.8	0.071	0.193	-0.001	1505.176	1115.376	0.029	-	0.016	-0.393	-	-	-	11	9.315	139.166	-	PAVEMENT_GENERAL	Urban	F	1011101000011101	0000000000000000	-	-	-	-	-	-	-	-	-	-	Terminate	
"Student19Mode1"	"Seema_Shokoufeh_Track2"	"Feb 14, 2017 09:56:58 AM"	Unknown	46.98427	01/14/0117 09:57.49	00002819	14.704	Inter613t1-0	1.539	1	2	0.000	11.111	-2.7	0.000	0.000	D	F	947.1	359.458	0.186	0.021	1505.132	1130.190	0.027	-	-0.186	-0.477	-	-	-	11	9.672	142.223	-	PAVEMENT_GENERAL	Urban	F	1011101000011101	0000000000000000	-	-	-	-	-	-	-	-	-	-	Terminate	
"Student19Mode1"	"Seema_Shokoufeh_Track2"	"Feb 14, 2017 09:56:58 AM"	Unknown	47.98429	01/14/0117 09:57.50	00002879	14.179	Inter613t1-0	1.369	1	2	0.000	11.111	5.5	0.000	0.000	D	F	967.1	359.474	0.190	-0.037	1504.962	1144.629	0.029	-	0.253	-0.522	-	-	-	11	10.273	145.662	-	PAVEMENT_GENERAL	Urban	F	1011101000011101	0000000000000000	-	-	-	-	-	-	-	-	-	-	Terminate	
"Student19Mode1"	"Seema_Shokoufeh_Track2"	"Feb 14, 2017 09:56:58 AM"	Unknown	48.98431	01/14/0117 09:57.51	00002939	13.660	Inter613t1-0	1.393	1	2	0.000	11.111	2.0	0.000	0.000	D	F	931.6	0.683	0.191	-0.019	1504.987	1158.548	0.029	-	0.171	-0.516	-	-	-	11	10.955	149.638	-	PAVEMENT_GENERAL	Urban	F	1011101000011101	0000000000000000	-	-	-	-	-	-	-	-	-	-	Terminate	
"Student19Mode1"	"Seema_Shokoufeh_Track2"	"Feb 14, 2017 09:56:58 AM"	Unknown	49.98433	01/14/0117 09:57.52	00002999	13.225	Inter613t1-0	1.512	1	2	0.000	11.111	-3.0	0.053	0.000	D	F	1149.7	0.140	0.196	0.019	1505.105	1171.965	0.028	-	-0.160	-0.247	-	-	-	11	11.652	154.092	-	PAVEMENT_GENERAL	Urban	F	1011101000011101	0000000000000000	-	-	-	-	-	-	-	-	-	-	Terminate	
"Student19Mode1"	"Seema_Shokoufeh_Track2"	"Feb 14, 2017 09:56:58 AM"	Unknown	50.98435	01/14/0117 09:57.53	00003059	12.781	Inter613t1-0	1.441	1	2	0.000	11.111	-4.1	0.009	0.000	D	F	1163.3	359.133	0.191	0.027	1505.034	1185.001	0.029	-	-0.226	-0.550	-	-	-	11	12.434	158.921	-	PAVEMENT_GENERAL	Urban	F	1011101000011101	0000000000000000	-	-	-	-	-	-	-	-	-	-	Terminate	
"Student19Mode1"	"Seema_Shokoufeh_Track2"	"Feb 14, 2017 09:56:58 AM"	Unknown	51.98437	01/14/0117 09:57.54	00003119	12.663	Inter613t1-0	1.226	1	2	0.000	11.111	5.9	0.116	0.000	D	F	1555.0	359.340	0.195	-0.031	1504.819	1197.648	0.025	-	0.249	0.144	-	-	-	11	12.962	164.148	-	PAVEMENT_GENERAL	Urban	F	1011101000011101	0000000000000000	-	-	-	-	-	-	-	-	-	-	Terminate	
"Student19Mode1"	"Seema_Shokoufeh_Track2"	"Feb 14, 2017 09:56:58 AM"	Unknown	52.98439	01/14/0117 09:57.55	00003179	13.003	Inter746t1-0	1.195	1	2	0.000	11.111	2.6	0.275	0.000	D	F	1899.3	0.301	0.209	-0.018	1504.789	1210.433	0.023	-	0.141	0.840	-	-	-	11	13.017	169.262	-	PAVEMENT_GENERAL	Urban	F	1011101000011101	0000000000000000	-	-	-	-	-	-	-	-	-	-	Terminate	
"Student19Mode1"	"Seema_Shokoufeh_Track2"	"Feb 14, 2017 09:56:58 AM"	Unknown	53.98441	01/14/0117 09:57.56	00003239	13.843	Inter746t1-0	1.280	1	2	0.000	11.111	-3.6	0.270	0.000	D	F	1930.2	0.275	0.204	0.021	1504.873	1223.862	0.023	-	-0.131	0.810	-	-	-	11	12.548	173.711	-	PAVEMENT_GENERAL	Urban	F	1011101000011101	0000000000000000	-	-	-	-	-	-	-	-	-	-	Terminate	
"Student19Mode1"	"Seema_Shokoufeh_Track2"	"Feb 14, 2017 09:56:58 AM"	Unknown	54.98443	01/14/0117 09:57.57	00003299	14.686	Inter746t1-0	1.277	1	2	0.000	11.111	-1.3	0.312	0.000	D	F	2012.6	359.730	0.203	0.012	1504.871	1238.121	0.022	-	-0.092	0.862	-	-	-	11	12.074	177.323	-	PAVEMENT_GENERAL	Urban	F	1011101000011101	0000000000000000	-	-	-	-	-	-	-	-	-	-	Terminate	
"Student19Mode1"	"Seema_Shokoufeh_Track2"	"Feb 14, 2017 09:56:58 AM"	Unknown	55.98445	01/14/0117 09:57.58	00003359	15.476	Inter746t1-0	1.199	1	2	0.000	11.111	2.2	0.277	0.000	D	F	2019.8	359.751	0.202	-0.011	1504.792	1253.217	0.023	-	0.083	0.732	-	-	-	11	11.638	180.105	-	PAVEMENT_GENERAL	Urban	F	1011101000011101	0000000000000000	-	-	-	-	-	-	-	-	-	-	Terminate	
"Student19Mode1"	"Seema_Shokoufeh_Track2"	"Feb 14, 2017 09:56:58 AM"	Unknown	56.98447	01/14/0117 09:57.59	00003419	16.145	Inter746t1-0	1.170	1	2	0.000	11.111	-0.4	0.275	0.000	D	F	2049.5	0.000	0.202	0.002	1504.763	1269.037	0.024	-	-0.013	0.671	-	-	-	11	11.283	182.166	-	PAVEMENT_GENERAL	Urban	F	1011101000011101	0000000000000000	-	-	-	-	-	-	-	-	-	-	Terminate	
"Student19Mode1"	"Seema_Shokoufeh_Track2"	"Feb 14, 2017 09:56:58 AM"	Unknown	57.98449	01/14/0117 09:58.00	00003479	16.817	Inter746t1-0	1.149	1	2	0.000	11.111	-0.3	0.268	0.000	D	F	2073.0	359.900	0.198	0.002	1504.742	1285.534	0.024	-	-0.015	0.606	-	-	-	11	10.888	183.098	210.559	PAVEMENT_GENERAL	Urban	F	1011101000011101	0000000000000000	-	-	-	-	-	-	-	-	-	-	Terminate	
"Student19Mode1"	"Seema_Shokoufeh_Track2"	"Feb 14, 2017 09:56:58 AM"	Unknown	58.98451	01/14/0117 09:58.01	00003539	17.366	Inter746t1-0	1.064	1	2	0.000	11.111	-4.2	0.219	0.000	D	F	2043.0	359.345	0.195	0.032	1504.657	1302.639	0.024	-	-0.240	0.450	-	-	-	11	10.366	180.013	36.973	PAVEMENT_GENERAL	Urban	F	1011101000011101	0000000000000000	-	-	-	-	-	-	-	-	-	-	Terminate	
"Student19Mode1"	"Seema_Shokoufeh_Track2"	"Feb 14, 2017 09:56:58 AM"	Unknown	59.98453	01/14/0117 09:58.02	00003599	17.835	Inter746t1-0	0.740	1	2	0.000	11.111	-0.3	0.228	0.000	D	F	2089.5	358.438	0.195	0.022	1504.334	1320.232	0.024	-	-0.170	0.466	-	-	-	-	-	-	-	PAVEMENT_GENERAL	Urban	F	1011101000011101	0000000000000000	-	-	-	-	-	-	-	-	-	-	Terminate	
"Student19Mode1"	"Seema_Shokoufeh_Track2"	"Feb 14, 2017 09:56:58 AM"	Unknown	60.98455	01/14/0117 09:58.03	00003659	18.275	Inter746t1-0	0.385	1	2	0.000	11.111	8.2	0.219	0.000	D	F	2113.0	359.718	0.194	-0.072	1503.978	1338.286	0.025	-	0.553	0.426	-	-	-	-	-	-	-	PAVEMENT_GENERAL	Urban	F	1011101000011101	0000000000000000	-	-	-	-	-	-	-	-	-	-	Terminate	
"Student19Mode1"	"Seema_Shokoufeh_Track2"	"Feb 14, 2017 09:56:58 AM"	Unknown	61.98457	01/14/0117 09:58.04	00003719	18.581	Inter746t1-0	0.526	1	2	0.000	11.111	5.9	0.118	0.000	D	F	2003.7	1.384	0.190	-0.061	1504.119	1356.724	0.025	-	0.472	0.224	-	-	-	-	-	-	-	PAVEMENT_GENERAL	Urban	F	1011101000011101	0000000000000000	-	-	-	-	-	-	-	-	-	-	Terminate	
"Student19Mode1"	"Seema_Shokoufeh_Track2"	"Feb 14, 2017 09:56:58 AM"	Unknown	62.98459	01/14/0117 09:58.05	00003779	18.057	Inter746t1-0	1.086	1	2	0.000	11.111	0.0	0.000	0.000	D	F	1241.7	2.113	0.184	-0.013	1504.679	1375.055	0.029	-	0.094	-0.573	-	-	-	-	-	-	-	PAVEMENT_GENERAL	Urban	F	1011101000011101	0000000000000000	-	-	-	-	-	-	-	-	-	-	Terminate	
"Student19Mode1"	"Seema_Shokoufeh_Track2"	"Feb 14, 2017 09:56:58 AM"	Unknown	63.98461	01/14/0117 09:58.06	00003839	17.301	Inter746t1-0	1.663	1	2	0.000	11.111	-7.4	0.000	0.143	D	F	1159.8	1.227	0.133	0.056	1505.256	1392.802	0.030	-	-0.438	-1.929	-	-	-	-	-	-	-	PAVEMENT_GENERAL	Urban	F	1011101000011101	0000000000000000	-	-	-	-	-	-	-	-	-	-	Terminate	
"Student19Mode1"	"Seema_Shokoufeh_Track2"	"Feb 14, 2017 09:56:58 AM"	Unknown	64.98463	01/14/0117 09:58.07	00003899	15.183	Inter749t9-1	-1.764	2	2	0.000	11.111	-4.6	0.000	0.000	D	F	1036.4	359.777	0.239	0.058	1505.429	1408.947	0.031	-	-0.400	-0.520	-	-	-	-	-	-	-	PAVEMENT_GENERAL	Urban	F	1011101000011101	0000000000000000	-	-	-	-	-	-	-	-	-	-	Terminate	
"Student19Mode1"	"Seema_Shokoufeh_Track2"	"Feb 14, 2017 09:56:58 AM"	Unknown	65.98465	01/14/0117 09:58.08	00003959	12.975	Inter749t31-0	1.792	1	1	355.914	11.111	-39.1	0.000	0.128	D	F	910.4	355.501	0.157	0.259	1505.041	1423.215	0.033	-	-1.874	-2.163	-	-	-	-	-	-	-	PAVEMENT_GENERAL	Urban	F	1011101000011101	0000000000000000	-	-	-	-	-	-	-	-	-	-	Terminate	
"Student19Mode1"	"Seema_Shokoufeh_Track2"	"Feb 14, 2017 09:56:58 AM"	Unknown	66.98467	01/14/0117 09:58.09	00004019	10.394	Inter749t31-0	0.925	1	1	354.398	11.111	0.3	0.000	0.048	D	F	1010.6	350.289	0.201	0.021	1503.505	1434.733	0.032	-	-0.184	-1.335	-	-	-	12	7.997	83.117	-	PAVEMENT_GENERAL	Urban	F	1111101000011101	0000000000000000	-	-	-	-	-	-	-	-	-	-	Terminate	
"Student19Mode1"	"Seema_Shokoufeh_Track2"	"Feb 14, 2017 09:56:58 AM"	Unknown	67.98470	01/14/0117 09:58.10	00004079	9.873	Inter749t31-0	0.334	1	1	355.975	11.111	21.3	0.000	0.000	D	F	970.0	351.760	0.195	-0.094	1501.906	1444.730	0.029	-	0.635	-0.505	-	-	-	12	8.601	84.916	-	PAVEMENT_GENERAL	Urban	F	1011101000011101	0000000000000000	-	-	-	-	-	-	-	-	-	-	Terminate	
"Student19Mode1"	"Seema_Shokoufeh_Track2"	"Feb 14, 2017 09:56:58 AM"	Unknown	68.98471	01/14/0117 09:58.11	00004139	9.364	Inter749t31-0	0.301	1	1	356.903	11.111	43.3	0.000	0.000	D	F	920.3	358.319	0.188	-0.161	1501.080	1454.307	0.029	-	1.272	-0.516	-	-	-	12	9.768	91.465	-	PAVEMENT_GENERAL	Urban	F	1011101000011101	0000000000000000	-	-	-	-	-	-	-	-	-	-	Terminate	
"Student19Mode1"	"Seema_Shokoufeh_Track2"	"Feb 14, 2017 09:56:58 AM"	Unknown	69.98473	01/14/0117 09:58.12	00004199	8.874	Inter749t31-0	0.964	1	1	356.903	11.111	-7.8	0.000	0.000	D	F	872.0	1.711	0.196	0.028	1501.250	1463.422	0.029	-	-0.188	-0.485	-	-	-	12	10.533	93.472	-	PAVEMENT_GENERAL	Urban	F	1011101000011101	0000000000000000	-	-	-	-	-	-	-	-	-	-	Terminate	
"Student19Mode1"	"Seema_Shokoufeh_Track2"	"Feb 14, 2017 09:56:58 AM"	Unknown	70.98476	01/14/0117 09:58.13	00004259	9.015	Inter749t11-0	1.220	LT1	2	0.000	11.111	-19.7	0.053	0.000	D	F	1203.3	358.904	0.159	0.062	1501.282	1472.242	0.022	-	-0.514	-0.305	-	-	-	12	11.359	102.404	-	PAVEMENT_GENERAL	Urban	F	1011101000011101	0000000000000000	-	-	-	-	-	-	-	-	-	-	Terminate	
"Student19Mode1"	"Seema_Shokoufeh_Track2"	"Feb 14, 2017 09:56:58 AM"	Unknown	71.98477	01/14/0117 09:58.14	00004319	9.884	Inter749t11-0	0.750	LT1	2	0.000	11.111	-25.6	0.243	0.000	D	F	1955.6	355.854	0.214	0.089	1500.813	1481.506	0.020	-	-0.686	1.316	-	-	-	-	-	-	-	PAVEMENT_GENERAL	Urban	F	1011101000011101	0000000000000000	-	-	-	-	-	-	-	-	-	-	Terminate	
"Student19Mode1"	"Seema_Shokoufeh_Track2"	"Feb 14, 2017 09:56:58 AM"	Unknown	72.98479	01/14/0117 09:58.15	00004379	9.796	Inter749t65-0	1.386	1	1	333.745	11.111	-130.1	0.018	0.000	D	F	1034.5	342.103	0.159	0.520	1499.071	1491.347	0.032	-	-3.898	-0.670	-	-	-	-	-	-	-	PAVEMENT_GENERAL	Urban	F	1011101000011101	0000000000000000	-	-	-	-	-	-	-	-	-	-	Terminate	
"Student19Mode1"	"Seema_Shokoufeh_Track2"	"Feb 14, 2017 09:56:58 AM"	Unknown	73.98481	01/14/0117 09:58.16	00004439	10.272	-Inter749t85-0	-1.303	-1	1	179.883	11.111	-116.7	0.261	0.000	D	F	1959.6	321.169	0.192	0.462	1494.129	1499.856	0.024	-	-3.607	1.016	-	-	-	Ambient230	2.643	27.147	-	PAVEMENT_GENERAL	Urban	F	1011101000011101	0000000000000000	-	-	-	-	-	-	-	-	-	-	Terminate	
"Student19Mode1"	"Seema_Shokoufeh_Track2"	"Feb 14, 2017 09:56:58 AM"	Unknown	74.98483	01/14/0117 09:58.17	00004499	11.139	Inter749t77-0	-0.774	1	1	269.734	11.111	-200.6	0.201	0.000	D	F	2028.7	294.592	0.253	0.787	1485.692	1506.376	0.033	-	-6.073	0.527	-	-	-	-	-	-	-	PAVEMENT_GENERAL	Urban	F	1011101000011101	0000000000000000	-	-	-	-	-	-	-	-	-	-	Terminate	
"Student19Mode1"	"Seema_Shokoufeh_Track2"	"Feb 14, 2017 09:56:58 AM"	Unknown	75.98486	01/14/0117 09:58.18	00004559	11.416	Inter749t3-4	0.734	2	2	270.000	11.111	-95.1	0.213	0.000	D	F	2065.3	262.598	0.090	0.608	1474.700	1507.865	0.031	-	-4.798	0.787	-	-	-	-	-	-	-	PAVEMENT_GENERAL	Urban	F	1011101000011101	0000000000000000	-	-	-	-	-	-	-	-	-	-	Terminate	
"Student19Mode1"	"Seema_Shokoufeh_Track2"	"Feb 14, 2017 09:56:58 AM"	Unknown	76.98487	01/14/0117 09:58.19	00004619	12.205	Inter749t17-0	-1.596	1	1	270.074	11.111	61.9	0.180	0.000	D	F	1839.9	260.115	0.204	-0.351	1463.107	1505.540	0.024	-	2.349	0.657	-	-	-	-	-	-	-	PAVEMENT_GENERAL	Urban	F	1011101000011101	0000000000000000	-	-	-	-	-	-	-	-	-	-	Terminate	
"Student19Mode1"	"Seema_Shokoufeh_Track2"	"Feb 14, 2017 09:56:58 AM"	Unknown	77.98489	01/14/0117 09:58.20	00004679	13.016	Inter749t19-0	0.985	1	1	270.113	11.111	24.0	0.386	0.000	D	F	2280.9	268.824	0.211	-0.146	1450.633	1504.533	0.021	-	1.103	1.280	-	-	-	-	-	-	-	PAVEMENT_GENERAL	Urban	F	1011101000011101	0000000000000000	-	-	-	-	-	-	-	-	-	-	Terminate	
"Student19Mode1"	"Seema_Shokoufeh_Track2"	"Feb 14, 2017 09:56:58 AM"	Unknown	78.98492	01/14/0117 09:58.21	00004739	14.383	Inter749t19-0	1.142	1	1	270.071	11.111	2.0	0.395	0.000	D	F	2549.8	272.097	0.208	-0.028	1436.942	1504.718	0.020	-	0.262	1.384	-	-	-	-	-	-	-	PAVEMENT_GENERAL	Urban	F	1011101000011101	0000000000000000	-	-	-	-	-	-	-	-	-	-	Terminate	
"Student19Mode1"	"Seema_Shokoufeh_Track2"	"Feb 14, 2017 09:56:58 AM"	Unknown	79.98493	01/14/0117 09:58.22	00004799	15.738	Inter749t19-0	1.583	1	1	270.061	11.111	-13.1	0.383	0.000	D	F	2728.2	270.953	0.207	0.086	1421.885	1505.178	0.020	-	-0.621	1.335	-	-	-	-	-	-	-	PAVEMENT_GENERAL	Urban	F	1111101000011101	0000000000000000	-	-	-	-	-	-	-	-	-	-	Terminate	
"Student19Mode1"	"Seema_Shokoufeh_Track2"	"Feb 14, 2017 09:56:58 AM"	Unknown	80.98495	01/14/0117 09:58.23	00004859	17.068	Inter749t1-2	1.556	1	2	270.000	11.111	-4.3	0.439	0.000	D	F	2934.4	268.951	0.206	0.047	1405.484	1505.156	0.020	-	-0.380	1.362	-	-	-	-	-	-	-	PAVEMENT_GENERAL	Urban	F	1011101000011101	0000000000000000	-	-	-	-	-	-	-	-	-	-	Terminate	
"Student19Mode1"	"Seema_Shokoufeh_Track2"	"Feb 14, 2017 09:56:58 AM"	Unknown	81.98497	01/14/0117 09:58.24	00004919	18.440	Inter747t1-2	1.267	1	2	270.000	11.111	5.8	0.499	0.000	D	F	3139.6	269.694	0.203	-0.049	1387.733	1504.874	0.020	-	0.411	1.373	-	-	-	-	-	-	-	PAVEMENT_GENERAL	Urban	F	1011101000011101	0000000000000000	-	-	-	-	-	-	-	-	-	-	Terminate	
"Student19Mode1"	"Seema_Shokoufeh_Track2"	"Feb 14, 2017 09:56:58 AM"	Unknown	82.98499	01/14/0117 09:58.25	00004979	19.812	Inter747t1-2	1.325	1	2	270.000	11.111	0.1	0.540	0.000	D	F	3340.8	270.669	0.201	-0.016	1368.607	1504.932	0.020	-	0.127	1.369	-	-	-	-	-	-	-	PAVEMENT_GENERAL	Urban	F	1011101000011101	0000000000000000	-	-	-	-	-	-	-	-	-	-	Terminate	
"Student19Mode1"	"Seema_Shokoufeh_Track2"	"Feb 14, 2017 09:56:58 AM"	Unknown	83.98502	01/14/0117 09:58.26	00005039	21.170	Inter747t1-2	1.466	1	2	270.000	11.111	-1.6	0.556	0.000	D	F	3532.4	269.889	0.198	0.032	1348.114	1505.073	0.021	-	-0.255	1.348	-	-	-	-	-	-	-	PAVEMENT_GENERAL	Urban	F	1011101000011101	0000000000000000	-	-	-	-	-	-	-	-	-	-	Terminate	
"Student19Mode1"	"Seema_Shokoufeh_Track2"	"Feb 14, 2017 09:56:58 AM"	Unknown	84.98503	01/14/0117 09:58.27	00005099	22.502	Inter747t1-2	1.431	1	2	270.000	11.111	-1.8	0.541	0.000	D	F	3710.7	269.936	0.196	0.002	1326.274	1505.038	0.021	-	-0.023	1.304	-	-	-	-	-	-	-	PAVEMENT_GENERAL	Urban	F	1111101000011101	0000000000000000	-	-	-	-	-	-	-	-	-	-	Terminate	
"Student19Mode1"	"Seema_Shokoufeh_Track2"	"Feb 14, 2017 09:56:58 AM"	Unknown	85.98505	01/14/0117 09:58.28	00005159	23.793	Inter747t1-2	1.291	1	2	270.000	11.111	-0.2	0.439	0.000	D	F	3187.4	269.167	0.191	0.025	1303.127	1504.898	0.021	-	-0.213	1.166	-	-	-	-	-	-	-	PAVEMENT_GENERAL	Urban	F	1011101000011101	0000000000000000	-	-	-	-	-	-	-	-	-	-	Terminate	
"Student19Mode1"	"Seema_Shokoufeh_Track2"	"Feb 14, 2017 09:56:58 AM"	Unknown	86.98507	01/14/0117 09:58.29	00005219	24.413	Inter747t1-2	1.087	1	2	270.000	11.111	3.6	0.259	0.000	D	F	2662.9	270.166	0.180	-0.051	1278.966	1504.694	0.025	-	0.413	0.348	-	-	-	-	-	-	-	PAVEMENT_GENERAL	Urban	F	1011101000011101	0000000000000000	-	-	-	-	-	-	-	-	-	-	Terminate	
"Student19Mode1"	"Seema_Shokoufeh_Track2"	"Feb 14, 2017 09:56:58 AM"	Unknown	87.98509	01/14/0117 09:58.30	00005279	24.659	Inter747t1-2	1.201	1	2	270.000	11.111	-2.2	0.162	0.000	D	F	2022.6	270.267	0.171	0.021	1254.392	1504.808	0.027	-	-0.141	-0.083	-	-	-	-	-	-	-	PAVEMENT_GENERAL	Urban	F	1011101000011101	0000000000000000	-	-	-	-	-	-	-	-	-	-	Terminate	
"Student19Mode1"	"Seema_Shokoufeh_Track2"	"Feb 14, 2017 09:56:58 AM"	Unknown	88.98512	01/14/0117 09:58.31	00005339	24.475	Inter747t1-2	1.226	1	2	270.000	11.111	-3.6	0.132	0.000	D	F	1861.1	269.615	0.176	0.044	1229.807	1504.833	0.028	-	-0.329	-0.234	-	-	-	-	-	-	-	PAVEMENT_GENERAL	Urban	F	1011101000011101	0000000000000000	-	-	-	-	-	-	-	-	-	-	Terminate	
"Student19Mode1"	"Seema_Shokoufeh_Track2"	"Feb 14, 2017 09:56:58 AM"	Unknown	89.98513	01/14/0117 09:58.32	00005399	24.277	Inter747t1-2	1.035	1	2	270.000	11.111	5.1	0.141	0.000	D	F	1866.4	269.933	0.178	-0.063	1205.433	1504.642	0.028	-	0.481	-0.182	-	-	-	-	-	-	-	PAVEMENT_GENERAL	Urban	F	1011101000011101	0000000000000000	-	-	-	-	-	-	-	-	-	-	Terminate	
"Student19Mode1"	"Seema_Shokoufeh_Track2"	"Feb 14, 2017 09:56:58 AM"	Unknown	90.98515	01/14/0117 09:58.33	00005459	24.101	Inter748t1-2	1.181	1	2	270.000	11.111	2.5	0.141	0.000	D	F	1859.8	270.932	0.178	-0.035	1181.245	1504.788	0.028	-	0.273	-0.181	-	-	-	-	-	-	-	PAVEMENT_GENERAL	Urban	F	1011101000011101	0000000000000000	-	-	-	-	-	-	-	-	-	-	Terminate	
"Student19Mode1"	"Seema_Shokoufeh_Track2"	"Feb 14, 2017 09:56:58 AM"	Unknown	91.98518	01/14/0117 09:58.34	00005519	23.909	Inter748t1-2	1.618	1	2	270.000	11.111	-4.4	0.127	0.000	D	F	1823.0	271.104	0.178	0.025	1157.241	1505.225	0.028	-	-0.159	-0.206	-	-	-	-	-	-	-	PAVEMENT_GENERAL	Urban	F	1011101000011101	0000000000000000	-	-	-	-	-	-	-	-	-	-	Terminate	
"Student19Mode1"	"Seema_Shokoufeh_Track2"	"Feb 14, 2017 09:56:58 AM"	Unknown	92.98519	01/14/0117 09:58.35	00005579	23.662	Inter748t1-3	-1.761	2	2	270.000	11.111	-5.7	0.122	0.000	D	F	1798.5	269.572	0.176	0.079	1133.456	1505.445	0.028	-	-0.615	-0.249	-	-	-	-	-	-	-	PAVEMENT_GENERAL	Urban	F	1011101000011101	0000000000000000	-	-	-	-	-	-	-	-	-	-	Terminate	
"Student19Mode1"	"Seema_Shokoufeh_Track2"	"Feb 14, 2017 09:56:58 AM"	Unknown	93.98521	01/14/0117 09:58.36	00005639	23.435	Inter748t1-2	1.466	1	2	270.000	11.111	2.8	0.136	0.000	D	F	1811.1	268.274	0.177	0.034	1109.913	1505.073	0.028	-	-0.246	-0.199	-	-	-	-	-	-	-	PAVEMENT_GENERAL	Urban	F	1011101000011101	0000000000000000	-	-	-	-	-	-	-	-	-	-	Terminate	
"Student19Mode1"	"Seema_Shokoufeh_Track2"	"Feb 14, 2017 09:56:58 AM"	Unknown	94.98523	01/14/0117 09:58.37	00005699	23.244	Inter748t1-2	1.117	1	2	270.000	11.111	9.7	0.180	0.000	D	F	1874.0	271.075	0.174	-0.183	1086.578	1504.724	0.028	-	1.355	-0.134	-	-	-	-	-	-	-	PAVEMENT_GENERAL	Urban	F	1011101000011101	0000000000000000	-	-	-	-	-	-	-	-	-	-	Terminate	
"Student19Mode1"	"Seema_Shokoufeh_Track2"	"Feb 14, 2017 09:56:58 AM"	Unknown	95.98525	01/14/0117 09:58.38	00005759	23.453	Inter748t1-2	1.639	1	2	270.000	11.111	-6.7	0.360	0.000	D	F	2122.7	271.070	0.185	0.071	1063.266	1505.246	0.025	-	-0.492	0.351	-	-	-	-	-	-	-	PAVEMENT_GENERAL	Urban	F	1011101000011101	0000000000000000	-	-	-	-	-	-	-	-	-	-	Terminate	
"Student19Mode1"	"Seema_Shokoufeh_Track2"	"Feb 14, 2017 09:56:58 AM"	Unknown	96.98528	01/14/0117 09:58.39	00005819	23.931	Inter748t1-3	-1.714	2	2	270.000	11.111	-11.7	0.578	0.000	D	F	2661.9	269.315	0.185	0.141	1039.608	1505.493	0.024	-	-1.063	0.667	-	-	-	-	-	-	-	PAVEMENT_GENERAL	Urban	F	1011101000011101	0000000000000000	-	-	-	-	-	-	-	-	-	-	Terminate	
"Student19Mode1"	"Seema_Shokoufeh_Track2"	"Feb 14, 2017 09:56:58 AM"	Unknown	97.98529	01/14/0117 09:58.40	00005879	24.590	Inter748t1-2	1.372	1	2	270.000	11.111	-2.3	0.556	0.000	D	F	2747.5	268.110	0.185	0.040	1015.355	1504.978	0.024	-	-0.283	0.672	-	-	-	-	-	-	-	PAVEMENT_GENERAL	Urban	F	1011101000011101	0000000000000000	-	-	-	-	-	-	-	-	-	-	Terminate	
"Student19Mode1"	"Seema_Shokoufeh_Track2"	"Feb 14, 2017 09:56:58 AM"	Unknown	98.98531	01/14/0117 09:58.41	00005939	25.122	Inter752t1-2	-0.089	1	2	269.953	24.444	6.2	0.337	0.000	D	F	2790.9	268.564	0.361	-0.240	990.481	1504.205	0.073	-	0.318	0.588	-	-	-	-	-	-	-	FREEWAY_SMOOTH	Urban	F	1011101000011101	0000000000000000	-	-	-	-	-	-	-	-	-	-	Terminate	
"Student19Mode1"	"Seema_Shokoufeh_Track2"	"Feb 14, 2017 09:56:58 AM"	Unknown	99.98534	01/14/0117 09:58.42	00005999	25.708	Inter752t1-2	-0.328	1	2	269.023	24.444	1.4	0.337	0.000	D	F	2830.0	269.811	0.289	-0.858	965.067	1503.776	0.078	-	0.282	0.571	-	-	-	-	-	-	-	FREEWAY_SMOOTH	Urban	F	1011101000011101	0000000000000000	-	-	-	-	-	-	-	-	-	-	Terminate	
"Student19Mode1"	"Seema_Shokoufeh_Track2"	"Feb 14, 2017 09:56:58 AM"	Unknown	100.98535	01/14/0117 09:58.43	00006059	26.287	Inter752t1-2	0.271	1	2	266.879	24.444	-15.0	0.372	0.000	D	F	2883.7	268.233	0.327	-1.300	939.072	1503.473	0.137	-	-1.282	0.584	-	-	-	-	-	-	-	FREEWAY_SMOOTH	Urban	F	1011101000011101	0000000000000000	-	-	-	-	-	-	-	-	-	-	Terminate	
"Student19Mode1"	"Seema_Shokoufeh_Track2"	"Feb 14, 2017 09:56:58 AM"	Unknown	101.98537	01/14/0117 09:58.44	00006119	26.840	Inter752t1-2	0.924	1	2	263.457	24.444	-20.5	0.386	0.000	D	F	2933.2	263.697	0.311	-1.833	912.556	1501.903	0.213	-	-2.308	0.573	-	-	-	-	-	-	-	FREEWAY_SMOOTH	Urban	F	1011101000011101	0000000000000000	-	-	-	-	-	-	-	-	-	-	Terminate	
"Student19Mode1"	"Seema_Shokoufeh_Track2"	"Feb 14, 2017 09:56:58 AM"	Unknown	102.98539	01/14/0117 09:58.45	00006179	27.341	Inter752t1-2	1.094	1	2	258.705	24.444	-28.5	0.388	0.000	D	F	2978.5	256.639	0.200	-2.314	885.767	1497.875	0.283	-	-3.728	0.573	-	-	-	-	-	-	-	FREEWAY_SMOOTH	Urban	F	1011101000011101	0000000000000000	-	-	-	-	-	-	-	-	-	-	Terminate	
"Student19Mode1"	"Seema_Shokoufeh_Track2"	"Feb 14, 2017 09:56:58 AM"	Unknown	103.98541	01/14/0117 09:58.46	00006239	27.837	Inter752t1-2	0.533	1	2	252.545	24.444	-21.7	0.287	0.000	D	F	2574.8	250.755	0.185	-3.138	859.193	1490.480	0.311	-	-2.646	0.413	-	-	-	-	-	-	-	FREEWAY_SMOOTH	Urban	F	1011101000011101	0000000000000000	-	-	-	-	-	-	-	-	-	-	Terminate	
"Student19Mode1"	"Seema_Shokoufeh_Track2"	"Feb 14, 2017 09:56:58 AM"	Unknown	104.98544	01/14/0117 09:58.47	00006299	28.008	Inter752t1-2	0.287	1	2	245.598	24.444	-17.3	0.462	0.000	D	F	2329.7	244.415	0.091	-3.151	833.229	1480.215	0.303	-	-2.816	0.247	-	-	-	-	-	-	-	FREEWAY_SMOOTH	Urban	F	1011101000011101	0000000000000000	-	-	-	-	-	-	-	-	-	-	Terminate	
"Student19Mode1"	"Seema_Shokoufeh_Track2"	"Feb 14, 2017 09:56:58 AM"	Unknown	105.98545	01/14/0117 09:58.48	00006359	28.317	Inter752t1-2	0.532	1	2	238.584	24.444	-31.2	0.693	0.000	D	F	3055.7	237.982	0.135	-3.017	808.296	1467.203	0.316	-	-3.716	0.602	-	-	-	-	-	-	-	FREEWAY_SMOOTH	Urban	F	1011101000011101	0000000000000000	-	-	-	-	-	-	-	-	-	-	Terminate	
"Student19Mode1"	"Seema_Shokoufeh_Track2"	"Feb 14, 2017 09:56:58 AM"	Unknown	106.98547	01/14/0117 09:58.49	00006419	28.851	Inter752t1-2	0.766	1	2	231.451	24.444	-28.0	0.705	0.000	D	F	3154.7	230.573	0.116	-3.052	784.798	1450.955	0.330	-	-3.512	0.659	-	-	-	-	-	-	-	FREEWAY_SMOOTH	Urban	F	1011101000011101	0000000000000000	-	-	-	-	-	-	-	-	-	-	Terminate	
"Student19Mode1"	"Seema_Shokoufeh_Track2"	"Feb 14, 2017 09:56:58 AM"	Unknown	107.98550	01/14/0117 09:58.50	00006479	28.960	Inter752t1-2	0.902	1	2	224.288	24.444	-30.9	0.088	0.000	D	F	2090.9	222.379	0.009	-2.947	763.249	1431.528	0.344	-	-4.287	-0.501	-	-	-	-	-	-	-	FREEWAY_SMOOTH	Urban	F	1011101000011101	0000000000000000	-	-	-	-	-	-	-	-	-	-	Terminate	
"Student19Mode1"	"Seema_Shokoufeh_Track2"	"Feb 14, 2017 09:56:58 AM"	Unknown	108.98551	01/14/0117 09:58.51	00006539	28.099	Inter752t1-2	0.459	1	2	217.113	24.444	-27.8	0.000	0.006	D	F	1913.7	213.526	-0.099	-2.933	745.049	1409.554	0.319	-	-4.325	-0.746	-	-	-	-	-	-	-	FREEWAY_SMOOTH	Urban	F	1011101000011101	0000000000000000	-	-	-	-	-	-	-	-	-	-	Terminate	
"Student19Mode1"	"Seema_Shokoufeh_Track2"	"Feb 14, 2017 09:56:58 AM"	Unknown	109.98553	01/14/0117 09:58.52	00006599	26.253	Inter752t1-2	-0.587	1	2	210.352	24.444	-6.7	0.000	0.000	D	F	1789.8	207.297	-0.038	-3.246	730.971	1386.472	0.253	-	-2.174	-0.697	-	-	-	-	-	-	-	FREEWAY_SMOOTH	Urban	F	1011101000011101	0000000000000000	-	-	-	-	-	-	-	-	-	-	Terminate	
"Student19Mode1"	"Seema_Shokoufeh_Track2"	"Feb 14, 2017 09:56:58 AM"	Unknown	110.98555	01/14/0117 09:58.53	00006659	25.536	Inter752t1-2	-0.871	1	2	203.853	24.444	-16.8	0.000	0.000	D	F	1740.6	203.946	0.169	-3.216	719.481	1363.261	0.237	-	-2.171	-0.711	-	-	-	-	-	-	-	FREEWAY_SMOOTH	Urban	F	1011101000011101	0000000000000000	-	-	-	-	-	-	-	-	-	-	Terminate	
"Student19Mode1"	"Seema_Shokoufeh_Track2"	"Feb 14, 2017 09:56:58 AM"	Unknown	111.98557	01/14/0117 09:58.54	00006719	24.928	Inter752t1-2	-0.281	1	2	197.538	24.444	-17.0	0.101	0.000	D	F	1829.5	198.838	0.255	-3.202	710.082	1339.883	0.271	-	-2.196	-0.304	-	-	-	-	-	-	-	FREEWAY_SMOOTH	Urban	F	1011101000011101	0000000000000000	-	-	-	-	-	-	-	-	-	-	Terminate	
"Student19Mode1"	"Seema_Shokoufeh_Track2"	"Feb 14, 2017 09:56:58 AM"	Unknown	112.98560	01/14/0117 09:58.55	00006779	24.395	Inter752t1-2	0.656	1	2	191.969	24.444	-24.7	0.000	0.000	D	F	1661.8	193.118	0.089	-2.507	702.984	1316.232	0.277	-	-2.736	-0.755	-	-	-	-	-	-	-	FREEWAY_SMOOTH	Urban	F	1011101000011101	0000000000000000	-	-	-	-	-	-	-	-	-	-	Terminate	
"Student19Mode1"	"Seema_Shokoufeh_Track2"	"Feb 14, 2017 09:56:58 AM"	Unknown	113.98561	01/14/0117 09:58.56	00006839	23.132	Inter752t1-2	0.865	1	2	187.560	24.444	-25.0	0.000	0.021	D	F	1571.0	184.534	-0.128	-1.796	698.810	1292.732	0.238	-	-3.556	-1.186	-	-	-	-	-	-	-	FREEWAY_SMOOTH	Urban	F	1011101000011101	0000000000000000	-	-	-	-	-	-	-	-	-	-	Terminate	
"Student19Mode1"	"Seema_Shokoufeh_Track2"	"Feb 14, 2017 09:56:58 AM"	Unknown	114.98563	01/14/0117 09:58.57	00006899	22.416	Inter752t1-2	-0.156	1	2	184.285	24.444	6.8	0.000	0.000	D	F	1528.3	182.387	0.021	-1.742	697.540	1270.005	0.153	-	0.245	-0.684	-	-	-	-	-	-	-	FREEWAY_SMOOTH	Urban	F	1011101000011101	0000000000000000	-	-	-	-	-	-	-	-	-	-	Terminate	
"Student19Mode1"	"Seema_Shokoufeh_Track2"	"Feb 14, 2017 09:56:58 AM"	Unknown	115.98566	01/14/0117 09:58.58	00006959	21.724	Inter752t1-2	-0.216	1	2	181.986	24.444	-6.4	0.000	0.000	D	F	1480.9	183.275	0.106	-1.122	696.441	1247.963	0.113	-	-0.273	-0.687	-	-	-	-	-	-	-	FREEWAY_SMOOTH	Urban	F	1011101000011101	0000000000000000	-	-	-	-	-	-	-	-	-	-	Terminate	
"Student19Mode1"	"Seema_Shokoufeh_Track2"	"Feb 14, 2017 09:56:58 AM"	Unknown	116.98567	01/14/0117 09:58.59	00007019	21.409	Inter752t1-2	0.187	1	2	180.583	24.444	-8.1	0.148	0.000	D	F	1822.1	180.981	0.086	-0.523	695.594	1226.457	0.077	-	-0.769	0.107	-	-	-	-	-	-	-	FREEWAY_SMOOTH	Urban	F	1011101000011101	0000000000000000	-	-	-	-	-	-	-	-	-	-	Terminate	
"Student19Mode1"	"Seema_Shokoufeh_Track2"	"Feb 14, 2017 09:56:58 AM"	Unknown	117.98569	01/14/0117 09:59.00	00007079	21.032	Inter752t1-2	0.172	1	2	180.015	24.444	-3.8	0.011	0.000	D	F	1436.7	178.925	0.067	-0.001	695.528	1205.168	0.039	-	-0.654	-0.668	-	-	-	-	-	-	-	FREEWAY_SMOOTH	Urban	F	1011101000011101	0000000000000000	-	-	-	-	-	-	-	-	-	-	Terminate	
"Student19Mode1"	"Seema_Shokoufeh_Track2"	"Feb 14, 2017 09:56:58 AM"	Unknown	118.98571	01/14/0117 09:59.01	00007139	20.411	Inter754t3-2	0.471	1	2	180.000	11.111	3.4	0.000	0.000	D	F	1391.7	179.260	0.180	-0.050	695.922	1184.451	0.030	-	0.370	-0.610	-	-	-	Ambient322	7.656	156.274	15.111	PAVEMENT_GENERAL	Urban	F	1011101000011101	0000000000000000	-	-	-	-	-	-	-	-	-	-	Terminate	
"Student19Mode1"	"Seema_Shokoufeh_Track2"	"Feb 14, 2017 09:56:58 AM"	Unknown	119.98573	01/14/0117 09:59.02	00007199	19.247	Inter754t3-2	0.318	1	2	180.000	11.111	3.3	0.000	0.000	D	F	1313.0	179.954	0.203	-0.034	696.075	1164.513	0.032	-	0.260	-0.576	-	-	-	Ambient322	7.607	146.406	15.952	PAVEMENT_GENERAL	Urban	F	1011101000011101	0000000000000000	-	-	-	-	-	-	-	-	-	-	Terminate	
"Student19Mode1"	"Seema_Shokoufeh_Track2"	"Feb 14, 2017 09:56:58 AM"	Unknown	120.98576	01/14/0117 09:59.03	00007259	18.659	Inter754t3-2	0.439	1	2	180.000	11.111	3.8	0.000	0.000	D	F	1272.4	180.992	0.183	-0.046	695.954	1145.561	0.029	-	0.351	-0.583	-	-	-	Ambient322	7.371	137.526	16.010	PAVEMENT_GENERAL	Urban	F	1011101000011101	0000000000000000	-	-	-	-	-	-	-	-	-	-	Terminate	
"Student19Mode1"	"Seema_Shokoufeh_Track2"	"Feb 14, 2017 09:56:58 AM"	Unknown	121.98577	01/14/0117 09:59.04	00007319	18.527	Inter754t3-2	0.848	1	2	180.000	11.111	-5.9	0.048	0.000	D	F	1369.4	181.334	0.188	0.033	695.545	1127.030	0.027	-	-0.224	-0.185	-	-	-	Ambient322	6.966	129.065	15.260	PAVEMENT_GENERAL	Urban	F	1011101000011101	0000000000000000	-	-	-	-	-	-	-	-	-	-	Terminate	
"Student19Mode1"	"Seema_Shokoufeh_Track2"	"Feb 14, 2017 09:56:58 AM"	Unknown	122.98579	01/14/0117 09:59.05	00007379	17.973	Inter754t3-2	1.004	1	2	180.000	11.111	-6.0	0.000	0.000	D	F	1225.5	179.180	0.182	0.084	695.389	1108.769	0.029	-	-0.664	-0.574	-	-	-	Ambient338	0.678	12.181	1.653	PAVEMENT_GENERAL	Urban	F	1011101000011101	0000000000000000	-	-	-	-	-	-	-	-	-	-	Terminate	
"Student19Mode1"	"Seema_Shokoufeh_Track2"	"Feb 14, 2017 09:56:58 AM"	Unknown	123.98581	01/14/0117 09:59.06	00007439	17.481	Inter754t9-0	0.572	1	1	179.993	11.111	4.0	0.039	0.000	D	F	1293.0	178.158	0.187	-0.012	695.822	1091.069	0.028	-	0.077	-0.395	-	-	-	Ambient338	0.291	5.083	0.739	PAVEMENT_GENERAL	Urban	F	1011101000011101	0000000000000000	-	-	-	-	-	-	-	-	-	-	Terminate	
"Student19Mode1"	"Seema_Shokoufeh_Track2"	"Feb 14, 2017 09:56:58 AM"	Unknown	124.98583	01/14/0117 09:59.07	00007499	17.127	Inter754t9-0	0.187	1	1	179.989	11.111	5.5	0.046	0.000	D	F	1293.9	179.437	0.187	-0.051	696.209	1073.767	0.028	-	0.395	-0.358	-	-	-	Ambient338	-0.233	-3.998	-0.613	PAVEMENT_GENERAL	Urban	F	1011101000011101	0000000000000000	-	-	-	-	-	-	-	-	-	-	Terminate	
"Student19Mode1"	"Seema_Shokoufeh_Track2"	"Feb 14, 2017 09:56:58 AM"	Unknown	125.98586	01/14/0117 09:59.08	00007559	16.823	Inter754t9-0	0.205	1	1	179.990	11.111	1.0	0.067	0.000	D	F	1336.0	180.730	0.190	-0.017	696.194	1056.795	0.028	-	0.186	-0.269	-	-	-	Ambient322	5.888	99.062	14.667	PAVEMENT_GENERAL	Urban	F	1011101000011101	0000000000000000	-	-	-	-	-	-	-	-	-	-	Terminate	
"Student19Mode1"	"Seema_Shokoufeh_Track2"	"Feb 14, 2017 09:56:58 AM"	Unknown	126.98587	01/14/0117 09:59.09	00007619	16.869	Inter754t9-0	0.406	1	1	179.995	11.111	-2.6	0.185	0.000	D	F	1719.3	180.526	0.194	0.015	695.997	1040.017	0.024	-	-0.129	0.365	-	-	-	Ambient322	5.478	92.406	13.590	PAVEMENT_GENERAL	Urban	F	1011101000011101	0000000000000000	-	-	-	-	-	-	-	-	-	-	Terminate	
"Student19Mode1"	"Seema_Shokoufeh_Track2"	"Feb 14, 2017 09:56:58 AM"	Unknown	127.98589	01/14/0117 09:59.10	00007679	16.837	Inter754t9-0	0.502	1	1	179.996	11.111	-0.7	0.025	0.000	D	F	1211.1	180.181	0.184	0.005	695.901	1023.094	0.028	-	-0.040	-0.427	-	-	-	Ambient322	5.081	85.554	12.641	PAVEMENT_GENERAL	Urban	F	1011101000011101	0000000000000000	-	-	-	-	-	-	-	-	-	-	Terminate	
"Student19Mode1"	"Seema_Shokoufeh_Track2"	"Feb 14, 2017 09:56:58 AM"	Unknown	128.98592	01/14/0117 09:59.11	00007739	16.792	Inter754t1-1	0.545	1	1	180.000	11.111	-0.5	0.190	0.000	D	F	1721.1	180.110	0.199	0.002	695.859	1006.353	0.025	-	-0.021	0.296	-	-	-	Ambient322	4.698	78.884	11.734	PAVEMENT_GENERAL	Urban	F	1011101000011101	0000000000000000	-	-	-	-	-	-	-	-	-	-	Terminate	
"Student19Mode1"	"Seema_Shokoufeh_Track2"	"Feb 14, 2017 09:56:58 AM"	Unknown	129.98593	01/14/0117 09:59.12	00007799	16.912	Inter686t1-0	0.551	1	1	180.000	11.111	-0.3	0.088	0.000	D	F	1427.1	179.959	0.181	0.003	695.845	989.457	0.027	-	-0.033	-0.242	-	-	-	Ambient322	4.261	72.059	10.530	PAVEMENT_GENERAL	Urban	F	1011101000011101	0000000000000000	-	-	-	-	-	-	-	-	-	-	Terminate	
"Student19Mode1"	"Seema_Shokoufeh_Track2"	"Feb 14, 2017 09:56:58 AM"	Unknown	130.98595	01/14/0117 09:59.13	00007859	16.737	Inter686t1-0	0.526	1	1	180.000	11.111	-0.9	0.076	0.000	D	F	1376.1	179.831	0.191	0.006	695.870	972.628	0.027	-	-0.051	-0.189	-	-	-	Ambient322	3.902	65.301	9.793	PAVEMENT_GENERAL	Urban	F	1011101000011101	0000000000000000	-	-	-	-	-	-	-	-	-	-	Terminate	
"Student19Mode1"	"Seema_Shokoufeh_Track2"	"Feb 14, 2017 09:56:58 AM"	Unknown	131.98598	01/14/0117 09:59.14	00007919	16.299	Inter686t1-0	0.453	1	1	180.000	11.111	-0.5	0.000	0.000	D	F	1111.5	179.621	0.187	0.007	695.943	956.077	0.029	-	-0.058	-0.544	-	-	-	Ambient322	3.609	58.820	9.442	PAVEMENT_GENERAL	Urban	F	1011101000011101	0000000000000000	-	-	-	-	-	-	-	-	-	-	Terminate	
"Student19Mode1"	"Seema_Shokoufeh_Track2"	"Feb 14, 2017 09:56:58 AM"	Unknown	132.98599	01/14/0117 09:59.15	00007979	15.851	Inter686t1-0	0.355	1	1	180.000	11.111	2.1	0.078	0.000	D	F	1339.1	179.791	0.191	-0.013	696.041	940.035	0.027	-	0.111	-0.244	-	-	-	Ambient322	3.334	52.849	9.141	PAVEMENT_GENERAL	Urban	F	1011101000011101	0000000000000000	-	-	-	-	-	-	-	-	-	-	Terminate	
"Student19Mode1"	"Seema_Shokoufeh_Track2"	"Feb 14, 2017 09:56:58 AM"	Unknown	133.98601	01/14/0117 09:59.16	00008039	15.595	Inter686t1-0	0.350	1	1	180.000	11.111	1.7	0.101	0.000	D	F	1434.7	180.181	0.193	-0.012	696.046	924.329	0.027	-	0.090	-0.061	-	-	-	Ambient322	3.027	47.214	8.544	PAVEMENT_GENERAL	Urban	F	1011101000011101	0000000000000000	-	-	-	-	-	-	-	-	-	-	Terminate	
"Student19Mode1"	"Seema_Shokoufeh_Track2"	"Feb 14, 2017 09:56:58 AM"	Unknown	134.98604	01/14/0117 09:59.17	00008099	15.221	Inter686t1-0	0.439	1	1	180.000	11.111	0.4	0.000	0.000	D	F	1038.1	180.499	0.189	-0.008	695.957	908.867	0.029	-	0.060	-0.535	-	-	-	Ambient322	2.748	41.822	8.118	PAVEMENT_GENERAL	Urban	F	1011101000011101	0000000000000000	-	-	-	-	-	-	-	-	-	-	Terminate	
"Student19Mode1"	"Seema_Shokoufeh_Track2"	"Feb 14, 2017 09:56:58 AM"	Unknown	135.98605	01/14/0117 09:59.18	00008159	14.689	Inter686t1-0	0.510	1	1	180.000	11.111	-3.3	0.000	0.000	D	F	1001.9	179.768	0.190	0.033	695.886	893.912	0.029	-	-0.259	-0.528	-	-	-	Ambient322	2.515	36.939	7.995	PAVEMENT_GENERAL	Urban	F	1011101000011101	0000000000000000	-	-	-	-	-	-	-	-	-	-	Terminate	
"Student19Mode1"	"Seema_Shokoufeh_Track2"	"Feb 14, 2017 09:56:58 AM"	Unknown	136.98607	01/14/0117 09:59.19	00008219	13.353	Inter686t1-0	0.374	1	1	180.000	11.111	2.7	0.000	0.125	D	F	895.1	179.269	0.163	-0.011	696.022	879.715	0.032	-	0.050	-2.042	-	-	-	Ambient322	2.457	32.812	9.993	PAVEMENT_GENERAL	Urban	F	1011101000011101	0000000000000000	-	-	-	-	-	-	-	-	-	-	Terminate	
"Student19Mode1"	"Seema_Shokoufeh_Track2"	"Feb 14, 2017 09:56:58 AM"	Unknown	137.98610	01/14/0117 09:59.20	00008279	11.275	Inter686t1-0	0.292	1	1	180.000	11.111	3.3	0.000	0.000	D	F	1100.6	180.030	0.215	-0.022	696.104	867.452	0.032	-	0.179	-0.505	-	-	-	Ambient322	2.716	30.620	25.397	PAVEMENT_GENERAL	Urban	F	1011101000011101	0000000000000000	-	-	-	-	-	-	-	-	-	-	Terminate	
"Student19Mode1"	"Seema_Shokoufeh_Track2"	"Feb 14, 2017 09:56:58 AM"	Unknown	138.98611	01/14/0117 09:59.21	00008339	10.903	Inter686t1-0	0.351	1	1	180.000	11.111	2.3	0.136	0.000	D	F	1493.2	180.521	0.206	-0.010	696.045	856.418	0.026	-	0.079	0.184	-	-	-	Ambient322	2.720	29.657	35.554	PAVEMENT_GENERAL	Urban	F	1011101000011101	0000000000000000	-	-	-	-	-	-	-	-	-	-	Terminate	
"Student19Mode1"	"Seema_Shokoufeh_Track2"	"Feb 14, 2017 09:56:58 AM"	Unknown	139.98613	01/14/0117 09:59.22	00008399	11.023	Inter686t1-0	0.476	1	1	180.000	11.111	-0.9	0.000	0.000	D	F	1082.6	180.625	0.192	0.006	695.920	845.335	0.028	-	-0.035	-0.512	-	-	-	Ambient322	2.599	28.644	30.037	PAVEMENT_GENERAL	Urban	F	1011101000011101	0000000000000000	-	-	-	-	-	-	-	-	-	-	Terminate	
"Student19Mode1"	"Seema_Shokoufeh_Track2"	"Feb 14, 2017 09:56:58 AM"	Unknown	140.98616	01/14/0117 09:59.23	00008459	10.701	Inter686t1-0	0.574	1	1	180.000	11.111	-0.5	0.060	0.000	D	F	1262.2	180.446	0.196	0.002	695.822	834.523	0.027	-	-0.018	-0.105	-	-	-	Ambient322	2.608	27.903	44.186	PAVEMENT_GENERAL	Urban	F	1011101000011101	0000000000000000	-	-	-	-	-	-	-	-	-	-	Terminate	
"Student19Mode1"	"Seema_Shokoufeh_Track2"	"Feb 14, 2017 09:56:58 AM"	Unknown	141.98618	01/14/0117 09:59.24	00008519	10.816	Inter686t1-0	0.637	1	1	180.000	11.111	-3.7	0.132	0.000	D	F	1521.4	180.137	0.203	0.014	695.759	823.811	0.025	-	-0.119	0.362	-	-	-	Ambient322	2.520	27.262	36.479	PAVEMENT_GENERAL	Urban	F	1011101000011101	0000000000000000	-	-	-	-	-	-	-	-	-	-	Terminate	
"Student19Mode1"	"Seema_Shokoufeh_Track2"	"Feb 14, 2017 09:56:58 AM"	Unknown	142.98619	01/14/0117 09:59.25	00008579	11.116	Inter686t1-0	0.623	1	1	180.000	11.111	-0.5	0.139	0.000	D	F	1558.1	179.846	0.209	0.002	695.773	812.830	0.025	-	-0.019	0.391	-	-	-	Ambient322	2.371	26.352	25.170	PAVEMENT_GENERAL	Urban	F	1011101000011101	0000000000000000	-	-	-	-	-	-	-	-	-	-	Terminate	
"Student19Mode1"	"Seema_Shokoufeh_Track2"	"Feb 14, 2017 09:56:58 AM"	Unknown	143.98621	01/14/0117 09:59.26	00008639	11.488	Inter686t1-0	0.582	1	1	180.000	11.111	-0.6	0.138	0.000	D	F	1570.3	179.731	0.202	0.004	695.814	801.529	0.025	-	-0.027	0.365	-	-	-	Ambient322	1.981	22.759	16.045	PAVEMENT_GENERAL	Urban	F	1011101000011101	0000000000000000	-	-	-	-	-	-	-	-	-	-	Terminate	
"Student19Mode1"	"Seema_Shokoufeh_Track2"	"Feb 14, 2017 09:56:58 AM"	Unknown	144.98624	01/14/0117 09:59.27	00008699	11.837	Inter682t1-1	0.546	1	1	180.000	11.111	2.0	0.134	0.000	D	F	1570.8	179.906	0.201	-0.010	695.858	789.864	0.025	-	0.072	0.321	-	-	-	Ambient322	1.988	23.527	13.308	PAVEMENT_GENERAL	Urban	F	1011101000011101	0000000000000000	-	-	-	-	-	-	-	-	-	-	Terminate	
"Student19Mode1"	"Seema_Shokoufeh_Track2"	"Feb 14, 2017 09:56:58 AM"	Unknown	145.98625	01/14/0117 09:59.28	00008759	12.035	Inter682t1-1	0.573	1	1	180.000	11.111	1.1	0.097	0.000	D	F	1469.3	180.340	0.198	-0.008	695.831	777.908	0.026	-	0.064	0.089	-	-	-	Ambient322	1.798	21.643	11.012	PAVEMENT_GENERAL	Urban	F	1011101000011101	0000000000000000	-	-	-	-	-	-	-	-	-	-	Terminate	
"Student19Mode1"	"Seema_Shokoufeh_Track2"	"Feb 14, 2017 09:56:58 AM"	Unknown	146.98627	01/14/0117 09:59.29	00008819	12.061	Inter682t1-1	0.640	1	1	180.000	11.111	-0.6	0.034	0.000	D	F	1264.5	180.256	0.194	0.003	695.764	765.849	0.026	-	-0.025	-0.185	-	-	-	Ambient322	1.630	19.654	9.868	PAVEMENT_GENERAL	Urban	F	1011101000011101	0000000000000000	-	-	-	-	-	-	-	-	-	-	Terminate	
"Student19Mode1"	"Seema_Shokoufeh_Track2"	"Feb 14, 2017 09:56:58 AM"	Unknown	147.98630	01/14/0117 09:59.30	00008879	11.554	Inter682t1-1	0.682	1	1	180.000	11.111	-0.2	0.000	0.000	D	F	1135.2	180.168	0.193	0.001	695.722	754.033	0.029	-	-0.011	-0.522	-	-	-	Ambient322	1.550	17.909	12.058	PAVEMENT_GENERAL	Urban	F	1111101000011101	0000000000000000	-	-	-	-	-	-	-	-	-	-	Terminate	
"Student19Mode1"	"Seema_Shokoufeh_Track2"	"Feb 14, 2017 09:56:58 AM"	Unknown	148.98631	01/14/0117 09:59.31	00008939	11.037	Inter682t1-1	0.712	1	1	180.000	11.111	-0.4	0.000	0.000	D	F	1084.4	180.140	0.194	0.002	695.692	742.738	0.029	-	-0.013	-0.514	-	-	-	Ambient322	1.512	16.685	17.243	PAVEMENT_GENERAL	Urban	F	1011101000011101	0000000000000000	-	-	-	-	-	-	-	-	-	-	Terminate	
"Student19Mode1"	"Seema_Shokoufeh_Track2"	"Feb 14, 2017 09:56:58 AM"	Unknown	149.98633	01/14/0117 09:59.32	00008999	10.526	Inter682t1-1	0.729	1	1	180.000	11.111	-0.7	0.000	0.000	D	F	1034.2	180.045	0.194	0.003	695.675	731.957	0.029	-	-0.022	-0.507	-	-	-	Ambient322	1.518	15.974	34.937	PAVEMENT_GENERAL	Urban	F	1011101000011101	0000000000000000	-	-	-	-	-	-	-	-	-	-	Terminate	
"Student19Mode1"	"Seema_Shokoufeh_Track2"	"Feb 14, 2017 09:56:58 AM"	Unknown	150.98636	01/14/0117 09:59.33	00009059	10.023	Inter682t1-1	0.680	1	1	180.000	11.111	0.0	0.000	0.000	D	F	984.9	179.364	0.195	0.001	695.723	721.683	0.029	-	-0.026	-0.500	-	-	-	Ambient322	1.574	15.771	-	PAVEMENT_GENERAL	Urban	F	1011101000011101	0000000000000000	-	-	-	-	-	-	-	-	-	-	Terminate	
"Student19Mode1"	"Seema_Shokoufeh_Track2"	"Feb 14, 2017 09:56:58 AM"	Unknown	151.98637	01/14/0117 09:59.34	00009119	9.526	Inter682t1-1	0.593	1	1	180.000	11.111	2.3	0.000	0.000	D	F	936.2	179.644	0.195	-0.010	695.811	711.909	0.029	-	0.070	-0.493	-	-	-	Ambient322	1.687	16.068	-	PAVEMENT_GENERAL	Urban	F	1011101000011101	0000000000000000	-	-	-	-	-	-	-	-	-	-	Terminate	
"Student19Mode1"	"Seema_Shokoufeh_Track2"	"Feb 14, 2017 09:56:58 AM"	Unknown	152.98639	01/14/0117 09:59.35	00009179	9.036	Inter682t1-1	0.589	1	1	180.000	11.111	2.1	0.000	0.000	D	F	888.0	180.246	0.196	-0.006	695.815	702.628	0.029	-	0.062	-0.487	-	-	-	Ambient322	1.866	16.858	-	PAVEMENT_GENERAL	Urban	F	1011101000011101	0000000000000000	-	-	-	-	-	-	-	-	-	-	Terminate	
"Student19Mode1"	"Seema_Shokoufeh_Track2"	"Feb 14, 2017 09:56:58 AM"	Unknown	153.98642	01/14/0117 09:59.36	00009239	8.553	Inter682t1-1	0.651	1	1	180.000	11.111	1.4	0.000	0.000	D	F	840.6	180.504	0.196	-0.005	695.753	693.834	0.029	-	0.037	-0.481	-	-	-	Ambient322	2.120	18.135	-	PAVEMENT_GENERAL	Urban	F	1011101000011101	0000000000000000	-	-	-	-	-	-	-	-	-	-	Terminate	
"Student19Mode1"	"Seema_Shokoufeh_Track2"	"Feb 14, 2017 09:56:58 AM"	Unknown	154.98643	01/14/0117 09:59.37	00009299	8.075	Inter682t1-1	0.746	1	1	180.000	11.111	0.7	0.000	0.000	D	F	793.6	180.731	0.197	-0.002	695.658	685.521	0.028	-	0.016	-0.475	-	-	-	Ambient322	2.464	19.893	-	PAVEMENT_GENERAL	Urban	F	1011101000011101	0000000000000000	-	-	-	-	-	-	-	-	-	-	Terminate	
"Student19Mode1"	"Seema_Shokoufeh_Track2"	"Feb 14, 2017 09:56:58 AM"	Unknown	155.98645	01/14/0117 09:59.38	00009359	7.604	Inter682t1-1	0.848	1	1	180.000	11.111	-4.2	0.000	0.000	D	F	747.3	180.692	0.197	0.017	695.555	677.683	0.028	-	-0.093	-0.469	-	-	-	Ambient322	2.910	22.126	-	PAVEMENT_GENERAL	Urban	F	1011101000011101	0000000000000000	-	-	-	-	-	-	-	-	-	-	Terminate	
"Student19Mode1"	"Seema_Shokoufeh_Track2"	"Feb 14, 2017 09:56:58 AM"	Unknown	156.98647	01/14/0117 09:59.39	00009419	7.136	Inter682t1-1	0.898	1	1	180.000	11.111	-2.3	0.000	0.000	D	F	701.3	180.236	0.197	0.007	695.506	670.314	0.028	-	-0.041	-0.467	-	-	-	Ambient322	3.479	24.827	-	PAVEMENT_GENERAL	Urban	F	1011101000011101	0000000000000000	-	-	-	-	-	-	-	-	-	-	Terminate	
"Student19Mode1"	"Seema_Shokoufeh_Track2"	"Feb 14, 2017 09:56:58 AM"	Unknown	157.98650	01/14/0117 09:59.40	00009479	6.670	Inter682t1-1	0.902	1	1	180.000	11.111	0.3	0.000	0.000	D	F	655.5	179.943	0.198	-0.002	695.502	663.411	0.028	-	0.017	-0.465	-	-	-	Ambient322	4.197	27.996	-	PAVEMENT_GENERAL	Urban	F	1011101000011101	0000000000000000	-	-	-	-	-	-	-	-	-	-	Terminate	
"Student19Mode1"	"Seema_Shokoufeh_Track2"	"Feb 14, 2017 09:56:58 AM"	Unknown	158.98651	01/14/0117 09:59.41	00009539	6.206	Inter682t1-1	0.912	1	1	180.000	11.111	2.3	0.000	0.000	D	F	609.9	180.187	0.198	-0.004	695.492	656.974	0.028	-	0.030	-0.463	-	-	-	Ambient322	5.097	31.629	-	PAVEMENT_GENERAL	Urban	F	1011101000011101	0000000000000000	-	-	-	-	-	-	-	-	-	-	Terminate	
"Student19Mode1"	"Seema_Shokoufeh_Track2"	"Feb 14, 2017 09:56:58 AM"	Unknown	159.98653	01/14/0117 09:59.42	00009599	5.743	Inter682t1-1	0.951	1	1	180.000	11.111	2.2	0.000	0.000	D	F	564.5	180.447	0.198	-0.003	695.453	650.999	0.028	-	0.026	-0.461	-	-	-	Ambient322	6.220	35.725	-	PAVEMENT_GENERAL	Urban	F	1011101000011101	0000000000000000	-	-	-	-	-	-	-	-	-	-	Terminate	
"Student19Mode1"	"Seema_Shokoufeh_Track2"	"Feb 14, 2017 09:56:58 AM"	Unknown	160.98656	01/14/0117 09:59.43	00009659	5.283	Inter682t1-1	1.016	1	1	180.000	11.111	3.8	0.000	0.000	D	F	519.2	180.796	0.198	-0.005	695.388	645.487	0.028	-	0.036	-0.460	-	-	-	Ambient322	7.625	40.283	-	PAVEMENT_GENERAL	Urban	F	1011101000011101	0000000000000000	-	-	-	-	-	-	-	-	-	-	Terminate	
"Student19Mode1"	"Seema_Shokoufeh_Track2"	"Feb 14, 2017 09:56:58 AM"	Unknown	161.98657	01/14/0117 09:59.44	00009719	6.370	Inter682t1-1	1.121	1	1	180.000	11.111	-1.0	0.155	0.000	D	F	1577.1	181.150	0.209	0.006	695.282	639.885	0.018	-	-0.029	1.445	-	-	-	Ambient322	7.026	44.752	-	PAVEMENT_GENERAL	Urban	F	1011101000011101	0000000000000000	-	-	-	-	-	-	-	-	-	-	Terminate	
"Student19Mode1"	"Seema_Shokoufeh_Track2"	"Feb 14, 2017 09:56:58 AM"	Unknown	162.98659	01/14/0117 09:59.45	00009779	7.054	Inter682t1-1	1.224	1	1	180.000	11.111	-4.6	0.071	0.000	D	F	1316.0	180.667	0.202	0.008	695.179	633.096	0.024	-	-0.072	0.216	-	-	-	Ambient322	6.575	46.381	-	PAVEMENT_GENERAL	Urban	F	1011101000011101	0000000000000000	-	-	-	-	-	-	-	-	-	-	Terminate	
"Student19Mode1"	"Seema_Shokoufeh_Track2"	"Feb 14, 2017 09:56:58 AM"	Unknown	163.98662	01/14/0117 09:59.46	00009839	7.292	Inter682t1-1	1.217	1	1	180.000	11.111	-15.5	0.062	0.000	D	F	1304.3	179.355	0.202	0.034	695.187	625.908	0.025	-	-0.271	0.137	-	-	-	Ambient322	6.481	47.257	-	PAVEMENT_GENERAL	Urban	F	1011101000011101	0000000000000000	-	-	-	-	-	-	-	-	-	-	Terminate	
"Student19Mode1"	"Seema_Shokoufeh_Track2"	"Feb 14, 2017 09:56:58 AM"	Unknown	164.98663	01/14/0117 09:59.47	00009899	7.382	Inter682t1-1	1.051	1	1	180.000	11.111	-1.0	0.092	0.000	D	F	1451.7	178.743	0.216	0.003	695.352	618.568	0.026	-	-0.025	0.373	-	-	-	Ambient322	6.636	48.990	-	PAVEMENT_GENERAL	Urban	F	1011101000011101	0000000000000000	-	-	-	-	-	-	-	-	-	-	Terminate	
