ZoneName	Time	SystemTime	Frame	Velocity	LaneName	LanePos	LaneIndex	LaneCount	LaneHeading	SpeedLimit	Steer	Accel	Brake	Gear	Horn	SubjectEngineRPM	SubjectHeading	SubjectPitch	SubjectRoll	SubjectX	SubjectY	SubjectZ	Signal	LatAccel	LongAccel	Collision	CollisionAngle	CollisionVelocity	VehAhead	HeadwayTime	HeadwayDist	TTC	TerrainType	CultureType	Slip	DigitalInputs	DigitalInputs2	ActiveTrigger	EntityName	DistToEntity	TimeToEntity	EntityVelocity	EntityAccel	EntityHeading	EntityX	EntityY	EntityZ	GrabData	
Unknown	0.98335	10/28/0116 05:03.33	00000059	0.002	Inter625t13-0	-0.088	1	2	0.000	11.111	3.0	0.000	0.000	D	F	0.0	0.001	0.153	-0.001	1503.500	523.206	0.019	-	-0.000	0.000	-	-	-	-	-	-	-	PAVEMENT_GENERAL	Urban	F	1011101000001001	0000000000000000	-	car	928.855	774733.312	0.000	0.000	180.000	696.000	987.000	-0.000	Terminate	
Unknown	1.98337	10/28/0116 05:03.34	00000119	0.000	Inter625t13-0	-0.088	1	2	0.000	11.111	3.0	0.000	0.000	D	F	0.0	0.001	0.197	-0.000	1503.500	523.208	0.026	-	0.000	-0.001	-	-	-	-	-	-	-	PAVEMENT_GENERAL	Urban	F	1011101000001001	0000000000000000	-	car	928.855	4213671.000	0.000	0.000	180.000	696.000	987.000	-0.000	Terminate	
Unknown	2.98339	10/28/0116 05:03.35	00000179	-0.000	Inter625t13-0	-0.088	1	2	0.000	11.111	3.0	0.000	0.000	D	F	0.0	0.000	0.207	-0.000	1503.500	523.208	0.028	-	0.000	-0.000	-	-	-	-	-	-	-	PAVEMENT_GENERAL	Urban	F	1011101000001001	0000000000000000	-	car	928.854	-116037312.000	0.000	0.000	180.000	696.000	987.000	-0.000	Terminate	
Unknown	3.98341	10/28/0116 05:03.36	00000239	0.000	Inter625t13-0	-0.088	1	2	0.000	11.111	3.0	0.000	0.000	D	F	294.4	0.000	0.209	-0.000	1503.500	523.208	0.028	-	0.000	0.000	-	-	-	-	-	-	-	PAVEMENT_GENERAL	Urban	F	1011101000001011	0000000000000000	-	car	928.854	6695689.500	0.000	0.000	180.000	696.000	987.000	-0.000	Terminate	
Unknown	4.98343	10/28/0116 05:03.37	00000299	0.012	Inter625t13-0	-0.088	1	2	0.000	11.111	3.0	0.000	0.000	D	F	477.5	0.001	0.203	0.000	1503.500	523.212	0.026	-	0.000	0.020	-	-	-	-	-	-	-	PAVEMENT_GENERAL	Urban	F	1011101000001001	0000000000000000	-	car	928.853	159082.344	0.000	0.000	180.000	696.000	987.000	-0.000	Terminate	
Unknown	5.98345	10/28/0116 05:03.38	00000359	0.116	Inter625t13-0	-0.088	1	2	0.000	11.111	3.0	0.000	0.000	D	F	477.5	0.004	0.206	-0.000	1503.500	523.259	0.025	-	0.000	0.197	-	-	-	-	-	-	-	PAVEMENT_GENERAL	Urban	F	1011101000001001	0000000000000000	-	car	928.829	16082.047	0.000	0.000	180.000	696.000	987.000	-0.000	Terminate	
Unknown	6.98347	10/28/0116 05:03.39	00000419	0.321	Inter625t13-0	-0.088	1	2	0.000	11.111	3.0	0.000	0.000	D	F	477.5	0.019	0.205	-0.000	1503.500	523.480	0.025	-	0.000	0.174	-	-	-	-	-	-	-	PAVEMENT_GENERAL	Urban	F	1011101000001001	0000000000000000	-	car	928.719	5822.156	0.000	0.000	180.000	696.000	987.000	-0.000	Terminate	
Unknown	7.98349	10/28/0116 05:03.40	00000479	0.443	Inter625t13-0	-0.087	1	2	0.000	11.111	3.0	0.000	0.000	D	F	477.5	0.044	0.204	-0.000	1503.501	523.870	0.026	-	0.000	0.082	-	-	-	-	-	-	-	PAVEMENT_GENERAL	Urban	F	1011101000001001	0000000000000000	-	car	928.526	4216.241	0.000	0.000	180.000	696.000	987.000	-0.000	Terminate	
Unknown	8.98351	10/28/0116 05:03.41	00000539	0.497	Inter625t13-0	-0.084	1	2	0.000	11.111	12.6	0.000	0.000	D	F	477.5	0.099	0.204	-0.001	1503.504	524.344	0.026	-	-0.002	0.034	-	-	-	-	-	-	-	PAVEMENT_GENERAL	Urban	F	1011101000001001	0000000000000000	-	car	928.292	3770.403	0.000	0.000	180.000	696.000	987.000	-0.000	Terminate	
Unknown	9.98353	10/28/0116 05:03.42	00000599	0.525	Inter625t13-0	-0.080	1	2	0.000	11.111	5.2	0.018	0.000	D	F	486.7	0.198	0.204	0.001	1503.508	524.855	0.026	-	-0.003	0.026	-	-	-	-	-	-	-	PAVEMENT_GENERAL	Urban	F	1011101000001001	0000000000000000	-	car	928.042	3583.850	0.000	0.000	180.000	696.000	987.000	-0.000	Terminate	
Unknown	10.98355	10/28/0116 05:03.43	00000659	3.652	Inter625t13-0	-0.066	1	2	0.000	11.111	6.1	0.337	0.000	D	F	1845.1	0.408	0.203	-0.005	1503.522	526.529	0.007	-	0.037	4.000	-	-	-	-	-	-	-	PAVEMENT_GENERAL	Urban	F	1011101000001001	0000000000000000	-	car	927.224	519.064	0.000	0.000	180.000	696.000	987.000	-0.000	Terminate	
Unknown	11.98357	10/28/0116 05:03.44	00000719	6.852	Inter625t13-0	-0.024	1	2	0.000	11.111	-4.9	0.309	0.000	D	F	2293.7	0.299	0.224	0.007	1503.564	531.891	0.013	-	-0.072	2.655	-	-	-	-	-	-	-	PAVEMENT_GENERAL	Urban	F	1011101000001001	0000000000000000	-	car	924.617	277.437	0.000	0.000	180.000	696.000	987.000	-0.000	Terminate	
Unknown	12.98359	10/28/0116 05:03.45	00000779	9.212	Inter625t49-0	-0.037	1	1	0.006	11.111	3.0	0.287	0.000	D	F	2129.8	359.831	0.199	-0.011	1503.552	539.983	0.016	-	0.066	1.743	-	-	-	-	-	-	-	PAVEMENT_GENERAL	Urban	F	1011101000001001	0000000000000000	-	car	920.659	205.275	0.000	0.000	180.000	696.000	987.000	-0.000	Terminate	
Unknown	13.98361	10/28/0116 05:03.46	00000839	10.754	Inter625t49-0	-0.011	1	1	0.008	11.111	-3.4	0.312	0.000	D	F	2127.3	0.304	0.214	0.012	1503.579	549.994	0.019	-	-0.071	1.479	-	-	-	-	-	-	-	PAVEMENT_GENERAL	Urban	F	1011101000001001	0000000000000000	-	car	915.877	180.733	0.000	0.000	180.000	696.000	987.000	-0.000	Terminate	
Unknown	14.98363	10/28/0116 05:03.47	00000899	12.147	Inter625t49-0	-0.025	1	1	0.006	11.111	-1.4	0.317	0.000	D	F	2245.1	359.736	0.211	0.006	1503.566	561.457	0.020	-	-0.052	1.328	-	-	-	-	-	-	-	PAVEMENT_GENERAL	Urban	F	1011101000001001	0000000000000000	-	car	910.466	159.384	0.000	0.000	180.000	696.000	987.000	-0.000	Terminate	
Unknown	15.98365	10/28/0116 05:03.48	00000959	13.356	Inter625t49-0	-0.116	1	1	0.005	11.111	-1.4	0.291	0.000	D	F	2369.6	359.429	0.208	0.010	1503.476	574.222	0.021	-	-0.074	1.171	-	-	-	-	-	-	-	PAVEMENT_GENERAL	Urban	F	1011101000001001	0000000000000000	-	car	904.505	145.949	0.000	0.000	180.000	696.000	987.000	-0.000	Terminate	
Unknown	16.98367	10/28/0116 05:03.49	00001019	14.472	Inter625t15-0	-0.282	1	2	0.000	11.111	-0.9	0.280	0.000	D	F	2500.5	359.208	0.206	0.007	1503.312	588.142	0.021	-	-0.049	1.080	-	-	-	-	-	-	-	PAVEMENT_GENERAL	Urban	F	1011101000001001	0000000000000000	-	car	898.107	136.307	0.000	0.000	180.000	696.000	987.000	-0.000	Terminate	
Unknown	17.98369	10/28/0116 05:03.50	00001079	15.548	Inter614t1-0	-0.502	1	2	0.000	11.111	1.4	0.287	0.000	D	F	2661.0	359.167	0.205	-0.006	1503.091	603.150	0.022	-	0.048	1.075	-	-	-	-	-	-	-	PAVEMENT_GENERAL	Urban	F	1111101000001001	0000000000000000	-	car	891.361	129.535	0.000	0.000	180.000	696.000	987.000	-0.000	Terminate	
Unknown	18.98371	10/28/0116 05:03.51	00001139	16.593	Inter614t1-0	-0.682	1	2	0.000	11.111	1.6	0.270	0.000	D	F	2792.1	359.649	0.201	-0.018	1502.911	619.228	0.022	-	0.136	0.964	-	-	-	-	-	-	-	PAVEMENT_GENERAL	Urban	F	1011101000001001	0000000000000000	-	car	884.411	126.812	0.000	0.000	180.000	696.000	987.000	-0.000	Terminate	
Unknown	19.98373	10/28/0116 05:03.52	00001199	17.335	Inter614t1-0	-0.769	1	2	0.000	11.111	-1.2	0.279	0.000	D	F	2122.3	359.668	0.197	0.011	1502.824	636.235	0.024	-	-0.073	0.608	-	-	-	-	-	-	-	PAVEMENT_GENERAL	Urban	F	1011101000001001	0000000000000000	-	car	877.414	125.288	0.000	0.000	180.000	696.000	987.000	-0.000	Terminate	
Unknown	20.98375	10/28/0116 05:03.53	00001259	17.981	Inter614t1-0	-0.844	1	2	0.000	11.111	0.5	0.316	0.000	D	F	2193.3	0.000	0.197	-0.012	1502.749	653.884	0.023	-	0.091	0.682	-	-	-	-	-	-	-	PAVEMENT_GENERAL	Urban	F	1011101000001001	0000000000000000	-	car	870.458	126.674	0.000	0.000	180.000	696.000	987.000	-0.000	Terminate	
Unknown	21.98377	10/28/0116 05:03.54	00001319	18.682	Inter614t1-0	-0.838	1	2	0.000	11.111	1.5	0.332	0.000	D	F	2252.8	0.180	0.197	-0.012	1502.755	672.215	0.023	-	0.106	0.705	-	-	-	-	-	-	-	PAVEMENT_GENERAL	Urban	F	1011101000001001	0000000000000000	-	car	863.634	128.207	0.000	0.000	180.000	696.000	987.000	-0.000	Terminate	
Unknown	22.98379	10/28/0116 05:03.55	00001379	19.369	Inter614t1-0	-0.726	1	2	0.000	11.111	0.9	0.328	0.000	D	F	2286.3	0.534	0.195	-0.010	1502.868	691.244	0.024	-	0.082	0.660	-	-	-	-	-	-	-	PAVEMENT_GENERAL	Urban	F	1011101000001001	0000000000000000	-	car	857.005	131.924	0.000	0.000	180.000	696.000	987.000	-0.000	Terminate	
Unknown	23.98381	10/28/0116 05:03.56	00001439	20.014	Inter614t1-0	-0.561	1	2	0.000	11.111	-2.6	0.335	0.000	D	F	2345.0	0.277	0.193	0.018	1503.032	710.937	0.024	-	-0.166	0.649	-	-	-	-	-	-	-	PAVEMENT_GENERAL	Urban	F	1011101000001001	0000000000000000	-	car	850.583	133.194	0.000	0.000	180.000	696.000	987.000	-0.000	Terminate	
Unknown	24.98383	10/28/0116 05:03.57	00001499	20.658	Inter614t1-0	-0.487	1	2	0.000	11.111	2.3	0.335	0.000	D	F	2396.6	0.350	0.193	-0.026	1503.107	731.274	0.024	-	0.184	0.638	-	-	-	-	-	-	-	PAVEMENT_GENERAL	Urban	F	1011101000001001	0000000000000000	-	car	844.291	137.975	0.000	0.000	180.000	696.000	987.000	-0.000	Terminate	
Unknown	25.98385	10/28/0116 05:03.58	00001559	21.289	Inter614t1-0	-0.323	1	2	0.000	11.111	-1.2	0.337	0.000	D	F	2447.7	0.516	0.191	0.005	1503.270	752.248	0.024	-	-0.027	0.625	-	-	-	-	-	-	-	PAVEMENT_GENERAL	Urban	F	1111101000001001	0000000000000000	-	car	838.350	145.541	0.000	0.000	180.000	696.000	987.000	-0.000	Terminate	
Unknown	26.98387	10/28/0116 05:03.59	00001619	21.908	Inter614t1-0	-0.149	1	2	0.000	11.111	1.1	0.321	0.000	D	F	2486.9	0.502	0.190	-0.010	1503.444	773.847	0.024	-	0.074	0.610	-	-	-	-	-	-	-	PAVEMENT_GENERAL	Urban	F	1011101000001001	0000000000000000	-	car	832.746	154.038	0.000	0.000	180.000	696.000	987.000	-0.000	Terminate	
Unknown	27.98389	10/28/0116 05:04.00	00001679	21.704	Inter614t1-0	-0.013	1	2	0.000	11.111	-3.5	0.058	0.000	D	F	1604.3	359.844	0.180	0.051	1503.581	795.750	0.029	-	-0.391	-0.429	-	-	-	-	-	-	-	PAVEMENT_GENERAL	Urban	F	1011101000001001	0000000000000000	-	car	827.558	163.585	0.000	0.000	180.000	696.000	987.000	-0.000	Terminate	
Unknown	28.98391	10/28/0116 05:04.01	00001739	21.163	Inter612t1-0	-0.149	1	2	0.000	11.111	-1.7	0.000	0.000	D	F	1443.5	359.324	0.178	0.023	1503.444	817.208	0.030	-	-0.172	-0.622	-	-	-	-	-	-	-	PAVEMENT_GENERAL	Urban	F	1011101000001001	0000000000000000	-	car	822.744	178.888	0.000	0.000	180.000	696.000	987.000	-0.000	Terminate	
Unknown	29.98393	10/28/0116 05:04.02	00001799	20.558	Inter612t1-0	-0.460	1	2	0.000	11.111	3.3	0.007	0.000	D	F	1402.7	358.952	0.180	-0.016	1503.133	838.065	0.030	-	0.067	-0.597	-	-	-	-	-	-	-	PAVEMENT_GENERAL	Urban	F	1011101000001001	0000000000000000	-	car	818.400	199.621	0.000	0.000	180.000	696.000	987.000	-0.000	Terminate	
Unknown	30.98395	10/28/0116 05:04.03	00001859	20.097	Inter612t1-0	-0.681	1	2	0.000	11.111	2.1	0.056	0.000	D	F	1484.0	0.000	0.182	-0.039	1502.912	858.376	0.028	-	0.287	-0.387	-	-	-	-	-	-	-	PAVEMENT_GENERAL	Urban	F	1011101000001001	0000000000000000	-	car	814.740	256.476	0.000	0.000	180.000	696.000	987.000	-0.000	Terminate	
Unknown	31.98397	10/28/0116 05:04.04	00001919	19.732	Inter612t1-0	-0.671	1	2	0.000	11.111	-0.8	0.058	0.000	D	F	1469.3	0.103	0.184	0.001	1502.922	878.289	0.028	-	-0.016	-0.352	-	-	-	-	-	-	-	PAVEMENT_GENERAL	Urban	F	1011101000001001	0000000000000000	-	car	811.853	312.300	0.000	0.000	180.000	696.000	987.000	-0.000	Terminate	
Unknown	32.98399	10/28/0116 05:04.05	00001979	19.390	Inter612t1-0	-0.654	1	2	0.000	11.111	-0.1	0.060	0.000	D	F	1459.0	0.000	0.185	0.002	1502.939	897.848	0.028	-	-0.023	-0.337	-	-	-	-	-	-	-	PAVEMENT_GENERAL	Urban	F	1011101000001001	0000000000000000	-	car	809.490	379.321	0.000	0.000	180.000	696.000	987.000	-0.000	Terminate	
Unknown	33.98401	10/28/0116 05:04.06	00002039	19.051	Inter612t1-0	-0.657	1	2	0.000	11.111	0.4	0.060	0.000	D	F	1435.0	0.065	0.186	-0.007	1502.936	917.069	0.028	-	0.057	-0.338	-	-	-	-	-	-	-	PAVEMENT_GENERAL	Urban	F	1011101000001001	0000000000000000	-	car	807.601	497.555	0.000	0.000	180.000	696.000	987.000	-0.000	Terminate	
Unknown	34.98403	10/28/0116 05:04.07	00002099	18.718	Inter612t1-0	-0.620	1	2	0.000	11.111	0.3	0.060	0.000	D	F	1412.8	0.175	0.186	-0.002	1502.973	935.953	0.028	-	0.023	-0.331	-	-	-	-	-	-	-	PAVEMENT_GENERAL	Urban	F	1011101000001001	0000000000000000	-	car	806.227	716.847	0.000	0.000	180.000	696.000	987.000	-0.000	Terminate	
Unknown	35.98405	10/28/0116 05:04.08	00002159	18.400	Inter612t1-0	-0.548	1	2	0.000	11.111	0.8	0.058	0.000	D	F	1396.0	0.322	0.187	-0.008	1503.045	954.510	0.028	-	0.058	-0.317	-	-	-	-	-	-	-	PAVEMENT_GENERAL	Urban	F	1011101000001001	0000000000000000	-	car	805.340	1264.846	0.000	0.000	180.000	696.000	987.000	-0.000	Terminate	
Unknown	36.98407	10/28/0116 05:04.09	00002219	18.088	Inter612t1-0	-0.415	1	2	0.000	11.111	-0.5	0.049	0.000	D	F	1362.9	0.535	0.187	-0.002	1503.178	972.753	0.028	-	0.018	-0.315	-	-	-	-	-	-	-	PAVEMENT_GENERAL	Urban	F	1011101000001001	0000000000000000	-	car	804.944	5349.452	0.000	0.000	180.000	696.000	987.000	-0.000	Terminate	
Unknown	37.98409	10/28/0116 05:04.10	00002279	17.598	Inter612t1-0	-0.337	1	2	0.000	11.111	-3.6	0.053	0.000	D	F	1329.2	359.738	0.190	0.038	1503.256	990.592	0.029	-	-0.290	-0.351	-	-	-	-	-	-	-	PAVEMENT_GENERAL	Urban	F	1011101000001001	0000000000000000	-	car	804.904	390596.438	0.000	0.000	180.000	696.000	987.000	-0.000	Terminate	
Unknown	38.98411	10/28/0116 05:04.11	00002339	17.518	Inter613t1-0	-0.497	1	2	0.000	11.111	-0.9	0.145	0.000	D	F	1614.6	359.291	0.192	0.006	1503.096	1008.106	0.026	-	-0.048	0.066	-	-	-	-	-	-	-	PAVEMENT_GENERAL	Urban	F	1011101000001001	0000000000000000	-	car	805.012	-3336.677	0.000	0.000	180.000	696.000	987.000	-0.000	Terminate	
Unknown	39.98413	10/28/0116 05:04.12	00002399	17.242	Inter613t1-0	-0.732	1	2	0.000	11.111	1.3	0.074	0.000	D	F	1388.0	359.181	0.188	-0.009	1502.861	1025.495	0.027	-	0.037	-0.222	-	-	-	-	-	-	-	PAVEMENT_GENERAL	Urban	F	1011101000001001	0000000000000000	-	car	805.419	-1399.752	0.000	0.000	180.000	696.000	987.000	-0.000	Terminate	
Unknown	40.98415	10/28/0116 05:04.13	00002459	16.882	Inter613t1-0	-0.957	1	2	0.000	11.111	-0.1	0.018	0.000	D	F	1156.3	359.290	0.186	0.000	1502.637	1042.579	0.029	-	0.005	-0.475	-	-	-	-	-	-	-	PAVEMENT_GENERAL	Urban	F	1111101000001001	0000000000000000	-	car	806.190	-847.184	0.000	0.000	180.000	696.000	987.000	-0.000	Terminate	
Unknown	41.98417	10/28/0116 05:04.14	00002519	16.625	Inter613t1-0	-1.163	1	2	0.000	11.111	1.3	0.086	0.000	D	F	1398.1	359.360	0.191	-0.008	1502.430	1059.302	0.027	-	0.067	-0.176	-	-	-	-	-	-	-	PAVEMENT_GENERAL	Urban	F	1011101000001001	0000000000000000	-	car	807.305	-621.175	0.000	0.000	180.000	696.000	987.000	-0.000	Terminate	
Unknown	42.98419	10/28/0116 05:04.15	00002579	16.671	Inter613t1-0	-1.312	1	2	0.000	11.111	0.7	0.123	0.000	D	F	1538.0	359.642	0.192	-0.009	1502.281	1075.935	0.026	-	0.066	0.037	-	-	-	-	-	-	-	PAVEMENT_GENERAL	Urban	F	1011101000001001	0000000000000000	-	car	808.811	-469.072	0.000	0.000	180.000	696.000	987.000	-0.000	Terminate	
Unknown	43.98421	10/28/0116 05:04.16	00002639	16.253	Inter613t1-0	-1.384	1	2	0.000	11.111	1.8	0.002	0.000	D	F	1108.3	359.945	0.188	-0.018	1502.209	1092.441	0.029	-	0.123	-0.528	-	-	-	-	-	-	-	PAVEMENT_GENERAL	Urban	F	1011101000001001	0000000000000000	-	car	810.715	-387.469	0.000	0.000	180.000	696.000	987.000	-0.000	Terminate	
Unknown	44.98423	10/28/0116 05:04.17	00002699	15.986	Inter613t1-0	-1.378	1	2	0.000	11.111	1.2	0.141	0.000	D	F	1547.2	0.022	0.191	-0.001	1502.215	1108.495	0.026	-	0.017	0.081	-	-	-	-	-	-	-	PAVEMENT_GENERAL	Urban	F	1011101000001001	0000000000000000	-	car	812.959	-340.422	0.000	0.000	180.000	696.000	987.000	-0.000	Terminate	
Unknown	45.98425	10/28/0116 05:04.18	00002759	16.020	Inter613t1-0	-1.331	1	2	0.000	11.111	-0.1	0.127	0.000	D	F	1515.5	0.312	0.194	-0.003	1502.263	1124.504	0.026	-	0.028	0.024	-	-	-	-	-	-	-	PAVEMENT_GENERAL	Urban	F	1011101000001001	0000000000000000	-	car	815.544	-293.443	0.000	0.000	180.000	696.000	987.000	-0.000	Terminate	
Unknown	46.98427	10/28/0116 05:04.19	00002819	15.783	Inter613t1-0	-1.266	1	2	0.000	11.111	-1.1	0.000	0.000	D	F	1076.1	0.044	0.187	0.013	1502.327	1140.466	0.029	-	-0.101	-0.541	-	-	-	-	-	-	-	PAVEMENT_GENERAL	Urban	F	1011101000001001	0000000000000000	-	car	818.442	-276.245	0.000	0.000	180.000	696.000	987.000	-0.000	Terminate	
Unknown	47.98429	10/28/0116 05:04.20	00002879	15.371	Inter613t1-0	-1.307	1	2	0.000	11.111	-3.1	0.021	0.000	D	F	1073.4	359.550	0.183	0.021	1502.286	1156.027	0.028	-	-0.171	-0.364	-	-	-	-	-	-	-	PAVEMENT_GENERAL	Urban	F	1011101000001001	0000000000000000	-	car	821.453	-270.605	0.000	0.000	180.000	696.000	987.000	-0.000	Terminate	
Unknown	48.98431	10/28/0116 05:04.21	00002939	15.227	Inter613t1-0	-1.464	1	2	0.000	11.111	-0.7	0.083	0.000	D	F	1296.9	359.360	0.183	0.004	1502.130	1171.319	0.026	-	-0.025	-0.228	-	-	-	-	-	-	-	PAVEMENT_GENERAL	Urban	F	1011101000001001	0000000000000000	-	car	824.574	-255.447	0.000	0.000	180.000	696.000	987.000	-0.000	Terminate	
Unknown	49.98433	10/28/0116 05:04.22	00002999	15.123	Inter613t1-0	-1.625	1	2	0.000	11.111	1.1	0.000	0.000	D	F	1019.8	359.505	0.177	-0.008	1501.968	1186.489	0.026	-	0.068	-0.396	-	-	-	-	-	-	-	PAVEMENT_GENERAL	Urban	F	1011101000001001	0000000000000000	-	car	827.930	-236.108	0.000	0.000	180.000	696.000	987.000	-0.000	Terminate	
Unknown	50.98435	10/28/0116 05:04.23	00003059	14.898	Inter615t9-0	-1.730	1	2	0.000	11.111	0.6	0.111	0.000	D	F	1478.4	359.670	0.212	-0.003	1501.863	1201.479	0.027	-	0.026	0.125	-	-	-	-	-	-	-	PAVEMENT_GENERAL	Urban	F	1011101000001001	0000000000000000	-	car	831.557	-221.821	0.000	0.000	180.000	696.000	987.000	-0.000	Terminate	
Unknown	51.98437	10/28/0116 05:04.24	00003119	14.644	Inter615t9-0	-1.793	1	2	0.000	11.111	0.5	0.016	0.000	D	F	1009.3	359.848	0.179	-0.005	1501.800	1216.270	0.028	-	0.034	-0.531	-	-	-	22	3.818	55.918	3.818	PAVEMENT_GENERAL	Urban	F	1011101000001001	0000000000000000	-	car	835.423	-210.424	0.000	0.000	180.000	696.000	987.000	-0.000	Terminate	
Unknown	52.98439	10/28/0116 05:04.25	00003179	14.439	Inter615t31-0	-1.047	1	1	354.690	11.111	5.2	0.000	0.000	D	F	1406.5	0.150	0.186	-0.034	1501.783	1230.879	0.029	-	0.238	-0.571	-	-	-	22	3.023	43.646	3.023	PAVEMENT_GENERAL	Urban	F	1011101000001001	0000000000000000	-	car	839.521	-198.999	0.000	0.000	180.000	696.000	987.000	-0.000	Terminate	
Unknown	53.98441	10/28/0116 05:04.26	00003239	13.756	Inter615t33-0	-1.686	1	1	0.078	11.111	-4.7	0.000	0.146	D	F	1323.8	0.861	0.150	0.023	1501.947	1245.029	0.029	-	-0.131	-2.104	-	-	-	22	2.151	29.591	2.151	PAVEMENT_GENERAL	Urban	F	1011101000001001	0000000000000000	-	car	843.885	-192.194	0.000	0.000	180.000	696.000	987.000	-0.000	Terminate	
Unknown	54.98443	10/28/0116 05:04.27	00003299	9.002	Inter615t33-0	-1.616	1	1	0.061	11.111	-9.5	0.000	0.507	D	F	823.3	359.852	-0.016	0.041	1502.035	1256.652	0.040	-	-0.243	-6.048	-	-	-	22	1.996	17.965	1.996	PAVEMENT_GENERAL	Urban	F	1111101000001001	0000000000000000	-	car	847.584	-299.107	0.000	0.000	180.000	696.000	987.000	-0.000	Terminate	
Unknown	55.98445	10/28/0116 05:04.28	00003359	2.330	Inter615t33-0	-1.698	1	1	0.061	11.111	-9.8	0.000	0.504	D	F	477.5	358.861	-0.082	-0.002	1501.959	1262.326	0.041	-	-0.000	-6.111	-	-	-	22	5.278	12.296	5.278	PAVEMENT_GENERAL	Urban	F	1011101000001001	0000000000000000	-	car	849.330	-1197.688	0.000	0.000	180.000	696.000	987.000	-0.000	Terminate	
Unknown	56.98447	10/28/0116 05:04.29	00003419	0.620	Inter615t33-0	-1.724	1	1	0.061	11.111	-10.6	0.000	0.000	D	F	477.5	358.677	0.204	0.000	1501.934	1263.252	0.031	-	-0.004	0.003	-	-	-	22	18.329	11.369	18.329	PAVEMENT_GENERAL	Urban	F	1011101000001001	0000000000000000	-	car	849.606	-4530.696	0.000	0.000	180.000	696.000	987.000	-0.000	Terminate	
Unknown	57.98449	10/28/0116 05:04.30	00003479	0.621	Inter615t33-0	-1.743	1	1	0.061	11.111	-11.6	0.000	0.000	D	F	477.5	358.530	0.196	-0.000	1501.915	1263.873	0.027	-	-0.000	0.002	-	-	-	22	17.297	10.749	17.297	PAVEMENT_GENERAL	Urban	F	1011101000001001	0000000000000000	-	car	849.789	-4550.018	0.000	0.000	180.000	696.000	987.000	-0.000	Terminate	
Unknown	58.98451	10/28/0116 05:04.31	00003539	0.623	Inter615t31-0	1.665	1	1	356.903	11.111	-10.9	0.000	0.000	D	F	477.5	358.384	0.201	0.000	1501.894	1264.495	0.026	-	-0.003	0.002	-	-	-	22	16.252	10.127	16.252	PAVEMENT_GENERAL	Urban	F	1011101000001001	0000000000000000	-	car	849.972	-4565.445	0.000	0.000	180.000	696.000	987.000	-0.000	Terminate	
Unknown	59.98453	10/28/0116 05:04.32	00003599	0.625	Inter615t31-0	1.676	1	1	356.903	11.111	-13.2	0.014	0.000	D	F	482.5	358.235	0.204	0.001	1501.872	1265.118	0.026	-	-0.005	0.004	-	-	-	22	15.215	9.503	15.215	PAVEMENT_GENERAL	Urban	F	1011101000001001	0000000000000000	-	car	850.154	-4583.478	0.000	0.000	180.000	696.000	987.000	-0.000	Terminate	
Unknown	60.98455	10/28/0116 05:04.33	00003659	0.822	Inter615t31-0	1.686	1	1	356.903	11.111	-14.2	0.034	0.000	D	F	720.3	358.037	0.213	0.001	1501.844	1265.803	0.025	-	-0.007	0.500	-	-	-	22	8.418	6.918	-	PAVEMENT_GENERAL	Urban	F	1011101000001001	0000000000000000	-	car	850.352	-3514.613	0.000	0.000	180.000	696.000	987.000	-0.000	Terminate	
Unknown	61.98457	10/28/0116 05:04.34	00003719	1.738	Inter615t31-0	1.696	1	1	356.903	11.111	-13.4	0.062	0.000	D	F	1061.2	357.695	0.209	0.003	1501.792	1266.954	0.021	-	-0.023	1.427	-	-	-	22	4.732	8.223	-	PAVEMENT_GENERAL	Urban	F	1011101000001001	0000000000000000	-	car	850.679	-1688.375	0.000	0.000	180.000	696.000	987.000	-0.000	Terminate	
Unknown	62.98459	10/28/0116 05:04.35	00003779	2.828	Inter615t11-0	1.599	LT1	2	0.000	11.111	-20.0	0.062	0.000	D	F	1132.4	356.891	0.211	0.012	1501.661	1269.283	0.022	L	-0.082	0.900	-	-	-	22	4.497	12.718	-	PAVEMENT_GENERAL	Urban	F	1011101000101001	0000000000000000	-	car	851.323	-1079.005	0.000	0.000	180.000	696.000	987.000	-0.000	Terminate	
Unknown	63.98461	10/28/0116 05:04.36	00003839	3.891	Inter615t11-0	1.323	LT1	2	0.000	11.111	-28.9	0.088	0.000	D	F	1388.7	355.097	0.213	0.023	1501.385	1272.602	0.021	L	-0.175	1.118	-	-	-	22	4.075	15.855	-	PAVEMENT_GENERAL	Urban	F	1011101000101001	0000000000000000	-	car	852.166	-867.586	0.000	0.000	180.000	696.000	987.000	-0.000	Terminate	
Unknown	64.98463	10/28/0116 05:04.37	00003899	4.892	Inter615t11-0	0.764	LT1	2	0.000	11.111	-43.4	0.099	0.000	D	F	1560.4	352.082	0.211	0.054	1500.827	1276.974	0.022	L	-0.406	0.890	-	-	-	22	4.074	19.930	-	PAVEMENT_GENERAL	Urban	F	1011101000101001	0000000000000000	-	car	853.112	-845.927	0.000	0.000	180.000	696.000	987.000	-0.000	Terminate	
Unknown	65.98465	10/28/0116 05:04.38	00003959	5.690	Inter615t65-0	-0.380	1	1	357.144	11.111	-81.0	0.090	0.000	D	F	1330.4	345.508	0.204	0.131	1499.673	1282.165	0.023	L	-0.960	0.596	-	-	-	22	4.326	24.613	-	PAVEMENT_GENERAL	Urban	F	1011101000101001	0000000000000000	-	car	853.802	-1517.655	0.000	0.000	180.000	696.000	987.000	-0.000	Terminate	
Unknown	66.98467	10/28/0116 05:04.39	00004019	6.351	Inter615t65-0	-1.490	1	1	339.629	11.111	-95.0	0.102	0.000	D	F	1400.1	335.157	0.201	0.175	1497.452	1287.750	0.023	L	-1.316	0.616	-	-	-	22	4.769	30.286	-	PAVEMENT_GENERAL	Urban	F	1011101000101001	0000000000000000	-	car	853.664	1803.537	0.000	0.000	180.000	696.000	987.000	-0.000	Terminate	
Unknown	67.98470	10/28/0116 05:04.40	00004079	6.989	-Inter615t61-0	-0.528	-1	1	89.733	11.111	-98.5	0.106	0.000	D	F	1455.5	322.488	0.199	0.212	1493.784	1293.315	0.024	L	-1.622	0.553	-	-	-	22	4.839	33.823	-	PAVEMENT_GENERAL	Urban	F	1011101000101001	0000000000000000	-	car	852.209	429.122	0.000	0.000	180.000	696.000	987.000	-0.000	Terminate	
Unknown	68.98471	10/28/0116 05:04.41	00004139	7.554	-	-	INT	0	-	-	-98.1	0.108	0.000	D	F	1497.0	308.699	0.196	0.243	1488.512	1298.314	0.024	L	-1.865	0.479	-	-	-	-	-	-	-	PAVEMENT_GENERAL	Urban	F	1011101000101001	0000000000000000	-	car	849.105	225.793	0.000	0.000	180.000	696.000	987.000	-0.000	Terminate	
Unknown	69.98473	10/28/0116 05:04.42	00004199	8.047	Inter615t65-0	-1.384	1	1	271.787	11.111	-98.1	0.109	0.000	D	F	1527.0	294.067	0.193	0.273	1481.727	1302.142	0.025	L	-2.096	0.403	-	-	-	22	6.187	49.783	-	PAVEMENT_GENERAL	Urban	F	1011101000101001	0000000000000000	-	car	844.211	150.816	0.000	0.000	180.000	696.000	987.000	-0.000	Terminate	
Unknown	70.98476	10/28/0116 05:04.43	00004259	8.479	Inter615t3-3	0.728	1	2	270.000	11.111	-85.7	0.111	0.000	D	F	1551.7	279.351	0.191	0.263	1473.755	1304.259	0.025	L	-2.012	0.354	-	-	-	22	7.349	62.315	-	PAVEMENT_GENERAL	Urban	F	1011101000101001	0000000000000000	-	car	837.614	115.906	0.000	0.000	180.000	696.000	987.000	-0.000	Terminate	
Unknown	71.98477	10/28/0116 05:04.44	00004319	8.898	Inter615t19-0	1.173	1	1	270.068	11.111	-1.8	0.115	0.000	D	F	1608.6	270.661	0.204	-0.008	1465.088	1304.707	0.024	-	-0.074	0.450	-	-	-	22	8.210	73.050	-	PAVEMENT_GENERAL	Urban	F	1011101000001001	0000000000000000	-	car	829.766	101.392	0.000	0.000	180.000	696.000	987.000	-0.000	Terminate	
Unknown	72.98479	10/28/0116 05:04.45	00004379	9.261	Inter615t19-0	1.280	1	1	270.096	11.111	4.0	0.104	0.000	D	F	1619.0	270.948	0.204	-0.010	1455.998	1304.823	0.025	-	0.102	0.316	-	-	-	22	9.055	83.856	-	PAVEMENT_GENERAL	Urban	F	1011101000001001	0000000000000000	-	car	821.418	96.824	0.000	0.000	180.000	696.000	987.000	-0.000	Terminate	
Unknown	73.98481	10/28/0116 05:04.46	00004439	9.579	Inter615t19-0	1.455	1	1	270.101	11.111	-2.4	0.099	0.000	D	F	1407.4	271.119	0.203	0.010	1446.578	1305.012	0.025	-	-0.063	0.283	-	-	-	22	9.871	94.554	-	PAVEMENT_GENERAL	Urban	F	1011101000001001	0000000000000000	-	car	812.808	92.940	0.000	0.000	180.000	696.000	987.000	-0.000	Terminate	
Unknown	74.98483	10/28/0116 05:04.47	00004499	9.844	Inter615t19-0	1.595	1	1	270.071	11.111	-0.6	0.097	0.000	D	F	1388.1	270.848	0.203	0.002	1436.866	1305.171	0.025	-	-0.019	0.246	-	-	-	22	10.663	104.961	-	PAVEMENT_GENERAL	Urban	F	1011101000001001	0000000000000000	-	car	803.938	89.460	0.000	0.000	180.000	696.000	987.000	-0.000	Terminate	
Unknown	75.98486	10/28/0116 05:04.48	00004559	10.108	Inter615t19-0	1.724	1	1	270.061	11.111	0.5	0.106	0.000	D	F	1427.2	270.833	0.203	-0.006	1426.897	1305.314	0.025	-	0.016	0.292	-	-	-	22	11.388	115.113	-	PAVEMENT_GENERAL	Urban	F	1011101000001001	0000000000000000	-	car	794.844	86.323	0.000	0.000	180.000	696.000	987.000	-0.000	Terminate	
Unknown	76.98487	10/28/0116 05:04.49	00004619	10.329	Inter615t1-3	-1.748	2	2	270.000	11.111	0.2	0.101	0.000	D	F	1412.9	270.690	0.202	-0.003	1416.677	1305.452	0.025	-	-0.002	0.214	-	-	-	22	11.875	122.647	-	PAVEMENT_GENERAL	Urban	F	1011101000001001	0000000000000000	-	car	785.541	83.600	0.000	0.000	180.000	696.000	987.000	-0.000	Terminate	
Unknown	77.98489	10/28/0116 05:04.50	00004679	10.578	Inter615t1-3	-1.626	2	2	270.000	11.111	-1.4	0.116	0.000	D	F	1470.4	270.620	0.203	0.008	1406.230	1305.574	0.025	-	-0.044	0.292	-	-	-	22	12.944	136.923	-	PAVEMENT_GENERAL	Urban	F	1011101000001001	0000000000000000	-	car	776.047	80.805	0.000	0.000	180.000	696.000	987.000	-0.000	Terminate	
Unknown	78.98492	10/28/0116 05:04.51	00004739	10.955	Inter616t1-3	-1.499	2	2	270.000	11.111	1.4	0.146	0.000	D	F	1562.3	270.882	0.203	-0.011	1395.479	1305.708	0.024	-	0.056	0.436	-	-	-	22	13.281	145.505	-	PAVEMENT_GENERAL	Urban	F	1011101000001001	0000000000000000	-	car	766.306	77.418	0.000	0.000	180.000	696.000	987.000	-0.000	Terminate	
Unknown	79.98493	10/28/0116 05:04.52	00004799	11.395	Inter616t1-3	-1.328	2	2	270.000	11.111	-4.6	0.150	0.000	D	F	1595.2	270.709	0.204	0.018	1384.307	1305.879	0.024	-	-0.149	0.444	-	-	-	22	13.411	152.823	-	PAVEMENT_GENERAL	Urban	F	1011101000001001	0000000000000000	-	car	756.225	73.567	0.000	0.000	180.000	696.000	987.000	-0.000	Terminate	
Unknown	80.98495	10/28/0116 05:04.53	00004859	11.828	Inter616t1-3	-1.271	2	2	270.000	11.111	-0.7	0.141	0.000	D	F	1604.3	269.962	0.202	0.003	1372.694	1305.936	0.024	-	-0.056	0.406	-	-	-	22	13.439	158.955	-	PAVEMENT_GENERAL	Urban	F	1111101000001001	0000000000000000	-	car	745.728	69.678	0.000	0.000	180.000	696.000	987.000	-0.000	Terminate	
Unknown	81.98497	10/28/0116 05:04.54	00004919	12.119	Inter616t1-3	-1.289	2	2	270.000	11.111	-1.9	0.106	0.000	D	F	1518.2	269.844	0.199	0.005	1360.721	1305.917	0.025	-	-0.062	0.240	-	-	-	22	13.537	164.061	-	PAVEMENT_GENERAL	Urban	F	1011101000001001	0000000000000000	-	car	734.908	67.169	0.000	0.000	180.000	696.000	987.000	-0.000	Terminate	
Unknown	82.98499	10/28/0116 05:04.55	00004979	12.325	Inter616t1-3	-1.359	2	2	270.000	11.111	1.9	0.141	0.000	D	F	1604.8	269.552	0.201	-0.003	1348.511	1305.848	0.025	-	0.034	0.286	-	-	-	22	13.659	168.352	-	PAVEMENT_GENERAL	Urban	F	1011101000001001	0000000000000000	-	car	723.888	65.121	0.000	0.000	180.000	696.000	987.000	-0.000	Terminate	
Unknown	83.98502	10/28/0116 05:04.56	00005039	13.000	Inter616t1-3	-1.449	2	2	270.000	11.111	-1.6	0.180	0.000	D	F	1737.6	269.493	0.197	0.008	1335.879	1305.758	0.023	-	-0.070	0.548	-	-	-	22	13.207	171.699	-	PAVEMENT_GENERAL	Urban	F	1011101000001001	0000000000000000	-	car	712.520	60.966	0.000	0.000	180.000	696.000	987.000	-0.000	Terminate	
Unknown	84.98503	10/28/0116 05:04.57	00005099	13.712	Inter616t1-3	-1.668	2	2	270.000	11.111	-6.3	0.280	0.000	D	F	1932.0	268.372	0.205	0.040	1322.562	1305.538	0.023	-	-0.326	0.848	-	-	-	22	12.680	173.874	-	PAVEMENT_GENERAL	Urban	F	1011101000001001	0000000000000000	-	car	700.525	56.518	0.000	0.000	180.000	696.000	987.000	-0.000	Terminate	
Unknown	85.98505	10/28/0116 05:04.58	00005159	14.528	Inter616t1-2	1.466	1	2	270.000	11.111	1.9	0.282	0.000	D	F	1974.1	268.125	0.203	-0.014	1308.446	1305.073	0.023	-	0.088	0.795	-	-	-	22	11.870	172.451	-	PAVEMENT_GENERAL	Urban	F	1011101000001001	0000000000000000	-	car	687.756	52.481	0.000	0.000	180.000	696.000	987.000	-0.000	Terminate	
Unknown	86.98507	10/28/0116 05:04.59	00005219	15.291	Inter616t1-2	1.023	1	2	270.000	11.111	0.6	0.280	0.000	D	F	2012.0	268.492	0.201	-0.011	1293.540	1304.630	0.023	-	0.070	0.742	-	-	-	22	11.271	172.349	283.070	PAVEMENT_GENERAL	Urban	F	1011101000001001	0000000000000000	-	car	674.355	49.273	0.000	0.000	180.000	696.000	987.000	-0.000	Terminate	
Unknown	87.98509	10/28/0116 05:05.00	00005279	15.885	Inter616t1-2	0.602	1	2	270.000	11.111	1.1	0.000	0.000	D	F	1499.2	268.411	0.172	-0.005	1277.911	1304.208	0.024	-	0.027	-0.380	-	-	-	22	10.783	171.296	121.338	PAVEMENT_GENERAL	Urban	F	1011101000001001	0000000000000000	-	car	660.394	46.660	0.000	0.000	180.000	696.000	987.000	-0.000	Terminate	
Unknown	88.98512	10/28/0116 05:05.01	00005339	15.486	Inter616t1-2	0.197	1	2	270.000	11.111	3.3	0.067	0.000	D	F	1639.4	268.653	0.192	-0.018	1262.273	1303.804	0.028	-	0.129	-0.223	-	-	-	22	10.980	170.040	144.191	PAVEMENT_GENERAL	Urban	F	1011101000001001	0000000000000000	-	car	646.508	47.228	0.000	0.000	180.000	696.000	987.000	-0.000	Terminate	
Unknown	89.98513	10/28/0116 05:05.02	00005399	15.454	Inter616t1-2	-0.083	1	2	270.000	11.111	2.9	0.148	0.000	D	F	1785.0	269.240	0.196	-0.016	1246.840	1303.524	0.026	-	0.135	0.123	-	-	-	22	10.924	168.828	128.473	PAVEMENT_GENERAL	Urban	F	1011101000001001	0000000000000000	-	car	632.945	46.882	0.000	0.000	180.000	696.000	987.000	-0.000	Terminate	
Unknown	90.98515	10/28/0116 05:05.03	00005459	15.693	Inter616t1-2	-0.224	1	2	270.000	11.111	0.9	0.153	0.000	D	F	1813.6	269.737	0.195	-0.010	1231.254	1303.382	0.026	-	0.085	0.190	-	-	-	22	10.662	167.327	99.731	PAVEMENT_GENERAL	Urban	F	1011101000001001	0000000000000000	-	car	619.408	45.726	0.000	0.000	180.000	696.000	987.000	-0.000	Terminate	
Unknown	91.98518	10/28/0116 05:05.04	00005519	15.970	Inter616t1-2	-0.321	1	2	270.000	11.111	1.2	0.187	0.000	D	F	1894.6	269.494	0.197	-0.004	1215.437	1303.286	0.025	-	-0.006	0.342	-	-	-	22	10.362	165.481	81.214	PAVEMENT_GENERAL	Urban	F	1011101000001001	0000000000000000	-	car	605.795	44.177	0.000	0.000	180.000	696.000	987.000	-0.000	Terminate	
Unknown	92.98519	10/28/0116 05:05.05	00005579	16.327	Inter617t1-2	-0.421	1	2	270.000	11.111	-2.1	0.192	0.000	D	F	1926.5	269.762	0.197	0.008	1199.289	1303.186	0.025	-	-0.040	0.356	-	-	-	22	9.998	163.236	76.114	PAVEMENT_GENERAL	Urban	F	1011101000001001	0000000000000000	-	car	592.009	42.711	0.000	0.000	180.000	696.000	987.000	-0.000	Terminate	
Unknown	93.98521	10/28/0116 05:05.06	00005639	16.695	Inter617t1-2	-0.548	1	2	270.000	11.111	0.5	0.198	0.000	D	F	1963.9	269.362	0.196	0.002	1182.780	1303.059	0.025	-	-0.031	0.380	-	-	-	22	9.697	161.893	315.447	PAVEMENT_GENERAL	Urban	F	1011101000001001	0000000000000000	-	car	578.027	40.986	0.000	0.000	180.000	696.000	987.000	-0.000	Terminate	
Unknown	94.98523	10/28/0116 05:05.07	00005699	17.058	Inter617t1-2	-0.739	1	2	270.000	11.111	-1.6	0.198	0.000	D	F	1987.9	269.212	0.195	0.014	1165.902	1302.867	0.025	-	-0.104	0.350	-	-	-	-	-	-	-	PAVEMENT_GENERAL	Urban	F	1011101000001001	0000000000000000	-	car	563.839	39.467	0.000	0.000	180.000	696.000	987.000	-0.000	Terminate	
Unknown	95.98525	10/28/0116 05:05.08	00005759	17.409	Inter617t1-2	-1.024	1	2	270.000	11.111	-1.2	0.203	0.000	D	F	2019.4	268.847	0.195	0.012	1148.672	1302.582	0.025	-	-0.094	0.352	-	-	-	-	-	-	-	PAVEMENT_GENERAL	Urban	F	1011101000001001	0000000000000000	-	car	549.459	37.950	0.000	0.000	180.000	696.000	987.000	-0.000	Terminate	
Unknown	96.98528	10/28/0116 05:05.09	00005819	17.536	Inter617t1-2	-1.375	1	2	270.000	11.111	1.9	0.000	0.000	D	F	1478.5	268.993	0.175	-0.018	1131.125	1302.232	0.028	-	0.132	-0.509	-	-	-	-	-	-	-	PAVEMENT_GENERAL	Urban	F	1011101000001001	0000000000000000	-	car	534.953	37.203	0.000	0.000	180.000	696.000	987.000	-0.000	Terminate	
Unknown	97.98529	10/28/0116 05:05.10	00005879	16.983	Inter617t1-2	-1.628	1	2	270.000	11.111	2.0	0.000	0.000	D	F	1163.1	269.310	0.187	-0.018	1113.865	1301.979	0.029	-	0.101	-0.558	-	-	-	-	-	-	-	PAVEMENT_GENERAL	Urban	F	1011101000001001	0000000000000000	-	car	520.921	38.069	0.000	0.000	180.000	696.000	987.000	-0.000	Terminate	
Unknown	98.98531	10/28/0116 05:05.11	00005939	16.429	-	-	CL	0	-	-	-0.3	0.000	0.000	D	F	1120.4	269.369	0.187	0.006	1097.161	1301.800	0.029	-	-0.033	-0.550	-	-	-	-	-	-	-	PAVEMENT_GENERAL	Urban	F	1011101000001001	0000000000000000	-	car	507.571	38.938	0.000	0.000	180.000	696.000	987.000	-0.000	Terminate	
Unknown	99.98534	10/28/0116 05:05.12	00005999	15.883	-	-	CL	0	-	-	0.5	0.002	0.000	D	F	1083.3	269.443	0.188	-0.004	1081.007	1301.628	0.029	-	0.034	-0.532	-	-	-	-	-	-	-	PAVEMENT_GENERAL	Urban	F	1011101000001001	0000000000000000	-	car	494.854	39.922	0.000	0.000	180.000	696.000	987.000	-0.000	Terminate	
Unknown	100.98535	10/28/0116 05:05.13	00006059	15.886	-	-	CL	0	-	-	1.0	0.169	0.000	D	F	1798.6	270.036	0.194	-0.018	1065.205	1301.538	0.025	-	0.132	0.268	-	-	-	-	-	-	-	PAVEMENT_GENERAL	Urban	F	1011101000001001	0000000000000000	-	car	482.663	39.935	0.000	0.000	180.000	696.000	987.000	-0.000	Terminate	
Unknown	101.98537	10/28/0116 05:05.14	00006119	15.851	-	-	CL	0	-	-	4.6	0.000	0.000	D	F	1554.3	270.259	0.180	-0.035	1049.259	1301.553	0.029	-	0.244	-0.586	-	-	-	-	-	-	-	PAVEMENT_GENERAL	Urban	F	1011101000001001	0000000000000000	-	car	470.648	39.918	0.000	0.000	180.000	696.000	987.000	-0.000	Terminate	
Unknown	102.98539	10/28/0116 05:05.15	00006179	15.266	-	-	CL	0	-	-	-5.8	0.000	0.000	D	F	1499.3	270.948	0.188	0.040	1033.703	1301.748	0.029	-	-0.196	-0.579	-	-	-	-	-	-	-	PAVEMENT_GENERAL	Urban	F	1011101000001001	0000000000000000	-	car	459.278	41.777	0.000	0.000	180.000	696.000	987.000	-0.000	Terminate	
Unknown	103.98541	10/28/0116 05:05.16	00006239	14.691	Inter617t1-2	-1.683	1	2	270.000	11.111	4.2	0.000	0.000	D	F	1442.9	270.867	0.189	-0.032	1018.726	1301.924	0.029	-	0.244	-0.571	-	-	-	-	-	-	-	PAVEMENT_GENERAL	Urban	F	1011101000001001	0000000000000000	-	car	448.561	43.306	0.000	0.000	180.000	696.000	987.000	-0.000	Terminate	
Unknown	104.98544	10/28/0116 05:05.17	00006299	14.612	Inter617t1-2	-1.448	1	2	270.000	11.111	-5.4	0.162	0.000	D	F	1776.1	270.626	0.201	0.032	1004.169	1302.159	0.025	-	-0.250	0.306	-	-	-	-	-	-	-	PAVEMENT_GENERAL	Urban	F	1011101000001001	0000000000000000	-	car	438.427	43.404	0.000	0.000	180.000	696.000	987.000	-0.000	Terminate	
Unknown	105.98545	10/28/0116 05:05.18	00006359	14.988	-	-	CL	0	-	-	1.9	0.190	0.000	D	F	1861.4	269.529	0.231	-0.080	989.387	1302.176	0.027	-	-0.067	0.447	-	-	-	-	-	-	-	FREEWAY_SMOOTH	Urban	F	1011101000001001	0000000000000000	-	car	428.236	41.569	0.000	0.000	180.000	696.000	987.000	-0.000	Terminate	
Unknown	106.98547	10/28/0116 05:05.19	00006419	15.436	-	-	CL	0	-	-	16.6	0.203	0.000	D	F	1912.9	271.641	0.238	-0.425	974.177	1302.232	0.036	-	0.942	0.475	-	-	-	-	-	-	-	FREEWAY_SMOOTH	Urban	F	1011101000001001	0000000000000000	-	car	418.061	42.323	0.000	0.000	180.000	696.000	987.000	-0.000	Terminate	
Unknown	107.98550	10/28/0116 05:05.20	00006479	15.929	Inter618t1-0	-1.210	1	2	268.644	24.444	-9.7	0.217	0.000	D	F	1979.5	271.705	0.268	-0.438	958.509	1302.806	0.051	-	-0.530	0.529	-	-	-	-	-	-	-	FREEWAY_SMOOTH	Urban	F	1011101000001001	0000000000000000	-	car	408.303	41.608	0.000	0.000	180.000	696.000	987.000	-0.000	Terminate	
Unknown	108.98551	10/28/0116 05:05.21	00006539	16.487	Inter618t1-0	-0.529	1	2	267.195	24.444	-15.6	0.235	0.000	D	F	2024.9	268.722	0.267	-0.609	942.303	1302.919	0.071	-	-0.989	0.560	-	-	-	-	-	-	-	FREEWAY_SMOOTH	Urban	F	1011101000001001	0000000000000000	-	car	398.227	38.201	0.000	0.000	180.000	696.000	987.000	-0.000	Terminate	
Unknown	109.98553	10/28/0116 05:05.22	00006599	17.027	Inter618t1-0	-0.300	1	2	265.172	24.444	-14.9	0.238	0.000	D	F	2053.2	265.265	0.251	-0.851	925.569	1302.056	0.090	-	-0.981	0.531	-	-	-	-	-	-	-	FREEWAY_SMOOTH	Urban	F	1011101000001001	0000000000000000	-	car	387.464	34.816	0.000	0.000	180.000	696.000	987.000	-0.000	Terminate	
Unknown	110.98555	10/28/0116 05:05.23	00006659	17.565	Inter618t1-0	-0.334	1	2	262.508	24.444	-13.0	0.249	0.000	D	F	2094.4	262.316	0.245	-1.100	908.375	1300.195	0.106	-	-0.881	0.537	-	-	-	-	-	-	-	FREEWAY_SMOOTH	Urban	F	1011101000001001	0000000000000000	-	car	376.051	32.104	0.000	0.000	180.000	696.000	987.000	-0.000	Terminate	
Unknown	111.98557	10/28/0116 05:05.24	00006719	18.079	Inter618t1-0	-0.398	1	2	259.155	24.444	-15.4	0.250	0.000	D	F	2122.9	258.781	0.236	-1.309	890.786	1297.324	0.121	-	-1.176	0.510	-	-	-	-	-	-	-	FREEWAY_SMOOTH	Urban	F	1011101000001001	0000000000000000	-	car	364.032	29.341	0.000	0.000	180.000	696.000	987.000	-0.000	Terminate	
Unknown	112.98560	10/28/0116 05:05.25	00006779	18.574	Inter618t1-0	-0.500	1	2	255.081	24.444	-18.6	0.256	0.000	D	F	2163.3	254.561	0.221	-1.526	872.936	1293.177	0.136	-	-1.469	0.493	-	-	-	-	-	-	-	FREEWAY_SMOOTH	Urban	F	1011101000001001	0000000000000000	-	car	351.266	26.532	0.000	0.000	180.000	696.000	987.000	-0.000	Terminate	
Unknown	113.98561	10/28/0116 05:05.26	00006839	19.048	Inter618t1-0	-0.627	1	2	250.463	24.444	-22.4	0.261	0.000	D	F	2203.2	249.773	0.165	-1.520	855.001	1287.510	0.135	-	-1.757	0.474	-	-	-	-	-	-	-	FREEWAY_SMOOTH	Urban	F	1011101000001001	0000000000000000	-	car	337.622	23.810	0.000	0.000	180.000	696.000	987.000	-0.000	Terminate	
Unknown	114.98563	10/28/0116 05:05.27	00006899	19.520	Inter618t1-0	-0.901	1	2	245.754	24.444	-13.2	0.270	0.000	D	F	2247.9	244.696	0.152	-1.578	837.208	1280.092	0.127	-	-1.342	0.489	-	-	-	-	-	-	-	FREEWAY_SMOOTH	Urban	F	1011101000001001	0000000000000000	-	car	322.975	21.282	0.000	0.000	180.000	696.000	987.000	-0.000	Terminate	
Unknown	115.98566	10/28/0116 05:05.28	00006959	19.994	Inter618t1-0	-0.866	1	2	240.900	24.444	-14.3	0.270	0.000	D	F	2284.0	241.960	0.219	-1.605	819.528	1271.274	0.128	-	-1.104	0.468	-	-	-	-	-	-	-	FREEWAY_SMOOTH	Urban	F	1011101000001001	0000000000000000	-	car	307.593	19.650	0.000	0.000	180.000	696.000	987.000	-0.000	Terminate	
Unknown	116.98567	10/28/0116 05:05.29	00007019	20.439	Inter618t1-0	-0.273	1	2	235.934	24.444	-33.4	0.265	0.000	D	F	2312.6	237.395	0.230	-1.442	801.989	1261.216	0.146	-	-2.335	0.429	-	-	-	-	-	-	-	FREEWAY_SMOOTH	Urban	F	1011101000001001	0000000000000000	-	car	291.627	17.695	0.000	0.000	180.000	696.000	987.000	-0.000	Terminate	
Unknown	117.98569	10/28/0116 05:05.30	00007079	20.227	Inter618t1-0	-0.274	1	2	230.937	24.444	-22.4	0.081	0.000	D	F	1575.0	227.994	0.065	-1.375	785.578	1249.075	0.151	-	-2.955	-0.295	-	-	-	-	-	-	-	FREEWAY_SMOOTH	Urban	F	1011101000001001	0000000000000000	-	car	274.602	15.541	0.000	0.000	180.000	696.000	987.000	-0.000	Terminate	
Unknown	118.98571	10/28/0116 05:05.31	00007139	19.953	Inter618t1-0	-1.198	1	2	226.011	24.444	-6.4	0.005	0.000	D	F	1338.1	223.439	0.092	-1.615	771.149	1235.099	0.121	-	-1.059	-0.437	-	-	-	-	-	-	-	FREEWAY_SMOOTH	Urban	F	1011101000001001	0000000000000000	-	car	256.871	14.396	0.000	0.000	180.000	696.000	987.000	-0.000	Terminate	
Unknown	119.98573	10/28/0116 05:05.32	00007199	19.364	Inter618t1-0	-1.658	1	2	221.183	24.444	-10.4	0.002	0.000	D	F	1319.8	220.643	0.158	-1.607	757.913	1220.568	0.109	-	-1.116	-0.590	-	-	-	-	-	-	-	FREEWAY_SMOOTH	Urban	F	1011101000001001	0000000000000000	-	car	239.275	13.724	0.000	0.000	180.000	696.000	987.000	-0.000	Terminate	
Unknown	120.98576	10/28/0116 05:05.33	00007259	18.783	Inter618t1-0	-1.471	1	2	216.463	24.444	-9.3	0.007	0.000	D	F	1282.1	218.380	0.235	-1.665	745.792	1205.845	0.114	-	-0.710	-0.570	-	-	-	-	-	-	-	FREEWAY_SMOOTH	Urban	F	1011101000001001	0000000000000000	-	car	222.078	13.106	0.000	0.000	180.000	696.000	987.000	-0.000	Terminate	
Unknown	121.98577	10/28/0116 05:05.34	00007319	18.243	Inter618t1-0	-0.737	1	2	211.934	24.444	-27.4	0.021	0.000	D	F	1269.5	213.558	0.219	-1.469	734.772	1190.982	0.136	-	-2.164	-0.493	-	-	-	-	-	-	-	FREEWAY_SMOOTH	Urban	F	1011101000001001	0000000000000000	-	car	205.274	12.205	0.000	0.000	180.000	696.000	987.000	-0.000	Terminate	
Unknown	122.98579	10/28/0116 05:05.35	00007379	17.764	Inter618t1-0	-0.478	1	2	207.526	24.444	-11.9	0.030	0.000	D	F	1275.8	207.768	0.184	-1.585	725.607	1175.502	0.144	-	-1.244	-0.440	-	-	-	-	-	-	-	FREEWAY_SMOOTH	Urban	F	1011101000001001	0000000000000000	-	car	188.453	11.209	0.000	0.000	180.000	696.000	987.000	-0.000	Terminate	
Unknown	123.98581	10/28/0116 05:05.36	00007439	17.331	Inter618t1-0	-0.308	1	2	203.202	24.444	-19.1	0.041	0.000	D	F	1289.5	203.599	0.192	-1.555	717.915	1159.733	0.149	-	-1.534	-0.412	-	-	-	-	-	-	-	FREEWAY_SMOOTH	Urban	F	1011101000001001	0000000000000000	-	car	171.758	10.329	0.000	0.000	180.000	696.000	987.000	-0.000	Terminate	
Unknown	124.98583	10/28/0116 05:05.37	00007499	16.950	Inter618t1-0	-0.288	1	2	199.034	24.444	-15.6	0.041	0.000	D	F	1270.0	198.791	0.174	-1.592	711.700	1143.766	0.149	-	-1.288	-0.366	-	-	-	-	-	-	-	FREEWAY_SMOOTH	Urban	F	1011101000001001	0000000000000000	-	car	155.190	9.399	0.000	0.000	180.000	696.000	987.000	-0.000	Terminate	
Unknown	125.98586	10/28/0116 05:05.38	00007559	16.584	Inter618t1-0	-0.361	1	2	194.940	24.444	-15.5	0.055	0.000	D	F	1283.6	194.625	0.123	-1.575	706.854	1127.720	0.145	-	-1.195	-0.341	-	-	-	-	-	-	-	FREEWAY_SMOOTH	Urban	F	1011101000001001	0000000000000000	-	car	138.779	8.503	0.000	0.000	180.000	696.000	987.000	-0.000	Terminate	
Unknown	126.98587	10/28/0116 05:05.39	00007619	16.269	Inter618t1-0	-0.495	1	2	191.254	24.444	-15.1	0.049	0.000	D	F	1276.8	190.530	0.114	-1.349	703.259	1111.698	0.126	-	-1.134	-0.296	-	-	-	-	-	-	-	FREEWAY_SMOOTH	Urban	F	1011101000001001	0000000000000000	-	car	122.549	7.592	0.000	0.000	180.000	696.000	987.000	-0.000	Terminate	
Unknown	127.98589	10/28/0116 05:05.40	00007679	15.859	Inter618t1-0	-0.740	1	2	188.144	24.444	-4.1	0.053	0.000	D	F	1244.1	187.415	0.126	-1.218	700.793	1095.833	0.106	-	-0.484	-0.334	-	-	-	-	-	-	-	FREEWAY_SMOOTH	Urban	F	1011101000001001	0000000000000000	-	car	106.579	6.745	0.000	0.000	180.000	696.000	987.000	-0.000	Terminate	
Unknown	128.98592	10/28/0116 05:05.41	00007739	15.667	Inter618t1-0	-0.755	1	2	185.577	24.444	-10.8	0.095	0.000	D	F	1408.4	186.022	0.150	-0.972	698.926	1080.203	0.091	-	-0.622	-0.108	-	-	-	-	-	-	-	FREEWAY_SMOOTH	Urban	F	1011101000001001	0000000000000000	-	car	90.889	5.817	0.000	0.000	180.000	696.000	987.000	-0.000	Terminate	
Unknown	129.98593	10/28/0116 05:05.42	00007799	15.545	Inter618t1-0	-0.734	1	2	183.511	24.444	-8.9	0.086	0.000	D	F	1378.8	183.290	0.138	-0.757	697.669	1064.642	0.079	-	-0.604	-0.130	-	-	-	-	-	-	-	FREEWAY_SMOOTH	Urban	F	1011101000001001	0000000000000000	-	car	75.301	4.847	0.000	0.000	180.000	696.000	987.000	-0.000	Terminate	
Unknown	130.98595	10/28/0116 05:05.43	00007859	15.341	Inter618t1-0	-0.808	1	2	181.932	24.444	-3.9	0.018	0.000	D	F	1103.1	181.776	0.139	-0.587	697.013	1049.189	0.066	-	-0.271	-0.410	-	-	-	-	-	-	-	FREEWAY_SMOOTH	Urban	F	1011101000001001	0000000000000000	-	car	59.837	3.901	0.000	0.000	180.000	696.000	987.000	-0.000	Terminate	
Unknown	131.98598	10/28/0116 05:05.44	00007919	14.876	Inter618t1-0	-0.826	1	2	180.836	24.444	-2.4	0.019	0.000	D	F	1072.4	180.885	0.143	-0.386	696.671	1034.085	0.053	-	-0.176	-0.455	-	-	-	-	-	-	-	FREEWAY_SMOOTH	Urban	F	1011101000001001	0000000000000000	-	car	44.731	3.007	0.000	0.000	180.000	696.000	987.000	-0.000	Terminate	
Unknown	132.98599	10/28/0116 05:05.45	00007979	14.408	Inter618t1-0	-0.811	1	2	180.204	24.444	-5.3	0.000	0.000	D	F	982.7	180.203	0.142	-0.172	696.529	1019.427	0.042	L	-0.254	-0.537	-	-	-	-	-	-	-	FREEWAY_SMOOTH	Urban	F	1011101000101001	0000000000000000	-	car	30.330	2.268	1.033	2.000	179.096	696.005	986.742	-0.000	Terminate	
Unknown	133.98601	10/28/0116 05:05.46	00008039	13.875	Inter618t1-0	-1.041	1	2	180.001	24.444	-16.6	0.000	0.000	D	F	946.4	177.619	0.142	0.112	696.741	1005.288	0.029	L	-0.882	-0.532	-	-	-	-	-	-	-	FREEWAY_SMOOTH	Urban	F	1011101000101001	0000000000000000	-	car	18.210	1.683	3.033	2.000	176.540	696.129	984.729	-0.000	Terminate	
Unknown	134.98604	10/28/0116 05:05.47	00008099	13.353	Inter686t1-0	-1.386	1	1	180.000	11.111	-2.9	0.000	0.000	D	F	910.6	173.936	0.190	0.033	697.782	991.718	0.029	L	-0.340	-0.512	-	-	-	car	0.471	6.283	0.755	PAVEMENT_GENERAL	Urban	F	1011101000101001	0000000000000000	-	car	8.741	1.091	5.033	2.000	177.773	696.311	980.716	-0.000	Terminate	
Unknown	135.98605	10/28/0116 05:05.48	00008159	12.919	-	-	CL	0	-	-	11.5	0.012	0.000	D	F	953.8	174.333	0.193	-0.061	699.167	978.670	0.028	L	0.457	-0.425	-	-	-	-	-	-	-	PAVEMENT_GENERAL	Urban	F	1011101000101001	0000000000000000	-	car	2.483	0.611	7.033	2.000	179.664	696.395	974.700	-0.000	Terminate	
Unknown	136.98607	10/28/0116 05:05.49	00008219	12.382	-	-	CL	0	-	-	20.2	0.023	0.000	D	F	1230.8	177.948	0.190	-0.121	700.043	966.054	0.029	L	0.940	-0.435	-	-	-	-	-	-	-	PAVEMENT_GENERAL	Urban	F	1011101000101001	0000000000000000	-	car	1.339	-1.328	9.033	2.000	180.025	696.398	966.683	-0.000	Terminate	
Unknown	137.98610	10/28/0116 05:05.50	00008279	12.351	-	-	CL	0	-	-	13.3	0.136	0.000	D	F	1595.9	181.179	0.201	-0.064	700.104	953.748	0.025	L	0.568	0.298	-	-	-	-	-	-	-	PAVEMENT_GENERAL	Urban	F	1011101000101001	0000000000000000	-	car	2.359	-3.840	11.034	2.000	180.003	696.397	956.666	-0.000	Terminate	
Unknown	138.98611	10/28/0116 05:05.51	00008339	12.764	-	-	CL	0	-	-	13.1	0.162	0.000	D	F	1683.6	183.991	0.201	-0.075	699.529	941.220	0.024	-	0.584	0.421	-	-	-	-	-	-	-	PAVEMENT_GENERAL	Urban	F	1011101000001001	0000000000000000	-	car	2.284	2.784	13.034	2.000	180.003	696.397	944.648	-0.000	Terminate	
Unknown	139.98613	10/28/0116 05:05.52	00008399	12.984	-	-	CL	0	-	-	-8.7	0.093	0.000	D	F	1505.7	184.504	0.198	0.044	698.490	928.336	0.026	-	-0.319	0.003	-	-	-	-	-	-	-	PAVEMENT_GENERAL	Urban	F	1011101000001001	0000000000000000	-	car	1.145	1.166	13.409	-0.500	180.003	696.397	931.146	-0.000	Terminate	
Unknown	140.98616	10/28/0116 05:05.53	00008459	13.014	Inter686t1-0	-1.345	1	1	180.000	11.111	-16.5	0.101	0.000	D	F	1530.0	181.768	0.197	0.099	697.741	915.363	0.026	-	-0.788	0.062	car	147.5	-0.478	-	-	-	-	PAVEMENT_GENERAL	Urban	F	1011101000001001	0000000000000000	-	car	0.632	-1.323	12.271	-4.000	180.003	696.397	918.036	-0.000	Terminate	
Unknown	141.98618	10/28/0116 05:05.54	00008519	13.143	Inter686t1-0	-1.278	1	1	180.000	11.111	2.2	0.123	0.000	D	F	1593.6	179.412	0.198	-0.008	697.675	902.294	0.026	-	-0.019	0.156	-	-	-	-	-	-	-	PAVEMENT_GENERAL	Urban	F	1011101000001001	0000000000000000	-	car	3.226	-0.676	8.271	-4.000	180.004	696.397	907.731	-0.000	Terminate	
Unknown	142.98619	10/28/0116 05:05.55	00008579	13.291	Inter686t1-0	-1.357	1	1	180.000	11.111	1.3	0.120	0.000	D	F	1592.5	179.878	0.198	-0.010	697.753	889.074	0.026	-	0.073	0.141	-	-	-	-	-	-	-	PAVEMENT_GENERAL	Urban	F	1011101000001001	0000000000000000	-	car	9.728	-1.314	5.846	-0.500	180.006	696.397	901.086	-0.000	Terminate	
Unknown	143.98621	10/28/0116 05:05.56	00008639	13.428	Inter686t1-0	-1.402	1	1	180.000	11.111	-7.4	0.122	0.000	D	F	1602.5	179.488	0.198	0.042	697.798	875.715	0.026	-	-0.294	0.136	-	-	-	-	-	-	-	PAVEMENT_GENERAL	Urban	F	1011101000001001	0000000000000000	-	car	17.300	-2.418	6.263	2.000	180.007	696.397	895.325	-0.000	Terminate	
Unknown	144.98624	10/28/0116 05:05.57	00008699	13.569	Inter686t1-0	-1.627	1	1	180.000	11.111	3.1	0.123	0.000	D	F	1614.1	178.962	0.197	-0.017	698.023	862.221	0.026	-	0.103	0.136	-	-	-	-	-	-	-	PAVEMENT_GENERAL	Urban	F	1011101000001001	0000000000000000	-	car	23.550	-4.436	8.263	2.000	180.005	696.397	888.079	-0.000	Terminate	
Unknown	145.98625	10/28/0116 05:05.58	00008759	13.653	Inter686t1-0	-1.790	1	1	180.000	11.111	6.1	0.131	0.000	D	F	1645.4	179.827	0.200	-0.036	698.186	848.610	0.026	-	0.283	0.178	-	-	-	-	-	-	-	PAVEMENT_GENERAL	Urban	F	1011101000001001	0000000000000000	-	car	27.916	-8.242	10.263	2.000	180.004	696.397	878.833	-0.000	Terminate	
Unknown	146.98627	10/28/0116 05:05.59	00008819	13.840	Inter686t1-0	-1.717	1	1	180.000	11.111	-1.0	0.134	0.000	D	F	1658.9	180.626	0.198	0.001	698.113	834.864	0.026	-	0.019	0.193	-	-	-	-	-	-	-	PAVEMENT_GENERAL	Urban	F	1011101000001001	0000000000000000	-	car	30.408	-19.410	12.263	2.000	180.003	696.397	867.587	-0.000	Terminate	
Unknown	147.98630	10/28/0116 05:06.00	00008879	14.029	Inter686t1-0	-1.640	1	1	180.000	11.111	-5.6	0.138	0.000	D	F	1671.2	179.749	0.198	0.043	698.036	820.930	0.026	-	-0.306	0.189	-	-	-	-	-	-	-	PAVEMENT_GENERAL	Urban	F	1011101000001001	0000000000000000	-	car	31.091	164.499	14.221	-0.500	180.003	696.397	854.340	-0.000	Terminate	
Unknown	148.98631	10/28/0116 05:06.01	00008939	14.222	-	-	CL	0	-	-	-6.4	0.139	0.000	D	F	1691.6	178.615	0.198	0.039	698.233	806.807	0.026	-	-0.298	0.200	-	-	-	-	-	-	-	PAVEMENT_GENERAL	Urban	F	1011101000001001	0000000000000000	-	car	30.933	97.696	14.554	2.000	180.003	696.397	840.049	-0.000	Terminate	
Unknown	149.98633	10/28/0116 05:06.02	00008999	14.432	-	-	CL	0	-	-	-7.1	0.148	0.000	D	F	1719.5	177.239	0.198	0.047	698.744	792.492	0.025	-	-0.353	0.224	-	-	-	-	-	-	-	PAVEMENT_GENERAL	Urban	F	1011101000001001	0000000000000000	-	car	30.546	90.367	14.804	-0.500	180.003	696.397	825.313	-0.000	Terminate	
Unknown	150.98636	10/28/0116 05:06.03	00009059	14.698	-	-	CL	0	-	-	21.9	0.190	0.000	D	F	1831.6	178.402	0.199	-0.150	699.425	777.947	0.025	-	1.055	0.331	-	-	-	-	-	-	-	PAVEMENT_GENERAL	Urban	F	1011101000001001	0000000000000000	-	car	30.187	31.950	15.679	2.000	179.989	696.397	810.352	-0.000	Terminate	
Unknown	151.98637	10/28/0116 05:06.04	00009119	15.147	-	-	CL	0	-	-	10.1	0.185	0.000	D	F	1866.5	183.929	0.190	-0.119	699.195	763.023	0.025	-	1.066	0.425	-	-	-	-	-	-	-	PAVEMENT_GENERAL	Urban	F	1011101000001001	0000000000000000	-	car	28.433	10.721	17.679	2.000	179.998	696.403	793.689	-0.000	Terminate	
Unknown	152.98639	10/28/0116 05:06.05	00009179	15.006	Inter682t1-1	-1.659	1	1	180.000	11.111	-7.6	0.000	0.000	D	F	1473.8	183.974	0.185	0.057	698.063	747.872	0.029	-	-0.429	-0.578	-	-	-	-	-	-	-	PAVEMENT_GENERAL	Urban	F	1011101000001001	0000000000000000	-	car	26.754	20.848	16.196	-1.000	179.996	696.403	776.938	-0.000	Terminate	
Unknown	153.98642	10/28/0116 05:06.06	00009239	14.431	Inter682t1-1	-0.920	1	1	180.000	11.111	-13.4	0.000	0.000	D	F	1417.3	181.231	0.186	0.122	697.324	733.173	0.029	-	-0.871	-0.569	-	-	-	-	-	-	-	PAVEMENT_GENERAL	Urban	F	1011101000001001	0000000000000000	-	car	25.659	25.582	15.421	-0.500	179.996	696.403	761.177	-0.000	Terminate	
Unknown	154.98643	10/28/0116 05:06.07	00009299	13.897	Inter682t1-1	-0.801	1	1	180.000	11.111	2.6	0.046	0.000	D	F	1449.6	180.403	0.196	-0.020	697.205	719.023	0.029	-	0.133	-0.391	-	-	-	-	-	-	-	PAVEMENT_GENERAL	Urban	F	1011101000001001	0000000000000000	-	car	24.664	25.237	14.871	-0.500	179.995	696.403	746.034	-0.000	Terminate	
Unknown	155.98645	10/28/0116 05:06.08	00009359	13.677	Inter682t1-1	-0.639	1	1	180.000	11.111	-4.2	0.213	0.000	D	F	1858.8	180.885	0.207	0.020	697.043	705.275	0.026	-	-0.084	0.389	-	-	-	-	-	-	-	PAVEMENT_GENERAL	Urban	F	1011101000001001	0000000000000000	-	car	23.782	33.948	14.371	-0.500	179.995	696.403	731.409	-0.000	Terminate	
Unknown	156.98647	10/28/0116 05:06.09	00009419	14.227	Inter682t1-1	-0.486	1	1	180.000	11.111	0.5	0.196	0.000	D	F	1847.5	180.380	0.202	-0.001	696.890	691.301	0.024	-	-0.050	0.506	-	-	-	-	-	-	-	PAVEMENT_GENERAL	Urban	F	1011101000001001	0000000000000000	-	car	23.626	-67.280	13.874	-0.500	179.995	696.403	717.282	-0.000	Terminate	
Unknown	157.98650	10/28/0116 05:06.10	00009479	14.715	Inter682t1-1	-0.378	1	1	180.000	11.111	-2.1	0.203	0.000	D	F	1874.6	180.421	0.200	0.015	696.782	676.828	0.024	-	-0.076	0.488	-	-	-	-	-	-	-	PAVEMENT_GENERAL	Urban	F	1011101000001001	0000000000000000	-	car	24.469	-18.277	13.374	-0.500	179.995	696.403	703.654	-0.000	Terminate	
Unknown	158.98651	10/28/0116 05:06.11	00009539	15.261	Inter682t1-1	-0.232	1	1	180.000	11.111	-6.5	0.213	0.000	D	F	1927.9	180.746	0.200	0.029	696.636	661.839	0.024	-	-0.151	0.531	-	-	-	-	-	-	-	PAVEMENT_GENERAL	Urban	F	1011101000001001	0000000000000000	-	car	26.328	-11.043	12.874	-0.500	179.995	696.403	690.526	-0.000	Terminate	
Unknown	159.98653	10/28/0116 05:06.12	00009599	15.821	Inter682t1-1	-0.135	1	1	180.000	11.111	2.3	0.213	0.000	D	F	1967.3	180.307	0.199	-0.019	696.539	646.302	0.024	-	0.113	0.558	-	-	-	-	-	-	-	PAVEMENT_GENERAL	Urban	F	1011101000001001	0000000000000000	-	car	28.597	-14.690	13.874	-0.500	179.995	696.403	677.258	-0.000	Terminate	
Unknown	160.98656	10/28/0116 05:06.13	00009659	16.347	Inter682t1-1	-0.031	1	1	180.000	11.111	-2.4	0.217	0.000	D	F	1998.1	180.289	0.198	0.016	696.435	630.217	0.024	-	-0.111	0.513	-	-	-	-	-	-	-	PAVEMENT_GENERAL	Urban	F	1011101000001001	0000000000000000	-	car	30.281	-20.440	14.865	-0.500	179.995	696.403	662.857	-0.000	Terminate	
Unknown	161.98657	10/28/0116 05:06.14	00009719	16.825	Inter682t1-1	0.016	1	1	180.000	11.111	-3.1	0.203	0.000	D	F	1977.9	180.194	0.195	-0.007	696.388	613.621	0.025	-	-0.014	0.388	-	-	-	-	-	-	-	PAVEMENT_GENERAL	Urban	F	1011101000001001	0000000000000000	-	car	31.602	-27.249	15.665	1.000	179.996	696.403	647.582	-0.000	Terminate	
Unknown	162.98659	10/28/0116 05:06.15	00009779	17.245	Inter688t25-1	-0.116	1	1	180.000	11.111	0.1	0.074	0.000	D	F	1821.0	178.928	0.193	0.010	696.513	596.586	0.025	-	-0.122	0.268	-	-	-	-	-	-	-	PAVEMENT_GENERAL	Urban	F	1011101000001001	0000000000000000	-	car	32.680	-30.343	16.165	1.000	179.996	696.403	631.625	-0.000	Terminate	
Unknown	163.98662	10/28/0116 05:06.16	00009839	16.663	Inter688t29-0	-0.460	1	1	180.080	11.111	-5.3	0.000	0.000	D	F	1636.2	178.524	0.186	0.039	696.852	579.623	0.029	L	-0.309	-0.604	-	-	-	-	-	-	-	PAVEMENT_GENERAL	Urban	F	1011101000101001	0000000000000000	-	car	33.192	-254.721	16.532	0.500	179.996	696.403	615.172	-0.000	Terminate	
Unknown	164.98663	10/28/0116 05:06.17	00009899	15.328	Inter688t33-0	0.626	1	1	174.289	11.111	-3.4	0.000	0.290	D	F	1445.5	176.564	0.093	0.045	697.501	563.376	0.034	L	-0.389	-3.967	-	-	-	-	-	-	-	PAVEMENT_GENERAL	Urban	F	1011101000101001	0000000000000000	-	car	33.057	40.343	16.149	-0.500	180.011	696.398	598.776	-0.000	Terminate	
Unknown	165.98665	10/28/0116 05:06.18	00009959	12.741	Inter688t33-0	1.139	1	1	176.027	11.111	4.8	0.000	0.000	D	F	1252.1	176.566	0.204	-0.035	698.343	549.740	0.029	L	0.219	-0.538	-	-	-	-	-	-	-	PAVEMENT_GENERAL	Urban	F	1011101000101001	0000000000000000	-	car	31.708	68.737	13.222	-1.000	180.084	696.521	583.759	-0.000	Terminate	
Unknown	166.98668	10/28/0116 05:06.19	00010019	12.206	Inter688t27-1	0.928	LT1	1	179.909	11.111	-5.6	0.000	0.000	D	F	1199.1	176.809	0.192	0.033	699.033	537.286	0.029	L	-0.196	-0.531	-	-	-	-	-	-	-	PAVEMENT_GENERAL	Urban	F	1011101000101001	0000000000000000	-	car	31.480	591.962	12.297	-0.500	180.232	696.407	571.023	-0.000	Terminate	
Unknown	167.98669	10/28/0116 05:06.20	00010079	11.675	Inter688t27-1	0.044	LT1	1	179.909	11.111	-21.6	0.000	0.000	D	F	1147.0	174.117	0.191	0.118	699.936	525.380	0.029	L	-0.873	-0.531	-	-	-	-	-	-	-	PAVEMENT_GENERAL	Urban	F	1011101000101001	0000000000000000	-	car	31.421	583.669	11.797	-0.500	180.109	696.368	558.972	-0.000	Terminate	
Unknown	168.98671	10/28/0116 05:06.21	00010139	11.119	Inter688t59-0	-1.207	1	1	164.874	11.111	-81.5	0.000	0.000	D	F	1091.4	166.153	0.181	0.397	701.768	514.134	0.030	L	-2.876	-0.622	-	-	-	-	-	-	-	PAVEMENT_GENERAL	Urban	F	1011101000101001	0000000000000000	-	car	31.355	200.007	11.388	0.000	180.003	696.357	547.412	-0.000	Terminate	
Unknown	169.98674	10/28/0116 05:06.22	00010199	10.494	Inter688t59-0	-0.524	1	1	140.833	11.111	-96.5	0.000	0.000	D	F	1030.3	148.631	0.153	0.437	705.983	504.232	0.031	L	-3.362	-0.646	-	-	-	-	-	-	-	PAVEMENT_GENERAL	Urban	F	1011101000101001	0000000000000000	-	car	30.871	84.998	10.987	-4.011	179.927	696.366	536.040	-0.000	Terminate	
Unknown	170.98676	10/28/0116 05:06.23	00010259	9.822	Inter688t59-0	1.017	1	1	112.784	11.111	-168.6	0.000	0.000	D	F	961.7	127.711	0.151	0.630	712.776	496.742	0.033	L	-4.727	-0.859	-	-	-	-	-	-	-	PAVEMENT_GENERAL	Urban	F	1011101000101001	0000000000000000	-	car	32.080	-11.260	6.970	-4.025	179.918	696.378	527.027	-0.000	Terminate	
Unknown	171.98677	10/28/0116 05:06.24	00010319	8.714	-	-	SH	1	-	-	-179.3	0.016	0.000	D	F	900.9	95.802	0.061	-5.463	721.410	493.593	0.077	L	-3.481	-1.654	-	-	-	-	-	-	-	CURB	Urban	F	1011101000101001	0000000000000000	-	car	35.529	-8.484	2.925	-4.078	179.912	696.385	522.042	-0.000	Terminate	
Unknown	172.98679	10/28/0116 05:06.25	00010379	8.342	-	-	SH	1	-	-	29.5	0.026	0.000	D	F	951.8	85.519	0.880	0.370	729.934	494.090	0.018	-	0.217	-0.073	-	-	-	-	-	-	-	PAVEMENT_GENERAL	Urban	F	1011101000001001	0000000000000000	-	car	40.643	-6.684	0.000	0.000	179.887	696.387	520.993	-0.000	Terminate	
Unknown	173.98682	10/28/0116 05:06.26	00010439	8.211	-	-	SH	1	-	-	-40.7	0.067	0.000	D	F	1190.2	85.858	0.200	0.150	738.141	494.583	0.026	-	-0.936	0.085	-	-	-	-	-	-	-	PAVEMENT_GENERAL	Urban	F	1011101000001001	0000000000000000	-	car	47.046	-7.124	0.000	0.000	179.887	696.387	520.993	-0.000	Terminate	
Unknown	174.98683	10/28/0116 05:06.27	00010499	8.402	Inter688t19-0	0.723	1	1	90.090	11.111	21.2	0.118	0.000	D	F	1399.5	81.199	0.208	-0.069	746.333	495.708	0.025	-	0.468	0.442	-	-	-	-	-	-	-	PAVEMENT_GENERAL	Urban	F	1011101000001001	0000000000000000	-	car	53.622	-7.854	0.000	0.000	179.887	696.387	520.993	-0.000	Terminate	
Unknown	175.98685	10/28/0116 05:06.28	00010559	8.843	Inter688t19-0	-0.242	1	1	90.044	11.111	14.1	0.120	0.000	D	F	1416.5	85.298	0.204	-0.029	754.904	496.658	0.024	-	0.344	0.423	-	-	-	-	-	-	-	PAVEMENT_GENERAL	Urban	F	1011101000001001	0000000000000000	-	car	61.016	-7.764	0.000	0.000	179.887	696.387	520.993	-0.000	Terminate	
Unknown	176.98688	10/28/0116 05:06.29	00010619	9.260	Inter688t19-0	-0.920	1	1	90.017	11.111	4.7	0.120	0.000	D	F	1441.0	85.640	0.205	-0.021	763.932	497.328	0.024	-	0.101	0.416	-	-	-	-	-	-	-	PAVEMENT_GENERAL	Urban	F	1011101000001001	0000000000000000	-	car	69.211	-8.161	0.000	0.000	179.887	696.387	520.993	-0.000	Terminate	
Unknown	177.98689	10/28/0116 05:06.30	00010679	9.669	Inter688t19-0	-1.505	1	1	90.003	11.111	15.4	0.120	0.000	D	F	1458.8	87.349	0.204	-0.056	773.380	497.910	0.024	-	0.422	0.403	-	-	-	-	-	-	-	PAVEMENT_GENERAL	Urban	F	1011101000001001	0000000000000000	-	car	78.019	-8.551	0.000	0.000	179.887	696.387	520.993	-0.000	Terminate	
Unknown	178.98691	10/28/0116 05:06.31	00010739	10.068	-	-	CL	0	-	-	0.1	0.127	0.000	D	F	1483.2	88.402	0.204	0.003	783.243	498.208	0.024	-	-0.011	0.397	-	-	-	-	-	-	-	PAVEMENT_GENERAL	Urban	F	1011101000001001	0000000000000000	-	car	87.435	-9.048	0.000	0.000	179.887	696.387	520.993	-0.000	Terminate	
Unknown	179.98694	10/28/0116 05:06.32	00010799	10.463	-	-	CL	0	-	-	13.2	0.131	0.000	D	F	1504.3	89.833	0.203	-0.054	793.508	498.391	0.025	-	0.418	0.388	-	-	-	-	-	-	-	PAVEMENT_GENERAL	Urban	F	1011101000001001	0000000000000000	-	car	97.356	-9.560	0.000	0.000	179.887	696.387	520.993	-0.000	Terminate	
Unknown	180.98695	10/28/0116 05:06.33	00010859	10.852	-	-	CL	0	-	-	-4.6	0.136	0.000	D	F	1531.8	90.730	0.204	0.020	804.165	498.275	0.025	-	-0.132	0.391	-	-	-	-	-	-	-	PAVEMENT_GENERAL	Urban	F	1011101000001001	0000000000000000	-	car	107.786	-10.125	0.000	0.000	179.887	696.387	520.993	-0.000	Terminate	
Unknown	181.98697	10/28/0116 05:06.34	00010919	11.275	-	-	CL	0	-	-	-10.2	0.159	0.000	D	F	1606.8	89.972	0.205	0.051	815.219	498.206	0.024	-	-0.325	0.486	-	-	-	-	-	-	-	PAVEMENT_GENERAL	Urban	F	1011101000001001	0000000000000000	-	car	118.638	-10.715	0.000	0.000	179.887	696.387	520.993	-0.000	Terminate	
