"Name"	"Project"	"Time"	ZoneName	Time	SystemTime	Frame	Velocity	LaneName	LanePos	LaneIndex	LaneCount	LaneHeading	SpeedLimit	Steer	Accel	Brake	Gear	Horn	SubjectEngineRPM	SubjectHeading	SubjectPitch	SubjectRoll	SubjectX	SubjectY	SubjectZ	Signal	LatAccel	LongAccel	Collision	CollisionAngle	CollisionVelocity	VehAhead	HeadwayTime	HeadwayDist	TTC	TerrainType	CultureType	Slip	DigitalInputs	DigitalInputs2	ActiveTrigger	EntityName	DistToEntity	TimeToEntity	EntityVelocity	EntityAccel	EntityHeading	EntityX	EntityY	EntityZ	GrabData	
"Student8Mode3"	"Tanvi_6"	"Nov 29, 2016 09:55:21 AM"	Unknown	0.98335	10/29/0116 09:55.25	00000059	0.002	Inter625t13-0	-0.088	1	2	0.000	11.111	-5.1	0.000	0.000	D	F	0.0	0.000	0.153	0.002	1503.500	523.206	0.019	-	0.000	0.000	-	-	-	-	-	-	-	PAVEMENT_GENERAL	Urban	F	1011101000010101	0000000000000000	-	car	928.855	774634.938	0.000	0.000	180.000	696.000	987.000	-0.000	Terminate	
"Student8Mode3"	"Tanvi_6"	"Nov 29, 2016 09:55:21 AM"	Unknown	1.98337	10/29/0116 09:55.26	00000119	0.000	Inter625t13-0	-0.088	1	2	0.000	11.111	-4.2	0.000	0.000	D	F	0.0	0.000	0.197	0.000	1503.500	523.208	0.026	-	-0.000	-0.001	-	-	-	-	-	-	-	PAVEMENT_GENERAL	Urban	F	1011101000010101	0000000000000000	-	car	928.855	4213015.500	0.000	0.000	180.000	696.000	987.000	-0.000	Terminate	
"Student8Mode3"	"Tanvi_6"	"Nov 29, 2016 09:55:21 AM"	Unknown	2.98339	10/29/0116 09:55.27	00000179	-0.000	Inter625t13-0	-0.088	1	2	0.000	11.111	-4.2	0.000	0.000	D	F	0.0	0.000	0.207	0.000	1503.500	523.208	0.028	-	-0.000	-0.000	-	-	-	-	-	-	-	PAVEMENT_GENERAL	Urban	F	1011101000010101	0000000000000000	-	car	928.854	-116195680.000	0.000	0.000	180.000	696.000	987.000	-0.000	Terminate	
"Student8Mode3"	"Tanvi_6"	"Nov 29, 2016 09:55:21 AM"	Unknown	3.98341	10/29/0116 09:55.28	00000239	-0.000	Inter625t13-0	-0.088	1	2	0.000	11.111	-4.8	0.000	0.000	D	F	0.0	0.000	0.210	0.000	1503.500	523.208	0.028	-	-0.000	-0.000	-	-	-	-	-	-	-	PAVEMENT_GENERAL	Urban	F	1111101000010101	0000000000000000	-	car	928.854	-22309372.000	0.000	0.000	180.000	696.000	987.000	-0.000	Terminate	
"Student8Mode3"	"Tanvi_6"	"Nov 29, 2016 09:55:21 AM"	Unknown	4.98343	10/29/0116 09:55.29	00000299	-0.000	Inter625t13-0	-0.088	1	2	0.000	11.111	-4.1	0.000	0.000	D	F	0.0	0.000	0.210	0.000	1503.500	523.208	0.028	-	-0.000	0.000	-	-	-	-	-	-	-	PAVEMENT_GENERAL	Urban	F	1011101000010101	0000000000000000	-	car	928.854	-24860806.000	0.000	0.000	180.000	696.000	987.000	-0.000	Terminate	
"Student8Mode3"	"Tanvi_6"	"Nov 29, 2016 09:55:21 AM"	Unknown	5.98345	10/29/0116 09:55.30	00000359	-0.000	Inter625t13-0	-0.088	1	2	0.000	11.111	-0.8	0.000	0.000	D	F	0.0	0.000	0.209	0.000	1503.500	523.208	0.028	-	-0.000	0.000	-	-	-	-	-	-	-	PAVEMENT_GENERAL	Urban	F	1011101000010101	0000000000000000	-	car	928.855	-34383936.000	0.000	0.000	180.000	696.000	987.000	-0.000	Terminate	
"Student8Mode3"	"Tanvi_6"	"Nov 29, 2016 09:55:21 AM"	Unknown	6.98347	10/29/0116 09:55.31	00000419	-0.000	Inter625t13-0	-0.088	1	2	0.000	11.111	0.5	0.000	0.000	D	F	0.0	0.000	0.209	-0.000	1503.500	523.208	0.028	-	0.000	0.000	-	-	-	-	-	-	-	PAVEMENT_GENERAL	Urban	F	1011101000010101	0000000000000000	-	car	928.855	-48196024.000	0.000	0.000	180.000	696.000	987.000	-0.000	Terminate	
"Student8Mode3"	"Tanvi_6"	"Nov 29, 2016 09:55:21 AM"	Unknown	7.98349	10/29/0116 09:55.32	00000479	-0.000	Inter625t13-0	-0.088	1	2	0.000	11.111	-0.3	0.000	0.000	D	F	0.0	0.000	0.209	-0.000	1503.500	523.208	0.028	-	-0.000	0.000	-	-	-	-	-	-	-	PAVEMENT_GENERAL	Urban	F	1011101000010101	0000000000000000	-	car	928.855	-64941796.000	0.000	0.000	180.000	696.000	987.000	-0.000	Terminate	
"Student8Mode3"	"Tanvi_6"	"Nov 29, 2016 09:55:21 AM"	Unknown	8.98351	10/29/0116 09:55.33	00000539	-0.000	Inter625t13-0	-0.088	1	2	0.000	11.111	-4.9	0.000	0.000	D	F	0.0	0.000	0.209	0.000	1503.500	523.208	0.028	-	-0.000	0.000	-	-	-	-	-	-	-	PAVEMENT_GENERAL	Urban	F	1011101000010101	0000000000000000	-	car	928.855	-83382160.000	0.000	0.000	180.000	696.000	987.000	-0.000	Terminate	
"Student8Mode3"	"Tanvi_6"	"Nov 29, 2016 09:55:21 AM"	Unknown	9.98353	10/29/0116 09:55.34	00000599	0.000	Inter625t13-0	-0.088	1	2	0.000	11.111	-1.9	0.007	0.000	D	F	183.3	0.000	0.209	0.000	1503.500	523.208	0.028	-	-0.000	0.000	-	-	-	-	-	-	-	PAVEMENT_GENERAL	Urban	F	1011101000010111	0000000000000000	-	car	928.855	36462668.000	0.000	0.000	180.000	696.000	987.000	-0.000	Terminate	
"Student8Mode3"	"Tanvi_6"	"Nov 29, 2016 09:55:21 AM"	Unknown	10.98355	10/29/0116 09:55.35	00000659	0.203	Inter625t13-0	-0.088	1	2	0.000	11.111	0.6	0.072	0.000	D	F	1035.1	0.001	0.225	0.001	1503.500	523.236	0.019	-	0.001	1.300	-	-	-	-	-	-	-	PAVEMENT_GENERAL	Urban	F	1011101000010101	0000000000000000	-	car	928.841	9193.598	0.000	0.000	180.000	696.000	987.000	-0.000	Terminate	
"Student8Mode3"	"Tanvi_6"	"Nov 29, 2016 09:55:21 AM"	Unknown	11.98357	10/29/0116 09:55.36	00000719	2.046	Inter625t13-0	-0.085	1	2	0.000	11.111	7.1	0.076	0.000	D	F	1168.1	0.091	0.222	-0.005	1503.503	524.376	0.018	-	0.033	1.748	-	-	-	-	-	-	-	PAVEMENT_GENERAL	Urban	F	1011101000010101	0000000000000000	-	car	928.276	915.239	0.000	0.000	180.000	696.000	987.000	-0.000	Terminate	
"Student8Mode3"	"Tanvi_6"	"Nov 29, 2016 09:55:21 AM"	Unknown	12.98359	10/29/0116 09:55.37	00000779	3.632	Inter625t13-0	-0.065	1	2	0.000	11.111	-1.9	0.111	0.000	D	F	1432.4	0.335	0.215	0.004	1503.523	527.230	0.019	-	-0.013	1.489	-	-	-	-	-	-	-	PAVEMENT_GENERAL	Urban	F	1011101000010101	0000000000000000	-	car	926.878	521.192	0.000	0.000	180.000	696.000	987.000	-0.000	Terminate	
"Student8Mode3"	"Tanvi_6"	"Nov 29, 2016 09:55:21 AM"	Unknown	13.98361	10/29/0116 09:55.38	00000839	5.930	Inter625t13-0	-0.033	1	2	0.000	11.111	0.3	0.198	0.000	D	F	1963.6	0.452	0.212	0.004	1503.555	532.031	0.016	-	-0.011	1.882	-	-	-	-	-	-	-	PAVEMENT_GENERAL	Urban	F	1111101000010101	0000000000000000	-	car	924.540	322.121	0.000	0.000	180.000	696.000	987.000	-0.000	Terminate	
"Student8Mode3"	"Tanvi_6"	"Nov 29, 2016 09:55:21 AM"	Unknown	14.98363	10/29/0116 09:55.39	00000899	7.540	Inter625t49-0	0.024	1	1	0.006	11.111	-0.3	0.185	0.000	D	F	1723.0	0.487	0.211	0.000	1503.613	538.837	0.020	-	-0.005	1.289	-	-	-	-	-	-	-	PAVEMENT_GENERAL	Urban	F	1111101000010101	0000000000000000	-	car	921.268	255.744	0.000	0.000	180.000	696.000	987.000	-0.000	Terminate	
"Student8Mode3"	"Tanvi_6"	"Nov 29, 2016 09:55:21 AM"	Unknown	15.98365	10/29/0116 09:55.40	00000959	8.703	Inter625t49-0	0.076	1	1	0.008	11.111	-0.6	0.182	0.000	D	F	1775.6	0.257	0.211	0.001	1503.666	546.976	0.021	-	-0.015	1.060	-	-	-	-	-	-	-	PAVEMENT_GENERAL	Urban	F	1011101000010101	0000000000000000	-	car	917.393	222.160	0.000	0.000	180.000	696.000	987.000	-0.000	Terminate	
"Student8Mode3"	"Tanvi_6"	"Nov 29, 2016 09:55:21 AM"	Unknown	16.98367	10/29/0116 09:55.41	00001019	9.656	Inter625t49-0	0.106	1	1	0.007	11.111	-0.6	0.178	0.000	D	F	1825.7	0.142	0.208	0.002	1503.696	556.173	0.022	-	-0.018	0.855	-	-	-	-	-	-	-	PAVEMENT_GENERAL	Urban	F	1011101000010101	0000000000000000	-	car	913.056	201.844	0.000	0.000	180.000	696.000	987.000	-0.000	Terminate	
"Student8Mode3"	"Tanvi_6"	"Nov 29, 2016 09:55:21 AM"	Unknown	17.98369	10/29/0116 09:55.42	00001079	10.472	Inter625t49-0	0.122	1	1	0.005	11.111	-0.4	0.178	0.000	D	F	1897.9	0.072	0.207	0.002	1503.714	566.243	0.023	-	-0.012	0.777	-	-	-	-	-	-	-	PAVEMENT_GENERAL	Urban	F	1011101000010101	0000000000000000	-	car	908.375	188.214	0.000	0.000	180.000	696.000	987.000	-0.000	Terminate	
"Student8Mode3"	"Tanvi_6"	"Nov 29, 2016 09:55:21 AM"	Unknown	18.98371	10/29/0116 09:55.43	00001139	11.305	Inter625t49-0	0.126	1	1	0.005	11.111	0.2	0.236	0.000	D	F	2075.8	0.000	0.213	-0.002	1503.719	577.106	0.022	-	0.000	1.055	-	-	-	-	-	-	-	PAVEMENT_GENERAL	Urban	F	1011101000010101	0000000000000000	-	car	903.413	176.519	0.000	0.000	180.000	696.000	987.000	-0.000	Terminate	
"Student8Mode3"	"Tanvi_6"	"Nov 29, 2016 09:55:21 AM"	Unknown	19.98373	10/29/0116 09:55.44	00001199	12.645	Inter625t15-0	0.122	1	2	0.000	11.111	-0.2	0.422	0.000	D	F	2339.0	0.000	0.214	0.001	1503.715	589.044	0.020	-	-0.010	1.481	-	-	-	-	-	-	-	PAVEMENT_GENERAL	Urban	F	1011101000010101	0000000000000000	-	car	898.070	160.493	0.000	0.000	180.000	696.000	987.000	-0.000	Terminate	
"Student8Mode3"	"Tanvi_6"	"Nov 29, 2016 09:55:21 AM"	Unknown	20.98375	10/29/0116 09:55.45	00001259	13.722	Inter614t1-0	0.109	1	2	0.000	11.111	-0.1	0.081	0.000	D	F	1649.0	359.928	0.192	0.001	1503.702	602.345	0.024	-	-0.005	0.211	-	-	-	-	-	-	-	PAVEMENT_GENERAL	Urban	F	1011101000010101	0000000000000000	-	car	892.259	150.826	0.000	0.000	180.000	696.000	987.000	-0.000	Terminate	
"Student8Mode3"	"Tanvi_6"	"Nov 29, 2016 09:55:21 AM"	Unknown	21.98377	10/29/0116 09:55.46	00001319	13.772	Inter614t1-0	0.089	1	2	0.000	11.111	-0.8	0.131	0.000	D	F	1639.9	359.899	0.197	0.004	1503.683	616.059	0.026	-	-0.026	0.156	-	-	-	-	-	-	-	PAVEMENT_GENERAL	Urban	F	1011101000010101	0000000000000000	-	car	886.431	153.636	0.000	0.000	180.000	696.000	987.000	-0.000	Terminate	
"Student8Mode3"	"Tanvi_6"	"Nov 29, 2016 09:55:21 AM"	Unknown	22.98379	10/29/0116 09:55.47	00001379	13.918	Inter614t1-0	0.047	1	2	0.000	11.111	0.1	0.122	0.000	D	F	1628.8	359.797	0.197	-0.000	1503.641	629.907	0.026	-	0.005	0.124	-	-	-	-	-	-	-	PAVEMENT_GENERAL	Urban	F	1111101000010101	0000000000000000	-	car	880.702	155.243	0.000	0.000	180.000	696.000	987.000	-0.000	Terminate	
"Student8Mode3"	"Tanvi_6"	"Nov 29, 2016 09:55:21 AM"	Unknown	23.98381	10/29/0116 09:55.48	00001439	14.005	Inter614t1-0	-0.006	1	2	0.000	11.111	-0.7	0.118	0.000	D	F	1625.6	359.729	0.196	0.004	1503.587	643.869	0.026	-	-0.032	0.083	-	-	-	-	-	-	-	PAVEMENT_GENERAL	Urban	F	1011101000010101	0000000000000000	-	car	875.100	158.027	0.000	0.000	180.000	696.000	987.000	-0.000	Terminate	
"Student8Mode3"	"Tanvi_6"	"Nov 29, 2016 09:55:21 AM"	Unknown	24.98383	10/29/0116 09:55.49	00001499	14.395	Inter614t1-0	-0.074	1	2	0.000	11.111	0.5	0.243	0.000	D	F	1933.3	359.768	0.198	-0.004	1503.519	657.993	0.023	-	0.025	0.718	-	-	-	-	-	-	-	PAVEMENT_GENERAL	Urban	F	1011101000010101	0000000000000000	-	car	869.611	158.536	0.000	0.000	180.000	696.000	987.000	-0.000	Terminate	
"Student8Mode3"	"Tanvi_6"	"Nov 29, 2016 09:55:21 AM"	Unknown	25.98385	10/29/0116 09:55.50	00001559	15.060	Inter614t1-0	-0.130	1	2	0.000	11.111	-0.0	0.228	0.000	D	F	1951.9	359.784	0.201	0.000	1503.464	672.727	0.024	-	-0.003	0.634	-	-	-	-	-	-	-	PAVEMENT_GENERAL	Urban	F	1011101000010101	0000000000000000	-	car	864.108	156.672	0.000	0.000	180.000	696.000	987.000	-0.000	Terminate	
"Student8Mode3"	"Tanvi_6"	"Nov 29, 2016 09:55:21 AM"	Unknown	26.98387	10/29/0116 09:55.51	00001619	15.646	Inter614t1-0	-0.189	1	2	0.000	11.111	-2.7	0.219	0.000	D	F	1964.2	359.670	0.199	0.017	1503.404	688.088	0.024	-	-0.124	0.558	-	-	-	-	-	-	-	PAVEMENT_GENERAL	Urban	F	1011101000010101	0000000000000000	-	car	858.599	155.647	0.000	0.000	180.000	696.000	987.000	-0.000	Terminate	
"Student8Mode3"	"Tanvi_6"	"Nov 29, 2016 09:55:21 AM"	Unknown	27.98389	10/29/0116 09:55.52	00001679	16.200	Inter614t1-0	-0.316	1	2	0.000	11.111	3.9	0.222	0.000	D	F	1998.9	359.697	0.199	-0.028	1503.277	704.011	0.024	-	0.203	0.540	-	-	-	-	-	-	-	PAVEMENT_GENERAL	Urban	F	1011101000010101	0000000000000000	-	car	853.081	156.820	0.000	0.000	180.000	696.000	987.000	-0.000	Terminate	
"Student8Mode3"	"Tanvi_6"	"Nov 29, 2016 09:55:21 AM"	Unknown	28.98391	10/29/0116 09:55.53	00001739	16.731	Inter614t1-0	-0.354	1	2	0.000	11.111	0.0	0.226	0.000	D	F	2029.2	359.947	0.198	-0.001	1503.239	720.479	0.024	-	0.009	0.518	-	-	-	-	-	-	-	PAVEMENT_GENERAL	Urban	F	1011101000010101	0000000000000000	-	car	847.739	161.156	0.000	0.000	180.000	696.000	987.000	-0.000	Terminate	
"Student8Mode3"	"Tanvi_6"	"Nov 29, 2016 09:55:21 AM"	Unknown	29.98393	10/29/0116 09:55.54	00001799	17.233	Inter614t1-0	-0.376	1	2	0.000	11.111	-0.1	0.226	0.000	D	F	2053.7	359.878	0.196	0.003	1503.217	737.464	0.024	-	-0.021	0.486	-	-	-	-	-	-	-	PAVEMENT_GENERAL	Urban	F	1111101000010101	0000000000000000	-	car	842.547	164.408	0.000	0.000	180.000	696.000	987.000	-0.000	Terminate	
"Student8Mode3"	"Tanvi_6"	"Nov 29, 2016 09:55:21 AM"	Unknown	30.98395	10/29/0116 09:55.55	00001859	17.671	Inter614t1-0	-0.401	1	2	0.000	11.111	0.7	0.187	0.000	D	F	2011.2	0.000	0.190	-0.005	1503.192	754.931	0.025	-	0.042	0.264	-	-	-	-	-	-	-	PAVEMENT_GENERAL	Urban	F	1011101000010101	0000000000000000	-	car	837.530	171.462	0.000	0.000	180.000	696.000	987.000	-0.000	Terminate	
"Student8Mode3"	"Tanvi_6"	"Nov 29, 2016 09:55:21 AM"	Unknown	31.98397	10/29/0116 09:55.56	00001919	17.837	Inter614t1-0	-0.393	1	2	0.000	11.111	-1.1	0.148	0.000	D	F	1962.7	0.048	0.192	0.001	1503.200	772.702	0.026	-	-0.015	0.097	-	-	-	-	-	-	-	PAVEMENT_GENERAL	Urban	F	1011101000010101	0000000000000000	-	car	832.802	182.534	0.000	0.000	180.000	696.000	987.000	-0.000	Terminate	
"Student8Mode3"	"Tanvi_6"	"Nov 29, 2016 09:55:21 AM"	Unknown	32.98399	10/29/0116 09:55.57	00001979	17.928	Inter614t1-0	-0.445	1	2	0.000	11.111	-2.2	0.152	0.000	D	F	1970.8	359.567	0.192	0.020	1503.148	790.584	0.026	-	-0.142	0.091	-	-	-	-	-	-	-	PAVEMENT_GENERAL	Urban	F	1011101000010101	0000000000000000	-	car	828.344	189.535	0.000	0.000	180.000	696.000	987.000	-0.000	Terminate	
"Student8Mode3"	"Tanvi_6"	"Nov 29, 2016 09:55:21 AM"	Unknown	33.98401	10/29/0116 09:55.58	00002039	18.014	Inter612t1-0	-0.622	1	2	0.000	11.111	0.3	0.152	0.000	D	F	1977.0	359.388	0.192	0.000	1502.971	808.554	0.026	-	0.020	0.089	-	-	-	-	-	-	-	PAVEMENT_GENERAL	Urban	F	1011101000010101	0000000000000000	-	car	824.106	202.141	0.000	0.000	180.000	696.000	987.000	-0.000	Terminate	
"Student8Mode3"	"Tanvi_6"	"Nov 29, 2016 09:55:21 AM"	Unknown	34.98403	10/29/0116 09:55.59	00002099	18.097	Inter612t1-0	-0.757	1	2	0.000	11.111	2.2	0.152	0.000	D	F	1985.4	359.872	0.191	-0.019	1502.836	826.608	0.026	-	0.156	0.091	-	-	-	-	-	-	-	PAVEMENT_GENERAL	Urban	F	1011101000010101	0000000000000000	-	car	820.265	229.880	0.000	0.000	180.000	696.000	987.000	-0.000	Terminate	
"Student8Mode3"	"Tanvi_6"	"Nov 29, 2016 09:55:21 AM"	Unknown	35.98405	10/29/0116 09:56.00	00002159	18.177	Inter612t1-0	-0.766	1	2	0.000	11.111	-0.5	0.148	0.000	D	F	1988.5	0.000	0.191	0.004	1502.827	844.748	0.026	-	-0.047	0.068	-	-	-	-	-	-	-	PAVEMENT_GENERAL	Urban	F	1011101000010101	0000000000000000	-	car	816.912	257.652	0.000	0.000	180.000	696.000	987.000	-0.000	Terminate	
"Student8Mode3"	"Tanvi_6"	"Nov 29, 2016 09:55:21 AM"	Unknown	36.98407	10/29/0116 09:56.01	00002219	18.252	Inter612t1-0	-0.797	1	2	0.000	11.111	-1.2	0.152	0.000	D	F	1998.5	359.791	0.191	0.010	1502.796	862.963	0.026	-	-0.077	0.077	-	-	-	-	-	-	-	PAVEMENT_GENERAL	Urban	F	1011101000010101	0000000000000000	-	car	813.915	286.669	0.000	0.000	180.000	696.000	987.000	-0.000	Terminate	
"Student8Mode3"	"Tanvi_6"	"Nov 29, 2016 09:55:21 AM"	Unknown	37.98409	10/29/0116 09:56.02	00002279	18.335	Inter612t1-0	-0.893	1	2	0.000	11.111	-0.0	0.155	0.000	D	F	2010.2	359.599	0.191	0.004	1502.700	881.255	0.026	-	-0.030	0.099	-	-	-	-	-	-	-	PAVEMENT_GENERAL	Urban	F	1011101000010101	0000000000000000	-	car	811.242	323.168	0.000	0.000	180.000	696.000	987.000	-0.000	Terminate	
"Student8Mode3"	"Tanvi_6"	"Nov 29, 2016 09:55:21 AM"	Unknown	38.98411	10/29/0116 09:56.03	00002339	18.431	Inter612t1-0	-1.025	1	2	0.000	11.111	5.4	0.157	0.000	D	F	2020.6	359.582	0.191	-0.023	1502.568	899.637	0.026	-	0.154	0.100	-	-	-	-	-	-	-	PAVEMENT_GENERAL	Urban	F	1011101000010101	0000000000000000	-	car	808.926	381.865	0.000	0.000	180.000	696.000	987.000	-0.000	Terminate	
"Student8Mode3"	"Tanvi_6"	"Nov 29, 2016 09:55:21 AM"	Unknown	39.98413	10/29/0116 09:56.04	00002399	18.532	Inter612t1-0	-0.971	1	2	0.000	11.111	-1.1	0.159	0.000	D	F	2032.5	0.743	0.190	-0.007	1502.622	918.117	0.026	-	0.096	0.106	-	-	-	-	-	-	-	PAVEMENT_GENERAL	Urban	F	1011101000010101	0000000000000000	-	car	807.199	603.645	0.000	0.000	180.000	696.000	987.000	-0.000	Terminate	
"Student8Mode3"	"Tanvi_6"	"Nov 29, 2016 09:55:21 AM"	Unknown	40.98415	10/29/0116 09:56.05	00002459	18.628	Inter612t1-0	-0.797	1	2	0.000	11.111	2.4	0.155	0.000	D	F	2037.7	0.365	0.190	-0.009	1502.796	936.700	0.026	-	0.035	0.081	-	-	-	-	-	-	-	PAVEMENT_GENERAL	Urban	F	1011101000010101	0000000000000000	-	car	806.003	774.396	0.000	0.000	180.000	696.000	987.000	-0.000	Terminate	
"Student8Mode3"	"Tanvi_6"	"Nov 29, 2016 09:55:21 AM"	Unknown	41.98417	10/29/0116 09:56.06	00002519	18.715	Inter612t1-0	-0.656	1	2	0.000	11.111	-5.3	0.153	0.000	D	F	2042.2	0.255	0.190	0.041	1502.937	955.371	0.026	-	-0.263	0.079	-	-	-	-	-	-	-	PAVEMENT_GENERAL	Urban	F	1011101000010101	0000000000000000	-	car	805.197	1239.150	0.000	0.000	180.000	696.000	987.000	-0.000	Terminate	
"Student8Mode3"	"Tanvi_6"	"Nov 29, 2016 09:55:21 AM"	Unknown	42.98419	10/29/0116 09:56.07	00002579	18.793	Inter612t1-0	-0.659	1	2	0.000	11.111	3.1	0.157	0.000	D	F	2051.2	0.000	0.190	-0.027	1502.935	974.126	0.026	-	0.148	0.072	-	-	-	-	-	-	-	PAVEMENT_GENERAL	Urban	F	1011101000010101	0000000000000000	-	car	804.678	2593.719	0.000	0.000	180.000	696.000	987.000	-0.000	Terminate	
"Student8Mode3"	"Tanvi_6"	"Nov 29, 2016 09:55:21 AM"	Unknown	43.98421	10/29/0116 09:56.08	00002639	18.872	Inter612t1-0	-0.635	1	2	0.000	11.111	0.4	0.155	0.000	D	F	2060.3	0.130	0.190	-0.003	1502.958	992.959	0.026	-	0.021	0.079	-	-	-	-	-	-	-	PAVEMENT_GENERAL	Urban	F	1011101000010101	0000000000000000	-	car	804.620	-4420.914	0.000	0.000	180.000	696.000	987.000	-0.000	Terminate	
"Student8Mode3"	"Tanvi_6"	"Nov 29, 2016 09:55:21 AM"	Unknown	44.98423	10/29/0116 09:56.09	00002699	18.955	Inter613t1-0	-0.583	1	2	0.000	11.111	0.3	0.159	0.000	D	F	2066.7	0.198	0.190	-0.003	1503.010	1011.873	0.026	-	0.022	0.074	-	-	-	-	-	-	-	PAVEMENT_GENERAL	Urban	F	1011101000010101	0000000000000000	-	car	805.034	-1239.511	0.000	0.000	180.000	696.000	987.000	-0.000	Terminate	
"Student8Mode3"	"Tanvi_6"	"Nov 29, 2016 09:55:21 AM"	Unknown	45.98425	10/29/0116 09:56.10	00002759	19.034	Inter613t1-0	-0.536	1	2	0.000	11.111	0.2	0.159	0.000	D	F	2074.6	0.054	0.190	0.001	1503.057	1030.868	0.026	-	-0.012	0.075	-	-	-	-	-	-	-	PAVEMENT_GENERAL	Urban	F	1011101000010101	0000000000000000	-	car	805.889	-766.819	0.000	0.000	180.000	696.000	987.000	-0.000	Terminate	
"Student8Mode3"	"Tanvi_6"	"Nov 29, 2016 09:55:21 AM"	Unknown	46.98427	10/29/0116 09:56.11	00002819	19.109	Inter613t1-0	-0.502	1	2	0.000	11.111	1.0	0.153	0.000	D	F	2080.6	0.195	0.190	-0.007	1503.091	1049.939	0.026	-	0.068	0.073	-	-	-	-	-	-	-	PAVEMENT_GENERAL	Urban	F	1011101000010101	0000000000000000	-	car	807.182	-520.596	0.000	0.000	180.000	696.000	987.000	-0.000	Terminate	
"Student8Mode3"	"Tanvi_6"	"Nov 29, 2016 09:55:21 AM"	Unknown	47.98429	10/29/0116 09:56.12	00002879	19.178	Inter613t1-0	-0.418	1	2	0.000	11.111	0.5	0.155	0.000	D	F	2084.9	0.314	0.190	-0.005	1503.175	1069.084	0.026	-	0.031	0.064	-	-	-	-	-	-	-	PAVEMENT_GENERAL	Urban	F	1011101000010101	0000000000000000	-	car	808.979	-395.612	0.000	0.000	180.000	696.000	987.000	-0.000	Terminate	
"Student8Mode3"	"Tanvi_6"	"Nov 29, 2016 09:55:21 AM"	Unknown	48.98431	10/29/0116 09:56.13	00002939	19.243	Inter613t1-0	-0.279	1	2	0.000	11.111	-0.7	0.155	0.000	D	F	2093.3	0.531	0.189	-0.005	1503.315	1088.294	0.026	-	0.008	0.070	-	-	-	-	-	-	-	PAVEMENT_GENERAL	Urban	F	1011101000010101	0000000000000000	-	car	811.285	-315.364	0.000	0.000	180.000	696.000	987.000	-0.000	Terminate	
"Student8Mode3"	"Tanvi_6"	"Nov 29, 2016 09:55:21 AM"	Unknown	49.98433	10/29/0116 09:56.14	00002999	19.317	Inter613t1-0	-0.192	1	2	0.000	11.111	-0.5	0.157	0.000	D	F	2099.9	359.749	0.189	0.014	1503.401	1107.574	0.026	-	-0.189	0.070	-	-	-	-	-	-	-	PAVEMENT_GENERAL	Urban	F	1011101000010101	0000000000000000	-	car	813.995	-293.931	0.000	0.000	180.000	696.000	987.000	-0.000	Terminate	
"Student8Mode3"	"Tanvi_6"	"Nov 29, 2016 09:55:21 AM"	Unknown	50.98435	10/29/0116 09:56.15	00003059	19.385	Inter613t1-0	-0.278	1	2	0.000	11.111	-1.2	0.159	0.000	D	F	2106.9	359.669	0.189	0.008	1503.315	1126.925	0.026	-	-0.061	0.070	-	-	-	-	-	-	-	PAVEMENT_GENERAL	Urban	F	1111101000010101	0000000000000000	-	car	816.992	-255.295	0.000	0.000	180.000	696.000	987.000	-0.000	Terminate	
"Student8Mode3"	"Tanvi_6"	"Nov 29, 2016 09:55:21 AM"	Unknown	51.98437	10/29/0116 09:56.17	00003119	19.448	Inter613t1-0	-0.433	1	2	0.000	11.111	-1.4	0.153	0.000	D	F	2105.9	359.335	0.189	0.017	1503.161	1146.343	0.026	-	-0.124	0.047	-	-	-	-	-	-	-	PAVEMENT_GENERAL	Urban	F	1011101000010101	0000000000000000	-	car	820.379	-231.434	0.000	0.000	180.000	696.000	987.000	-0.000	Terminate	
"Student8Mode3"	"Tanvi_6"	"Nov 29, 2016 09:55:21 AM"	Unknown	52.98439	10/29/0116 09:56.18	00003179	19.449	Inter613t1-0	-0.560	1	2	0.000	11.111	2.1	0.125	0.000	D	F	1999.5	0.317	0.186	-0.037	1503.033	1165.801	0.027	-	0.341	-0.037	-	-	-	-	-	-	-	PAVEMENT_GENERAL	Urban	F	1011101000010101	0000000000000000	-	car	824.243	-191.144	0.000	0.000	180.000	696.000	987.000	-0.000	Terminate	
"Student8Mode3"	"Tanvi_6"	"Nov 29, 2016 09:55:21 AM"	Unknown	53.98441	10/29/0116 09:56.19	00003239	19.103	Inter613t1-0	-0.445	1	2	0.000	11.111	-2.5	0.000	0.000	D	F	1310.8	0.244	0.182	0.026	1503.148	1185.138	0.029	-	-0.175	-0.588	-	-	-	-	-	-	-	PAVEMENT_GENERAL	Urban	F	1011101000010101	0000000000000000	-	car	828.752	-178.872	0.000	0.000	180.000	696.000	987.000	-0.000	Terminate	
"Student8Mode3"	"Tanvi_6"	"Nov 29, 2016 09:55:21 AM"	Unknown	54.98443	10/29/0116 09:56.20	00003299	18.518	Inter615t9-0	-0.468	1	2	0.000	11.111	0.3	0.000	0.000	D	F	1262.9	359.659	0.184	0.001	1503.125	1203.948	0.029	-	-0.027	-0.582	-	-	-	-	-	-	-	PAVEMENT_GENERAL	Urban	F	1111101000010101	0000000000000000	-	car	833.414	-177.314	0.000	0.000	180.000	696.000	987.000	-0.000	Terminate	
"Student8Mode3"	"Tanvi_6"	"Nov 29, 2016 09:55:21 AM"	Unknown	55.98445	10/29/0116 09:56.21	00003359	15.243	Inter615t33-0	-0.653	1	1	0.074	11.111	-14.9	0.000	0.469	D	F	969.4	358.488	0.029	0.120	1502.945	1221.276	0.041	-	-0.662	-5.850	-	-	-	22	3.496	53.297	3.496	PAVEMENT_GENERAL	Urban	F	1011101000010101	0000000000000000	-	car	837.906	-216.951	0.000	0.000	180.000	696.000	987.000	-0.000	Terminate	
"Student8Mode3"	"Tanvi_6"	"Nov 29, 2016 09:55:21 AM"	Unknown	56.98447	10/29/0116 09:56.22	00003419	10.097	Inter615t31-0	-0.483	1	1	354.286	11.111	-33.4	0.000	0.388	D	F	923.3	352.975	0.041	0.199	1502.177	1233.874	0.040	-	-1.251	-5.013	-	-	-	22	4.026	40.650	4.026	PAVEMENT_GENERAL	Urban	F	1011101000010101	0000000000000000	-	car	840.770	-479.444	0.000	0.000	180.000	696.000	987.000	-0.000	Terminate	
"Student8Mode3"	"Tanvi_6"	"Nov 29, 2016 09:55:21 AM"	Unknown	57.98449	10/29/0116 09:56.23	00003479	7.030	Inter615t31-0	-0.797	1	1	355.569	11.111	30.8	0.000	0.024	D	F	690.7	352.748	0.191	-0.064	1501.041	1242.024	0.031	-	0.577	-0.956	-	-	-	22	4.621	32.490	4.621	PAVEMENT_GENERAL	Urban	F	1011101000010101	0000000000000000	-	car	842.110	-668.251	0.000	0.000	180.000	696.000	987.000	-0.000	Terminate	
"Student8Mode3"	"Tanvi_6"	"Nov 29, 2016 09:55:21 AM"	Unknown	58.98451	10/29/0116 09:56.24	00003539	6.559	Inter615t31-0	-0.622	1	1	356.628	11.111	29.7	0.000	0.009	D	F	644.7	357.366	0.196	-0.045	1500.536	1248.797	0.028	-	0.391	-0.476	-	-	-	22	3.918	25.701	3.918	PAVEMENT_GENERAL	Urban	F	1011101000010101	0000000000000000	-	car	843.699	-484.673	0.000	0.000	180.000	696.000	987.000	-0.000	Terminate	
"Student8Mode3"	"Tanvi_6"	"Nov 29, 2016 09:55:21 AM"	Unknown	59.98453	10/29/0116 09:56.25	00003599	5.916	Inter615t31-0	-0.319	1	1	356.903	11.111	5.4	0.000	0.060	D	F	577.0	359.122	0.188	-0.008	1500.417	1255.080	0.029	-	0.082	-1.003	-	-	-	22	3.287	19.448	3.287	PAVEMENT_GENERAL	Urban	F	1011101000010101	0000000000000000	-	car	845.552	-473.931	0.000	0.000	180.000	696.000	987.000	-0.000	Terminate	
"Student8Mode3"	"Tanvi_6"	"Nov 29, 2016 09:55:21 AM"	Unknown	60.98455	10/29/0116 09:56.26	00003659	3.869	Inter615t31-0	-0.086	1	1	356.903	11.111	3.4	0.000	0.131	D	F	497.4	359.760	0.170	0.002	1500.383	1260.008	0.032	-	0.002	-2.115	-	-	-	22	3.754	14.525	3.754	PAVEMENT_GENERAL	Urban	F	1011101000010101	0000000000000000	-	car	847.091	-689.730	0.000	0.000	180.000	696.000	987.000	-0.000	Terminate	
"Student8Mode3"	"Tanvi_6"	"Nov 29, 2016 09:55:21 AM"	Unknown	61.98457	10/29/0116 09:56.27	00003719	1.757	Inter615t31-0	0.063	1	1	356.903	11.111	3.2	0.000	0.146	D	F	477.5	359.925	0.171	-0.000	1500.380	1262.826	0.032	L	0.004	-2.137	-	-	-	22	6.664	11.711	6.664	PAVEMENT_GENERAL	Urban	F	1011101000110101	0000000000000000	-	car	847.997	-1493.379	0.000	0.000	180.000	696.000	987.000	-0.000	Terminate	
"Student8Mode3"	"Tanvi_6"	"Nov 29, 2016 09:55:21 AM"	Unknown	62.98459	10/29/0116 09:56.28	00003779	0.183	Inter615t31-0	0.110	1	1	356.903	11.111	2.2	0.000	0.143	D	F	477.5	0.000	0.212	0.000	1500.381	1263.680	0.030	-	-0.001	-0.761	-	-	-	22	59.330	10.858	59.330	PAVEMENT_GENERAL	Urban	F	1011101000010101	0000000000000000	-	car	848.276	-14264.267	0.000	0.000	180.000	696.000	987.000	-0.000	Terminate	
"Student8Mode3"	"Tanvi_6"	"Nov 29, 2016 09:55:21 AM"	Unknown	63.98461	10/29/0116 09:56.29	00003839	0.000	Inter615t31-0	0.112	1	1	356.903	11.111	1.6	0.000	0.140	D	F	477.5	0.000	0.218	-0.000	1500.381	1263.718	0.028	L	0.000	-0.005	-	-	-	22	-	10.820	-	PAVEMENT_GENERAL	Urban	F	1011101000110101	0000000000000000	-	car	848.288	-5581542.000	0.000	0.000	180.000	696.000	987.000	-0.000	Terminate	
"Student8Mode3"	"Tanvi_6"	"Nov 29, 2016 09:55:21 AM"	Unknown	64.98463	10/29/0116 09:56.30	00003899	0.002	Inter615t31-0	0.112	1	1	356.903	11.111	1.6	0.046	0.000	D	F	540.6	0.000	0.211	0.000	1500.381	1263.719	0.028	L	0.000	0.012	-	-	-	22	-	11.231	-	PAVEMENT_GENERAL	Urban	F	1011101000110101	0000000000000000	-	car	848.288	-1109883.750	0.000	0.000	180.000	696.000	987.000	-0.000	Terminate	
"Student8Mode3"	"Tanvi_6"	"Nov 29, 2016 09:55:21 AM"	Unknown	65.98465	10/29/0116 09:56.31	00003959	0.935	Inter615t31-0	0.130	1	1	356.903	11.111	1.7	0.051	0.000	D	F	943.1	0.000	0.217	-0.000	1500.381	1264.047	0.018	L	0.002	1.326	-	-	-	22	14.095	13.184	-	PAVEMENT_GENERAL	Urban	F	1011101000110101	0000000000000000	-	car	848.396	-2785.661	0.000	0.000	180.000	696.000	987.000	-0.000	Terminate	
"Student8Mode3"	"Tanvi_6"	"Nov 29, 2016 09:55:21 AM"	Unknown	66.98467	10/29/0116 09:56.32	00004019	2.198	Inter615t31-0	0.214	1	1	356.903	11.111	1.1	0.090	0.000	D	F	1224.3	0.045	0.227	-0.000	1500.383	1265.569	0.020	L	0.003	1.650	-	-	-	22	6.199	13.625	-	PAVEMENT_GENERAL	Urban	F	1011101000110101	0000000000000000	-	car	848.894	-1177.537	0.000	0.000	180.000	696.000	987.000	-0.000	Terminate	
"Student8Mode3"	"Tanvi_6"	"Nov 29, 2016 09:55:21 AM"	Unknown	67.98470	10/29/0116 09:56.33	00004079	3.726	Inter615t11-0	0.329	LT1	2	0.000	11.111	3.2	0.083	0.000	D	F	1346.1	0.179	0.211	-0.002	1500.392	1268.615	0.020	L	0.016	1.074	-	-	-	22	5.160	19.228	-	PAVEMENT_GENERAL	Urban	F	1011101000110101	0000000000000000	-	car	849.904	-684.176	0.000	0.000	180.000	696.000	987.000	-0.000	Terminate	
"Student8Mode3"	"Tanvi_6"	"Nov 29, 2016 09:55:21 AM"	Unknown	68.98471	10/29/0116 09:56.34	00004139	4.353	Inter615t11-0	0.351	LT1	2	0.000	11.111	-3.7	0.071	0.000	D	F	1376.1	0.283	0.203	0.007	1500.413	1272.682	0.024	L	-0.051	0.458	-	-	-	22	5.385	23.444	-	PAVEMENT_GENERAL	Urban	F	1011101000110101	0000000000000000	-	car	851.277	-576.295	0.000	0.000	180.000	696.000	987.000	-0.000	Terminate	
"Student8Mode3"	"Tanvi_6"	"Nov 29, 2016 09:55:21 AM"	Unknown	69.98473	10/29/0116 09:56.35	00004199	4.829	Inter615t11-0	0.313	LT1	2	0.000	11.111	-28.0	0.058	0.000	D	F	1124.0	359.133	0.205	0.045	1500.375	1277.295	0.024	L	-0.292	0.335	-	-	-	22	5.928	28.630	-	PAVEMENT_GENERAL	Urban	F	1011101000110101	0000000000000000	-	car	852.796	-543.007	0.000	0.000	180.000	696.000	987.000	-0.000	Terminate	
"Student8Mode3"	"Tanvi_6"	"Nov 29, 2016 09:55:21 AM"	Unknown	70.98476	10/29/0116 09:56.36	00004259	5.166	Inter615t65-0	0.028	1	1	356.737	11.111	-54.2	0.056	0.000	D	F	1108.7	355.616	0.202	0.082	1500.078	1282.288	0.025	L	-0.598	0.219	-	-	-	22	6.854	35.408	-	PAVEMENT_GENERAL	Urban	F	1011101000110101	0000000000000000	-	car	854.224	-608.020	0.000	0.000	180.000	696.000	987.000	-0.000	Terminate	
"Student8Mode3"	"Tanvi_6"	"Nov 29, 2016 09:55:21 AM"	Unknown	71.98477	10/29/0116 09:56.37	00004319	5.796	Inter615t65-0	0.002	1	1	341.199	11.111	-102.6	0.097	0.000	D	F	1351.6	346.326	0.204	0.155	1499.063	1287.641	0.023	L	-1.186	0.647	-	-	-	22	7.414	42.971	-	PAVEMENT_GENERAL	Urban	F	1011101000110101	0000000000000000	-	car	855.134	-1236.967	0.000	0.000	180.000	696.000	987.000	-0.000	Terminate	
"Student8Mode3"	"Tanvi_6"	"Nov 29, 2016 09:55:21 AM"	Unknown	72.98479	10/29/0116 09:56.38	00004379	6.578	Inter615t65-0	0.239	1	1	327.913	11.111	-116.6	0.118	0.000	D	F	1460.7	333.445	0.202	0.224	1496.692	1293.350	0.023	L	-1.736	0.698	-	-	-	22	7.879	51.831	-	PAVEMENT_GENERAL	Urban	F	1011101000110101	0000000000000000	-	car	854.937	1327.582	0.000	0.000	180.000	696.000	987.000	-0.000	Terminate	
"Student8Mode3"	"Tanvi_6"	"Nov 29, 2016 09:55:21 AM"	Unknown	73.98481	10/29/0116 09:56.39	00004439	7.184	Inter615t65-0	0.294	1	1	313.001	11.111	-162.8	0.097	0.000	D	F	1430.4	315.663	0.185	0.397	1492.449	1298.778	0.025	L	-2.913	0.252	-	-	-	22	8.632	62.019	-	PAVEMENT_GENERAL	Urban	F	1011101000110101	0000000000000000	-	car	852.939	304.357	0.000	0.000	180.000	696.000	987.000	-0.000	Terminate	
"Student8Mode3"	"Tanvi_6"	"Nov 29, 2016 09:55:21 AM"	Unknown	74.98483	10/29/0116 09:56.40	00004499	7.571	Inter615t65-0	-0.068	1	1	290.098	11.111	-148.0	0.086	0.000	D	F	1426.4	293.115	0.179	0.366	1486.141	1302.553	0.026	L	-2.845	0.185	-	-	-	22	9.656	73.103	-	PAVEMENT_GENERAL	Urban	F	1011101000110101	0000000000000000	-	car	848.462	158.174	0.000	0.000	180.000	696.000	987.000	-0.000	Terminate	
"Student8Mode3"	"Tanvi_6"	"Nov 29, 2016 09:55:21 AM"	Unknown	75.98486	10/29/0116 09:56.41	00004559	7.495	Inter615t3-3	0.292	1	2	270.000	11.111	-86.7	0.000	0.000	D	F	833.4	272.711	0.172	0.190	1478.671	1303.823	0.029	L	-1.577	-0.487	-	-	-	22	11.340	84.992	-	PAVEMENT_GENERAL	Urban	F	1111101000110101	0000000000000000	-	car	842.005	123.702	0.000	0.000	180.000	696.000	987.000	-0.000	Terminate	
"Student8Mode3"	"Tanvi_6"	"Nov 29, 2016 09:55:21 AM"	Unknown	76.98487	10/29/0116 09:56.42	00004619	7.066	Inter615t3-3	0.108	1	2	270.000	11.111	14.2	0.005	0.000	D	F	711.8	268.307	0.198	-0.036	1471.391	1303.639	0.028	-	0.272	-0.425	-	-	-	22	13.808	97.574	-	PAVEMENT_GENERAL	Urban	F	1011101000010101	0000000000000000	-	car	835.191	126.201	0.000	0.000	180.000	696.000	987.000	-0.000	Terminate	
"Student8Mode3"	"Tanvi_6"	"Nov 29, 2016 09:55:21 AM"	Unknown	77.98489	10/29/0116 09:56.43	00004679	6.719	Inter615t19-0	0.026	1	1	270.070	11.111	-15.7	0.035	0.000	D	F	860.9	269.364	0.200	0.047	1464.510	1303.560	0.028	-	-0.303	-0.273	-	-	-	22	16.493	110.813	-	PAVEMENT_GENERAL	Urban	F	1011101000010101	0000000000000000	-	car	828.796	132.813	0.000	0.000	180.000	696.000	987.000	-0.000	Terminate	
"Student8Mode3"	"Tanvi_6"	"Nov 29, 2016 09:55:21 AM"	Unknown	78.98492	10/29/0116 09:56.44	00004739	6.944	Inter615t19-0	-0.112	1	1	270.091	11.111	7.7	0.092	0.000	D	F	1261.8	269.249	0.207	-0.002	1457.723	1303.429	0.025	-	0.105	0.363	-	-	-	22	17.879	124.145	-	PAVEMENT_GENERAL	Urban	F	1011101000010101	0000000000000000	-	car	822.473	127.580	0.000	0.000	180.000	696.000	987.000	-0.000	Terminate	
"Student8Mode3"	"Tanvi_6"	"Nov 29, 2016 09:55:21 AM"	Unknown	79.98493	10/29/0116 09:56.45	00004799	7.390	Inter615t19-0	-0.182	1	1	270.113	11.111	8.2	0.157	0.000	D	F	1429.2	269.525	0.208	-0.027	1450.565	1303.367	0.024	-	0.167	0.548	-	-	-	22	18.553	137.107	-	PAVEMENT_GENERAL	Urban	F	1011101000010101	0000000000000000	-	car	815.844	119.298	0.000	0.000	180.000	696.000	987.000	-0.000	Terminate	
"Student8Mode3"	"Tanvi_6"	"Nov 29, 2016 09:55:21 AM"	Unknown	80.98495	10/29/0116 09:56.46	00004859	8.178	Inter615t19-0	-0.114	1	1	270.089	11.111	-4.9	0.159	0.000	D	F	1499.1	271.251	0.206	0.029	1442.779	1303.450	0.023	-	-0.125	0.696	-	-	-	22	18.274	149.440	-	PAVEMENT_GENERAL	Urban	F	1011101000010101	0000000000000000	-	car	808.701	108.433	0.000	0.000	180.000	696.000	987.000	-0.000	Terminate	
"Student8Mode3"	"Tanvi_6"	"Nov 29, 2016 09:55:21 AM"	Unknown	81.98497	10/29/0116 09:56.47	00004919	8.934	Inter615t19-0	-0.065	1	1	270.063	11.111	5.4	0.210	0.000	D	F	1649.7	270.032	0.210	-0.026	1434.235	1303.516	0.023	-	0.120	0.865	-	-	-	22	18.012	160.927	-	PAVEMENT_GENERAL	Urban	F	1111101000010101	0000000000000000	-	car	800.867	97.555	0.000	0.000	180.000	696.000	987.000	-0.000	Terminate	
"Student8Mode3"	"Tanvi_6"	"Nov 29, 2016 09:55:21 AM"	Unknown	82.98499	10/29/0116 09:56.48	00004979	10.289	Inter615t19-0	-0.014	1	1	270.061	11.111	-0.1	0.427	0.000	D	F	2128.9	270.620	0.216	0.008	1424.672	1303.578	0.019	-	0.016	1.651	-	-	-	22	16.599	170.778	-	PAVEMENT_GENERAL	Urban	F	1011101000010101	0000000000000000	-	car	792.112	84.341	0.000	0.000	180.000	696.000	987.000	-0.000	Terminate	
"Student8Mode3"	"Tanvi_6"	"Nov 29, 2016 09:55:21 AM"	Unknown	83.98502	10/29/0116 09:56.49	00005039	12.091	Inter615t1-2	0.092	1	2	270.000	11.111	0.9	0.861	0.000	D	F	2351.2	270.508	0.215	-0.004	1413.485	1303.692	0.018	-	0.008	1.768	-	-	-	22	14.734	178.148	-	PAVEMENT_GENERAL	Urban	F	1011101000010101	0000000000000000	-	car	781.910	70.967	0.000	0.000	180.000	696.000	987.000	-0.000	Terminate	
"Student8Mode3"	"Tanvi_6"	"Nov 29, 2016 09:55:21 AM"	Unknown	84.98503	10/29/0116 09:56.50	00005099	13.313	Inter615t1-2	0.222	1	2	270.000	11.111	-3.4	0.000	0.000	D	F	1554.9	270.524	0.146	0.023	1400.595	1303.822	0.025	-	-0.138	-0.493	-	-	-	22	13.572	180.692	-	PAVEMENT_GENERAL	Urban	F	1011101000010101	0000000000000000	-	car	770.188	63.695	0.000	0.000	180.000	696.000	987.000	-0.000	Terminate	
"Student8Mode3"	"Tanvi_6"	"Nov 29, 2016 09:55:21 AM"	Unknown	85.98505	10/29/0116 09:56.51	00005159	13.958	Inter616t1-2	0.284	1	2	270.000	11.111	-0.8	0.344	0.000	D	F	2435.0	270.236	0.211	0.006	1387.131	1303.891	0.021	-	-0.015	1.269	-	-	-	22	13.376	186.708	-	PAVEMENT_GENERAL	Urban	F	1011101000010101	0000000000000000	-	car	757.958	59.851	0.000	0.000	180.000	696.000	987.000	-0.000	Terminate	
"Student8Mode3"	"Tanvi_6"	"Nov 29, 2016 09:55:21 AM"	Unknown	86.98507	10/29/0116 09:56.52	00005219	15.099	Inter616t1-2	0.313	1	2	270.000	11.111	-0.8	0.166	0.000	D	F	2085.7	269.911	0.183	0.010	1372.549	1303.920	0.022	-	-0.081	0.466	-	-	-	22	12.496	188.670	-	PAVEMENT_GENERAL	Urban	F	1011101000010101	0000000000000000	-	car	744.739	54.429	0.000	0.000	180.000	696.000	987.000	-0.000	Terminate	
"Student8Mode3"	"Tanvi_6"	"Nov 29, 2016 09:55:21 AM"	Unknown	87.98509	10/29/0116 09:56.53	00005279	14.861	Inter616t1-2	0.324	1	2	270.000	11.111	-1.5	0.074	0.000	D	F	1598.6	270.236	0.194	-0.002	1357.486	1303.931	0.029	-	0.009	-0.333	-	-	-	22	12.760	189.627	-	PAVEMENT_GENERAL	Urban	F	1011101000010101	0000000000000000	-	car	731.132	54.662	0.000	0.000	180.000	696.000	987.000	-0.000	Terminate	
"Student8Mode3"	"Tanvi_6"	"Nov 29, 2016 09:55:21 AM"	Unknown	88.98512	10/29/0116 09:56.54	00005339	15.093	Inter616t1-2	0.311	1	2	270.000	11.111	-1.5	0.166	0.000	D	F	1812.1	269.547	0.197	0.023	1342.545	1303.917	0.025	-	-0.157	0.314	-	-	-	22	12.602	190.206	-	PAVEMENT_GENERAL	Urban	F	1011101000010101	0000000000000000	-	car	717.680	52.753	0.000	0.000	180.000	696.000	987.000	-0.000	Terminate	
"Student8Mode3"	"Tanvi_6"	"Nov 29, 2016 09:55:21 AM"	Unknown	89.98513	10/29/0116 09:56.55	00005399	15.226	Inter616t1-2	0.175	1	2	270.000	11.111	2.2	0.111	0.000	D	F	1694.6	269.540	0.193	-0.015	1327.365	1303.782	0.026	-	0.090	0.013	-	-	-	22	12.487	190.125	645.939	PAVEMENT_GENERAL	Urban	F	1011101000010101	0000000000000000	-	car	704.020	51.525	0.000	0.000	180.000	696.000	987.000	-0.000	Terminate	
"Student8Mode3"	"Tanvi_6"	"Nov 29, 2016 09:55:21 AM"	Unknown	90.98515	10/29/0116 09:56.56	00005459	15.268	Inter616t1-2	0.091	1	2	270.000	11.111	0.3	0.125	0.000	D	F	1727.4	269.794	0.196	-0.003	1312.121	1303.698	0.026	-	0.028	0.067	-	-	-	22	12.425	189.705	323.469	PAVEMENT_GENERAL	Urban	F	1011101000010101	0000000000000000	-	car	690.391	50.747	0.000	0.000	180.000	696.000	987.000	-0.000	Terminate	
"Student8Mode3"	"Tanvi_6"	"Nov 29, 2016 09:55:21 AM"	Unknown	91.98518	10/29/0116 09:56.57	00005519	15.351	Inter616t1-2	0.032	1	2	270.000	11.111	-0.5	0.138	0.000	D	F	1753.8	269.734	0.196	0.004	1296.812	1303.639	0.026	-	-0.028	0.118	-	-	-	22	12.311	188.990	215.400	PAVEMENT_GENERAL	Urban	F	1011101000010101	0000000000000000	-	car	676.784	49.714	0.000	0.000	180.000	696.000	987.000	-0.000	Terminate	
"Student8Mode3"	"Tanvi_6"	"Nov 29, 2016 09:55:21 AM"	Unknown	92.98519	10/29/0116 09:56.58	00005579	15.453	Inter616t1-2	-0.059	1	2	270.000	11.111	-0.8	0.131	0.000	D	F	1752.9	269.556	0.195	0.007	1281.409	1303.547	0.026	-	-0.049	0.103	-	-	-	22	12.165	187.985	164.033	PAVEMENT_GENERAL	Urban	F	1011101000010101	0000000000000000	-	car	663.153	48.584	0.000	0.000	180.000	696.000	987.000	-0.000	Terminate	
"Student8Mode3"	"Tanvi_6"	"Nov 29, 2016 09:55:21 AM"	Unknown	93.98521	10/29/0116 09:56.59	00005639	15.554	Inter616t1-2	-0.172	1	2	270.000	11.111	0.5	0.134	0.000	D	F	1764.7	269.661	0.195	-0.004	1265.908	1303.435	0.026	-	0.035	0.104	-	-	-	22	12.004	186.716	132.090	PAVEMENT_GENERAL	Urban	F	1011101000010101	0000000000000000	-	car	649.504	47.608	0.000	0.000	180.000	696.000	987.000	-0.000	Terminate	
"Student8Mode3"	"Tanvi_6"	"Nov 29, 2016 09:55:21 AM"	Unknown	94.98523	10/29/0116 09:57.00	00005699	15.672	Inter616t1-2	-0.255	1	2	270.000	11.111	0.4	0.141	0.000	D	F	1789.2	269.741	0.195	-0.003	1250.298	1303.352	0.026	-	0.022	0.135	-	-	-	22	11.817	185.201	111.804	PAVEMENT_GENERAL	Urban	F	1011101000010101	0000000000000000	-	car	635.861	46.597	0.000	0.000	180.000	696.000	987.000	-0.000	Terminate	
"Student8Mode3"	"Tanvi_6"	"Nov 29, 2016 09:55:21 AM"	Unknown	95.98525	10/29/0116 09:57.01	00005759	15.788	Inter616t1-2	-0.319	1	2	270.000	11.111	0.1	0.134	0.000	D	F	1787.1	269.782	0.195	-0.001	1234.567	1303.287	0.026	-	0.006	0.111	-	-	-	22	11.620	183.450	98.869	PAVEMENT_GENERAL	Urban	F	1011101000010101	0000000000000000	-	car	622.214	45.604	0.000	0.000	180.000	696.000	987.000	-0.000	Terminate	
"Student8Mode3"	"Tanvi_6"	"Nov 29, 2016 09:55:21 AM"	Unknown	96.98528	10/29/0116 09:57.02	00005819	15.886	Inter616t1-2	-0.377	1	2	270.000	11.111	0.5	0.136	0.000	D	F	1793.9	269.807	0.195	-0.003	1218.729	1303.230	0.026	-	0.017	0.101	-	-	-	22	11.425	181.503	97.022	PAVEMENT_GENERAL	Urban	F	1011101000010101	0000000000000000	-	car	608.580	44.683	0.000	0.000	180.000	696.000	987.000	-0.000	Terminate	
"Student8Mode3"	"Tanvi_6"	"Nov 29, 2016 09:55:21 AM"	Unknown	97.98529	10/29/0116 09:57.03	00005879	15.971	Inter616t1-2	-0.396	1	2	270.000	11.111	-0.1	0.134	0.000	D	F	1792.8	270.089	0.195	0.002	1202.800	1303.211	0.026	-	0.029	0.089	-	-	-	22	11.306	180.572	-	PAVEMENT_GENERAL	Urban	F	1011101000010101	0000000000000000	-	car	594.997	43.954	0.000	0.000	180.000	696.000	987.000	-0.000	Terminate	
"Student8Mode3"	"Tanvi_6"	"Nov 29, 2016 09:55:21 AM"	Unknown	98.98531	10/29/0116 09:57.04	00005939	16.060	Inter617t1-2	-0.369	1	2	270.000	11.111	0.7	0.132	0.000	D	F	1802.9	270.139	0.195	-0.004	1186.785	1303.238	0.026	-	0.037	0.095	-	-	-	22	11.305	181.557	-	PAVEMENT_GENERAL	Urban	F	1011101000010101	0000000000000000	-	car	581.487	43.140	0.000	0.000	180.000	696.000	987.000	-0.000	Terminate	
"Student8Mode3"	"Tanvi_6"	"Nov 29, 2016 09:55:21 AM"	Unknown	99.98534	10/29/0116 09:57.05	00005999	16.155	Inter617t1-2	-0.309	1	2	270.000	11.111	0.8	0.138	0.000	D	F	1813.3	270.294	0.194	-0.006	1170.678	1303.297	0.026	-	0.043	0.099	-	-	-	-	-	-	-	PAVEMENT_GENERAL	Urban	F	1011101000010101	0000000000000000	-	car	568.047	42.398	0.000	0.000	180.000	696.000	987.000	-0.000	Terminate	
"Student8Mode3"	"Tanvi_6"	"Nov 29, 2016 09:55:21 AM"	Unknown	100.98535	10/29/0116 09:57.06	00006059	16.258	Inter617t1-2	-0.207	1	2	270.000	11.111	0.3	0.136	0.000	D	F	1822.4	270.443	0.194	-0.004	1154.472	1303.400	0.026	-	0.031	0.100	-	-	-	-	-	-	-	PAVEMENT_GENERAL	Urban	F	1011101000010101	0000000000000000	-	car	554.691	41.678	0.000	0.000	180.000	696.000	987.000	-0.000	Terminate	
"Student8Mode3"	"Tanvi_6"	"Nov 29, 2016 09:55:21 AM"	Unknown	101.98537	10/29/0116 09:57.07	00006119	16.170	Inter617t1-2	-0.082	1	2	270.000	11.111	-2.9	0.000	0.000	D	F	1587.8	270.367	0.178	0.023	1138.191	1303.525	0.029	-	-0.131	-0.592	-	-	-	-	-	-	-	PAVEMENT_GENERAL	Urban	F	1011101000010101	0000000000000000	-	car	541.443	41.368	0.000	0.000	180.000	696.000	987.000	-0.000	Terminate	
"Student8Mode3"	"Tanvi_6"	"Nov 29, 2016 09:55:21 AM"	Unknown	102.98539	10/29/0116 09:57.08	00006179	15.581	Inter617t1-2	-0.010	1	2	270.000	11.111	0.8	0.000	0.000	D	F	1530.1	270.301	0.188	-0.008	1122.316	1303.597	0.029	-	0.056	-0.585	-	-	-	-	-	-	-	PAVEMENT_GENERAL	Urban	F	1011101000010101	0000000000000000	-	car	528.657	42.429	0.000	0.000	180.000	696.000	987.000	-0.000	Terminate	
"Student8Mode3"	"Tanvi_6"	"Nov 29, 2016 09:55:21 AM"	Unknown	103.98541	10/29/0116 09:57.09	00006239	15.001	Inter617t1-2	0.082	1	2	270.000	11.111	0.8	0.000	0.015	D	F	1472.3	270.370	0.189	-0.003	1107.026	1303.689	0.029	-	0.025	-0.581	-	-	-	-	-	-	-	PAVEMENT_GENERAL	Urban	F	1011101000010101	0000000000000000	-	car	516.518	43.687	0.000	0.000	180.000	696.000	987.000	-0.000	Terminate	
"Student8Mode3"	"Tanvi_6"	"Nov 29, 2016 09:55:21 AM"	Unknown	104.98544	10/29/0116 09:57.10	00006299	12.657	Inter617t1-2	0.189	1	2	270.000	11.111	-0.3	0.000	0.191	D	F	1211.4	270.513	0.151	-0.001	1093.049	1303.796	0.034	-	0.009	-2.897	-	-	-	-	-	-	-	PAVEMENT_GENERAL	Urban	F	1011101000010101	0000000000000000	-	car	505.585	51.471	0.000	0.000	180.000	696.000	987.000	-0.000	Terminate	
"Student8Mode3"	"Tanvi_6"	"Nov 29, 2016 09:55:21 AM"	Unknown	105.98545	10/29/0116 09:57.11	00006359	9.572	Inter617t1-2	0.280	1	2	270.000	11.111	-1.0	0.000	0.212	D	F	913.8	270.405	0.153	0.004	1081.889	1303.887	0.035	-	-0.030	-3.149	-	-	-	-	-	-	-	PAVEMENT_GENERAL	Urban	F	1011101000010101	0000000000000000	-	car	496.968	67.575	0.000	0.000	180.000	696.000	987.000	-0.000	Terminate	
"Student8Mode3"	"Tanvi_6"	"Nov 29, 2016 09:55:21 AM"	Unknown	106.98547	10/29/0116 09:57.12	00006419	7.757	Inter617t1-2	0.325	1	2	270.000	11.111	-1.1	0.000	0.000	D	F	762.7	270.230	0.199	0.003	1073.493	1303.932	0.029	-	-0.025	-0.497	-	-	-	-	-	-	-	PAVEMENT_GENERAL	Urban	F	1011101000010101	0000000000000000	-	car	490.537	82.855	0.000	0.000	180.000	696.000	987.000	-0.000	Terminate	
"Student8Mode3"	"Tanvi_6"	"Nov 29, 2016 09:55:21 AM"	Unknown	107.98550	10/29/0116 09:57.13	00006479	7.288	Inter617t1-2	0.344	1	2	270.000	11.111	-0.1	0.000	0.000	D	F	716.4	270.112	0.197	0.000	1065.971	1303.951	0.028	-	-0.002	-0.468	-	-	-	-	-	-	-	PAVEMENT_GENERAL	Urban	F	1011101000010101	0000000000000000	-	car	484.812	87.741	0.000	0.000	180.000	696.000	987.000	-0.000	Terminate	
"Student8Mode3"	"Tanvi_6"	"Nov 29, 2016 09:55:21 AM"	Unknown	108.98551	10/29/0116 09:57.14	00006539	6.822	Inter617t1-2	0.358	1	2	270.000	11.111	0.1	0.000	0.000	D	F	670.5	270.115	0.198	-0.000	1058.916	1303.965	0.028	-	0.002	-0.466	-	-	-	-	-	-	-	PAVEMENT_GENERAL	Urban	F	1011101000010101	0000000000000000	-	car	479.486	93.488	0.000	0.000	180.000	696.000	987.000	-0.000	Terminate	
"Student8Mode3"	"Tanvi_6"	"Nov 29, 2016 09:55:21 AM"	Unknown	109.98553	10/29/0116 09:57.15	00006599	6.357	Inter617t1-2	0.373	1	2	270.000	11.111	0.1	0.000	0.000	D	F	624.8	270.138	0.198	0.001	1052.327	1303.979	0.028	-	-0.001	-0.464	-	-	-	-	-	-	-	PAVEMENT_GENERAL	Urban	F	1011101000010101	0000000000000000	-	car	474.552	100.127	0.000	0.000	180.000	696.000	987.000	-0.000	Terminate	
"Student8Mode3"	"Tanvi_6"	"Nov 29, 2016 09:55:21 AM"	Unknown	110.98555	10/29/0116 09:57.16	00006659	5.290	Inter617t1-2	0.387	1	2	270.000	11.111	-1.3	0.000	0.101	D	F	512.5	270.128	0.166	0.003	1046.351	1303.994	0.031	-	-0.017	-1.751	-	-	-	-	-	-	-	PAVEMENT_GENERAL	Urban	F	1011101000010101	0000000000000000	-	car	470.114	120.089	0.000	0.000	180.000	696.000	987.000	-0.000	Terminate	
"Student8Mode3"	"Tanvi_6"	"Nov 29, 2016 09:55:21 AM"	Unknown	111.98557	10/29/0116 09:57.17	00006719	3.868	Inter617t1-2	0.388	1	2	270.000	11.111	-1.5	0.000	0.030	D	F	538.9	269.974	0.199	0.000	1041.870	1303.995	0.029	-	-0.004	-0.763	-	-	-	-	-	-	-	PAVEMENT_GENERAL	Urban	F	1011101000010101	0000000000000000	-	car	466.802	163.641	0.000	0.000	180.000	696.000	987.000	-0.000	Terminate	
"Student8Mode3"	"Tanvi_6"	"Nov 29, 2016 09:55:21 AM"	Unknown	112.98560	10/29/0116 09:57.18	00006779	3.351	Inter617t1-2	0.384	1	2	270.000	11.111	-0.1	0.000	0.000	D	F	507.8	269.931	0.199	0.001	1038.282	1303.990	0.028	-	-0.001	-0.458	-	-	-	-	-	-	-	PAVEMENT_GENERAL	Urban	F	1011101000010101	0000000000000000	-	car	464.160	188.581	0.000	0.000	180.000	696.000	987.000	-0.000	Terminate	
"Student8Mode3"	"Tanvi_6"	"Nov 29, 2016 09:55:21 AM"	Unknown	113.98561	10/29/0116 09:57.19	00006839	3.250	Inter617t1-2	0.378	1	2	270.000	11.111	-0.1	0.053	0.000	D	F	997.2	269.900	0.204	-0.000	1035.079	1303.985	0.025	-	0.005	0.376	-	-	-	-	-	-	-	PAVEMENT_GENERAL	Urban	F	1011101000010101	0000000000000000	-	car	461.811	194.228	0.000	0.000	180.000	696.000	987.000	-0.000	Terminate	
"Student8Mode3"	"Tanvi_6"	"Nov 29, 2016 09:55:21 AM"	Unknown	114.98563	10/29/0116 09:57.20	00006899	4.075	Inter617t1-2	0.373	1	2	270.000	11.111	0.5	0.123	0.000	D	F	1343.2	269.925	0.212	-0.000	1031.500	1303.980	0.021	-	0.003	1.176	-	-	-	-	-	-	-	PAVEMENT_GENERAL	Urban	F	1011101000010101	0000000000000000	-	car	459.199	154.843	0.000	0.000	180.000	696.000	987.000	-0.000	Terminate	
"Student8Mode3"	"Tanvi_6"	"Nov 29, 2016 09:55:21 AM"	Unknown	115.98566	10/29/0116 09:57.21	00006959	5.317	Inter617t1-2	0.370	1	2	270.000	11.111	0.3	0.148	0.000	D	F	1472.3	269.961	0.216	-0.000	1026.803	1303.976	0.021	-	0.003	1.239	-	-	-	-	-	-	-	PAVEMENT_GENERAL	Urban	F	1011101000010101	0000000000000000	-	car	455.794	118.651	0.000	0.000	180.000	696.000	987.000	-0.000	Terminate	
"Student8Mode3"	"Tanvi_6"	"Nov 29, 2016 09:55:21 AM"	Unknown	116.98567	10/29/0116 09:57.22	00007019	6.726	Inter617t1-2	0.370	1	2	270.000	11.111	1.5	0.198	0.000	D	F	1693.6	270.038	0.216	-0.003	1020.821	1303.977	0.019	-	0.025	1.510	-	-	-	-	-	-	-	PAVEMENT_GENERAL	Urban	F	1011101000010101	0000000000000000	-	car	451.494	93.856	0.000	0.000	180.000	696.000	987.000	-0.000	Terminate	
"Student8Mode3"	"Tanvi_6"	"Nov 29, 2016 09:55:21 AM"	Unknown	117.98569	10/29/0116 09:57.23	00007079	8.033	Inter617t1-2	0.390	1	2	270.000	11.111	1.7	0.187	0.000	D	F	1744.2	270.195	0.217	-0.007	1013.405	1303.997	0.021	-	0.038	1.198	-	-	-	-	-	-	-	PAVEMENT_GENERAL	Urban	F	1011101000010101	0000000000000000	-	car	446.230	78.780	0.000	0.000	180.000	696.000	987.000	-0.000	Terminate	
"Student8Mode3"	"Tanvi_6"	"Nov 29, 2016 09:55:21 AM"	Unknown	118.98571	10/29/0116 09:57.24	00007139	9.196	Inter617t1-2	0.444	1	2	270.000	11.111	0.9	0.236	0.000	D	F	1926.9	270.475	0.217	-0.002	1004.796	1304.051	0.021	-	0.027	1.342	-	-	-	-	-	-	-	PAVEMENT_GENERAL	Urban	F	1011101000010101	0000000000000000	-	car	440.220	69.200	0.000	0.000	180.000	696.000	987.000	-0.000	Terminate	
"Student8Mode3"	"Tanvi_6"	"Nov 29, 2016 09:55:21 AM"	Unknown	119.98573	10/29/0116 09:57.25	00007199	10.414	Inter618t1-0	-0.173	1	2	270.000	24.444	-0.8	0.215	0.000	D	F	1987.1	270.315	0.218	0.001	994.970	1304.127	0.021	-	-0.041	1.110	-	-	-	32	5.292	55.113	-	FREEWAY_SMOOTH	Urban	F	1011101000010101	0000000000000000	-	car	433.476	61.038	0.000	0.000	180.000	696.000	987.000	-0.000	Terminate	
"Student8Mode3"	"Tanvi_6"	"Nov 29, 2016 09:55:21 AM"	Unknown	120.98576	10/29/0116 09:57.26	00007259	11.458	Inter618t1-0	-0.127	1	2	269.872	24.444	-3.3	0.213	0.000	D	F	2069.3	270.062	0.271	-0.137	984.022	1304.165	0.033	-	-0.120	0.967	-	-	-	32	5.307	60.805	-	FREEWAY_SMOOTH	Urban	F	1011101000010101	0000000000000000	-	car	426.068	55.376	0.000	0.000	180.000	696.000	987.000	-0.000	Terminate	
"Student8Mode3"	"Tanvi_6"	"Nov 29, 2016 09:55:21 AM"	Unknown	121.98577	10/29/0116 09:57.27	00007319	12.385	Inter618t1-0	-0.166	1	2	269.464	24.444	-3.5	0.203	0.000	D	F	2156.1	268.893	0.260	-0.297	972.095	1304.063	0.045	-	-0.222	0.867	-	-	-	32	5.424	67.179	-	FREEWAY_SMOOTH	Urban	F	1011101000010101	0000000000000000	-	car	418.066	50.295	0.000	0.000	180.000	696.000	987.000	-0.000	Terminate	
"Student8Mode3"	"Tanvi_6"	"Nov 29, 2016 09:55:21 AM"	Unknown	122.98579	10/29/0116 09:57.28	00007379	13.217	Inter618t1-0	-0.272	1	2	268.702	24.444	-1.1	0.217	0.000	D	F	2276.0	268.548	0.262	-0.494	959.300	1303.762	0.057	-	-0.074	0.855	-	-	-	32	5.544	73.271	-	FREEWAY_SMOOTH	Urban	F	1011101000010101	0000000000000000	-	car	409.544	47.056	0.000	0.000	180.000	696.000	987.000	-0.000	Terminate	
"Student8Mode3"	"Tanvi_6"	"Nov 29, 2016 09:55:21 AM"	Unknown	123.98581	10/29/0116 09:57.29	00007439	14.094	Inter618t1-0	-0.238	1	2	267.550	24.444	-1.4	0.220	0.000	D	F	2121.8	268.165	0.270	-0.679	945.655	1303.361	0.070	-	-0.110	0.891	-	-	-	32	5.620	79.208	-	FREEWAY_SMOOTH	Urban	F	1011101000010101	0000000000000000	-	car	400.644	44.119	0.000	0.000	180.000	696.000	987.000	-0.000	Terminate	
"Student8Mode3"	"Tanvi_6"	"Nov 29, 2016 09:55:21 AM"	Unknown	124.98583	10/29/0116 09:57.30	00007499	14.803	Inter618t1-0	0.017	1	2	265.923	24.444	-8.4	0.240	0.000	D	F	1953.9	267.465	0.284	-0.838	931.206	1302.809	0.089	-	-0.368	0.682	-	-	-	32	5.721	84.695	-	FREEWAY_SMOOTH	Urban	F	1011101000010101	0000000000000000	-	car	391.414	41.824	0.000	0.000	180.000	696.000	987.000	-0.000	Terminate	
"Student8Mode3"	"Tanvi_6"	"Nov 29, 2016 09:55:21 AM"	Unknown	125.98586	10/29/0116 09:57.31	00007559	15.468	Inter618t1-0	0.219	1	2	263.793	24.444	-14.3	0.242	0.000	D	F	1983.4	263.359	0.251	-0.972	916.111	1301.673	0.108	-	-1.100	0.648	-	-	-	32	5.789	89.548	-	FREEWAY_SMOOTH	Urban	F	1011101000010101	0000000000000000	-	car	381.656	37.154	0.000	0.000	180.000	696.000	987.000	-0.000	Terminate	
"Student8Mode3"	"Tanvi_6"	"Nov 29, 2016 09:55:21 AM"	Unknown	126.98587	10/29/0116 09:57.32	00007619	16.098	Inter618t1-0	0.108	1	2	261.096	24.444	-3.5	0.249	0.000	D	F	2016.2	261.276	0.257	-1.282	900.475	1299.512	0.123	-	-0.334	0.608	-	-	-	32	5.827	93.800	-	FREEWAY_SMOOTH	Urban	F	1011101000010101	0000000000000000	-	car	371.102	34.505	0.000	0.000	180.000	696.000	987.000	-0.000	Terminate	
"Student8Mode3"	"Tanvi_6"	"Nov 29, 2016 09:55:21 AM"	Unknown	127.98589	10/29/0116 09:57.33	00007679	16.699	Inter618t1-0	0.341	1	2	257.806	24.444	-18.5	0.252	0.000	D	F	2053.1	258.968	0.283	-1.399	884.306	1296.766	0.146	-	-1.112	0.583	-	-	-	32	5.822	97.217	-	FREEWAY_SMOOTH	Urban	F	1011101000010101	0000000000000000	-	car	360.151	32.029	0.000	0.000	180.000	696.000	987.000	-0.000	Terminate	
"Student8Mode3"	"Tanvi_6"	"Nov 29, 2016 09:55:21 AM"	Unknown	128.98592	10/29/0116 09:57.34	00007739	17.262	Inter618t1-0	0.511	1	2	253.822	24.444	-26.5	0.257	0.000	D	F	2084.5	253.374	0.186	-1.517	867.797	1292.805	0.169	-	-1.908	0.551	-	-	-	32	5.809	100.273	-	FREEWAY_SMOOTH	Urban	F	1011101000010101	0000000000000000	-	car	348.398	28.080	0.000	0.000	180.000	696.000	987.000	-0.000	Terminate	
"Student8Mode3"	"Tanvi_6"	"Nov 29, 2016 09:55:21 AM"	Unknown	129.98593	10/29/0116 09:57.35	00007799	17.792	Inter618t1-0	0.218	1	2	249.566	24.444	-13.6	0.256	0.000	D	F	2112.8	248.525	0.160	-1.623	851.245	1287.049	0.160	-	-1.082	0.532	-	-	-	32	5.789	103.000	-	FREEWAY_SMOOTH	Urban	F	1011101000010101	0000000000000000	-	car	335.473	25.047	0.000	0.000	180.000	696.000	987.000	-0.000	Terminate	
"Student8Mode3"	"Tanvi_6"	"Nov 29, 2016 09:55:21 AM"	Unknown	130.98595	10/29/0116 09:57.36	00007859	18.312	Inter618t1-0	0.003	1	2	245.162	24.444	-19.0	0.256	0.000	D	F	2140.9	244.418	0.167	-1.562	834.658	1279.924	0.154	-	-1.491	0.490	-	-	-	32	5.742	105.147	-	FREEWAY_SMOOTH	Urban	F	1011101000010101	0000000000000000	-	car	321.724	22.635	0.000	0.000	180.000	696.000	987.000	-0.000	Terminate	
"Student8Mode3"	"Tanvi_6"	"Nov 29, 2016 09:55:21 AM"	Unknown	131.98598	10/29/0116 09:57.37	00007919	18.787	Inter618t1-0	-0.198	1	2	240.620	24.444	-17.2	0.252	0.000	D	F	2175.3	240.011	0.167	-1.582	818.229	1271.314	0.148	-	-1.364	0.462	-	-	-	32	5.683	106.772	-	FREEWAY_SMOOTH	Urban	F	1011101000010101	0000000000000000	-	car	307.114	20.402	0.000	0.000	180.000	696.000	987.000	-0.000	Terminate	
"Student8Mode3"	"Tanvi_6"	"Nov 29, 2016 09:55:21 AM"	Unknown	132.98599	10/29/0116 09:57.38	00007979	19.232	Inter618t1-0	-0.291	1	2	235.949	24.444	-17.1	0.231	0.000	D	F	2190.8	235.772	0.182	-1.574	802.093	1261.265	0.145	-	-1.412	0.417	-	-	-	32	5.594	107.574	-	FREEWAY_SMOOTH	Urban	F	1011101000010101	0000000000000000	-	car	291.710	18.433	0.000	0.000	180.000	696.000	987.000	-0.000	Terminate	
"Student8Mode3"	"Tanvi_6"	"Nov 29, 2016 09:55:21 AM"	Unknown	133.98601	10/29/0116 09:57.39	00008039	19.641	Inter618t1-0	-0.232	1	2	231.198	24.444	-17.6	0.236	0.000	D	F	2228.1	231.388	0.189	-1.560	786.403	1249.793	0.147	-	-1.508	0.393	-	-	-	32	5.515	108.316	-	FREEWAY_SMOOTH	Urban	F	1011101000010101	0000000000000000	-	car	275.548	16.617	0.000	0.000	180.000	696.000	987.000	-0.000	Terminate	
"Student8Mode3"	"Tanvi_6"	"Nov 29, 2016 09:55:21 AM"	Unknown	134.98604	10/29/0116 09:57.40	00008099	20.022	Inter618t1-0	-0.053	1	2	226.324	24.444	-18.8	0.235	0.000	D	F	2257.0	226.710	0.188	-1.539	771.354	1236.881	0.153	-	-1.665	0.386	-	-	-	32	5.425	108.619	-	FREEWAY_SMOOTH	Urban	F	1011101000010101	0000000000000000	-	car	258.636	14.905	0.000	0.000	180.000	696.000	987.000	-0.000	Terminate	
"Student8Mode3"	"Tanvi_6"	"Nov 29, 2016 09:55:21 AM"	Unknown	135.98605	10/29/0116 09:57.41	00008159	20.370	Inter618t1-0	0.174	1	2	221.411	24.444	-19.2	0.231	0.000	D	F	2274.4	221.773	0.191	-1.529	757.175	1222.501	0.160	-	-1.758	0.356	-	-	-	32	5.337	108.713	428.054	FREEWAY_SMOOTH	Urban	F	1011101000010101	0000000000000000	-	car	240.958	13.301	0.000	0.000	180.000	696.000	987.000	-0.000	Terminate	
"Student8Mode3"	"Tanvi_6"	"Nov 29, 2016 09:55:21 AM"	Unknown	136.98607	10/29/0116 09:57.42	00008219	20.662	Inter618t1-0	0.425	1	2	216.401	24.444	-20.9	0.208	0.000	D	F	2273.3	216.824	0.190	-1.509	744.071	1206.706	0.168	-	-1.867	0.252	-	-	-	32	5.248	108.436	198.735	FREEWAY_SMOOTH	Urban	F	1011101000010101	0000000000000000	-	car	222.544	11.835	0.000	0.000	180.000	696.000	987.000	-0.000	Terminate	
"Student8Mode3"	"Tanvi_6"	"Nov 29, 2016 09:55:21 AM"	Unknown	137.98610	10/29/0116 09:57.43	00008279	20.910	Inter618t1-0	0.675	1	2	211.320	24.444	-22.4	0.210	0.000	D	F	2297.6	211.673	0.189	-1.500	732.263	1189.606	0.175	-	-1.956	0.259	-	-	-	32	5.148	107.650	135.574	FREEWAY_SMOOTH	Urban	F	1011101000010101	0000000000000000	-	car	203.467	10.460	0.000	0.000	180.000	696.000	987.000	-0.000	Terminate	
"Student8Mode3"	"Tanvi_6"	"Nov 29, 2016 09:55:21 AM"	Unknown	138.98611	10/29/0116 09:57.44	00008339	21.088	Inter618t1-0	0.731	1	2	206.193	24.444	-26.0	0.180	0.000	D	F	2276.7	204.968	0.130	-1.419	722.081	1171.233	0.178	-	-2.583	0.087	-	-	-	-	-	-	-	FREEWAY_SMOOTH	Urban	F	1011101000010101	0000000000000000	-	car	183.710	9.105	0.000	0.000	180.000	696.000	987.000	-0.000	Terminate	
"Student8Mode3"	"Tanvi_6"	"Nov 29, 2016 09:55:21 AM"	Unknown	139.98613	10/29/0116 09:57.45	00008399	21.166	Inter618t1-0	0.172	1	2	201.051	24.444	-21.7	0.180	0.000	D	F	2285.3	198.204	0.083	-1.448	714.108	1151.681	0.161	-	-2.351	0.119	-	-	-	-	-	-	-	FREEWAY_SMOOTH	Urban	F	1011101000010101	0000000000000000	-	car	163.314	7.886	0.000	0.000	180.000	696.000	987.000	-0.000	Terminate	
"Student8Mode3"	"Tanvi_6"	"Nov 29, 2016 09:55:21 AM"	Unknown	140.98616	10/29/0116 09:57.46	00008459	21.275	Inter618t1-0	-0.653	1	2	195.867	24.444	-15.7	0.185	0.000	D	F	2301.3	193.885	0.118	-1.557	708.153	1131.319	0.136	-	-1.502	0.125	-	-	-	-	-	-	-	FREEWAY_SMOOTH	Urban	F	1011101000010101	0000000000000000	-	car	142.470	6.781	0.000	0.000	180.000	696.000	987.000	-0.000	Terminate	
"Student8Mode3"	"Tanvi_6"	"Nov 29, 2016 09:55:21 AM"	Unknown	141.98618	10/29/0116 09:57.47	00008519	21.389	Inter618t1-0	-1.067	1	2	190.998	24.444	-10.7	0.182	0.000	D	F	2298.9	190.527	0.127	-1.350	703.600	1110.478	0.109	-	-1.038	0.097	-	-	-	-	-	-	-	FREEWAY_SMOOTH	Urban	F	1011101000010101	0000000000000000	-	car	121.352	5.716	0.000	0.000	180.000	696.000	987.000	-0.000	Terminate	
"Student8Mode3"	"Tanvi_6"	"Nov 29, 2016 09:55:21 AM"	Unknown	142.98619	10/29/0116 09:57.48	00008579	20.997	Inter618t1-0	-0.989	1	2	187.052	24.444	-12.1	0.000	0.000	D	F	1442.3	187.218	0.130	-1.014	700.192	1089.479	0.097	-	-1.317	-0.632	-	-	-	-	-	-	-	FREEWAY_SMOOTH	Urban	F	1011101000010101	0000000000000000	-	car	100.206	4.790	0.000	0.000	180.000	696.000	987.000	-0.000	Terminate	
"Student8Mode3"	"Tanvi_6"	"Nov 29, 2016 09:55:21 AM"	Unknown	143.98621	10/29/0116 09:57.49	00008639	20.133	Inter618t1-0	-0.889	1	2	184.038	24.444	-10.8	0.000	0.087	D	F	1359.5	183.816	0.091	-0.762	698.109	1068.940	0.084	-	-1.084	-1.623	-	-	-	-	-	-	-	FREEWAY_SMOOTH	Urban	F	1011101000010101	0000000000000000	-	car	79.608	3.957	0.000	0.000	180.000	696.000	987.000	-0.000	Terminate	
"Student8Mode3"	"Tanvi_6"	"Nov 29, 2016 09:55:21 AM"	Unknown	144.98624	10/29/0116 09:57.50	00008699	18.134	Inter618t1-0	-0.883	1	2	181.959	24.444	-3.7	0.000	0.272	D	F	1191.0	182.170	0.082	-0.587	697.103	1049.657	0.072	-	-0.320	-3.651	-	-	-	-	-	-	-	FREEWAY_SMOOTH	Urban	F	1011101000010101	0000000000000000	-	car	60.307	3.326	0.000	0.000	180.000	696.000	987.000	-0.000	Terminate	
"Student8Mode3"	"Tanvi_6"	"Nov 29, 2016 09:55:21 AM"	Unknown	145.98625	10/29/0116 09:57.51	00008759	12.768	Inter618t1-0	-0.785	1	2	180.827	24.444	-4.8	0.000	0.531	D	F	966.5	181.078	-0.137	-0.363	696.629	1033.978	0.066	-	-0.274	-6.533	-	-	-	-	-	-	-	FREEWAY_SMOOTH	Urban	F	1011101000010101	0000000000000000	-	car	44.623	3.495	0.000	0.000	180.000	696.000	987.000	-0.000	Terminate	
"Student8Mode3"	"Tanvi_6"	"Nov 29, 2016 09:55:21 AM"	Unknown	146.98627	10/29/0116 09:57.52	00008819	6.150	Inter618t1-0	-0.775	1	2	180.380	24.444	-7.4	0.000	0.522	D	F	569.0	180.286	-0.135	-0.254	696.520	1024.547	0.058	-	-0.112	-6.353	-	-	-	-	-	-	-	FREEWAY_SMOOTH	Urban	F	1011101000010101	0000000000000000	-	car	35.297	6.438	0.667	2.000	179.792	696.001	986.894	-0.000	Terminate	
"Student8Mode3"	"Tanvi_6"	"Nov 29, 2016 09:55:21 AM"	Unknown	147.98630	10/29/0116 09:57.53	00008879	0.724	Inter618t1-0	-0.803	1	2	180.260	24.444	-6.7	0.000	0.284	D	F	477.5	179.807	0.087	-0.232	696.529	1021.348	0.053	-	0.014	-3.192	-	-	-	-	-	-	-	FREEWAY_SMOOTH	Urban	F	1011101000010101	0000000000000000	-	car	33.744	-17.427	2.667	2.000	176.603	696.096	985.247	-0.000	Terminate	
"Student8Mode3"	"Tanvi_6"	"Nov 29, 2016 09:55:21 AM"	Unknown	148.98631	10/29/0116 09:57.54	00008939	0.335	Inter618t1-0	-0.807	1	2	180.253	24.444	-2.2	0.000	0.000	D	F	477.5	179.783	0.160	-0.222	696.531	1021.026	0.042	-	-0.001	0.156	-	-	-	-	-	-	-	FREEWAY_SMOOTH	Urban	F	1011101000010101	0000000000000000	-	car	37.065	-8.569	4.667	2.000	177.404	696.281	981.602	-0.000	Terminate	
"Student8Mode3"	"Tanvi_6"	"Nov 29, 2016 09:55:21 AM"	Unknown	149.98633	10/29/0116 09:57.55	00008999	1.285	Inter618t1-0	-0.813	1	2	180.238	24.444	-1.8	0.083	0.000	D	F	1159.3	179.752	0.186	-0.215	696.535	1020.431	0.034	-	-0.003	2.176	-	-	-	-	-	-	-	FREEWAY_SMOOTH	Urban	F	1011101000010101	0000000000000000	-	car	42.119	-7.827	6.667	2.000	179.432	696.389	975.952	-0.000	Terminate	
"Student8Mode3"	"Tanvi_6"	"Nov 29, 2016 09:55:21 AM"	Unknown	150.98636	10/29/0116 09:57.56	00009059	3.039	Inter618t1-0	-0.836	1	2	180.171	24.444	-2.3	0.086	0.000	D	F	1284.9	179.646	0.165	-0.181	696.550	1018.196	0.030	-	-0.013	1.377	-	-	-	-	-	-	-	FREEWAY_SMOOTH	Urban	F	1011101000010101	0000000000000000	-	car	47.535	-8.446	8.667	2.000	180.023	696.399	968.302	-0.000	Terminate	
"Student8Mode3"	"Tanvi_6"	"Nov 29, 2016 09:55:21 AM"	Unknown	151.98637	10/29/0116 09:57.57	00009119	4.076	Inter618t1-0	-0.879	1	2	180.085	24.444	-3.0	0.048	0.000	D	F	1245.9	179.451	0.137	-0.133	696.585	1014.545	0.031	-	-0.017	0.237	-	-	-	-	-	-	-	FREEWAY_SMOOTH	Urban	F	1011101000010101	0000000000000000	-	car	53.534	-8.122	10.667	2.000	180.004	696.397	958.652	-0.000	Terminate	
"Student8Mode3"	"Tanvi_6"	"Nov 29, 2016 09:55:21 AM"	Unknown	152.98639	10/29/0116 09:57.58	00009179	4.534	Inter618t1-0	-0.946	1	2	180.015	24.444	-3.8	0.063	0.000	D	F	1361.9	179.099	0.161	-0.066	696.648	1010.253	0.028	-	-0.031	0.536	-	-	-	-	-	-	-	FREEWAY_SMOOTH	Urban	F	1011101000010101	0000000000000000	-	car	60.893	-7.487	12.667	2.000	180.003	696.397	947.001	-0.000	Terminate	
"Student8Mode3"	"Tanvi_6"	"Nov 29, 2016 09:55:21 AM"	Unknown	153.98642	10/29/0116 09:57.59	00009239	4.982	Inter618t1-0	-1.048	1	2	180.002	24.444	-2.7	0.067	0.000	D	F	1176.2	178.723	0.164	-0.005	696.748	1005.478	0.025	-	-0.014	0.418	-	-	-	-	-	-	-	FREEWAY_SMOOTH	Urban	F	1111101000010101	0000000000000000	-	car	69.769	-7.203	14.667	2.000	180.003	696.397	933.351	-0.000	Terminate	
"Student8Mode3"	"Tanvi_6"	"Nov 29, 2016 09:55:21 AM"	Unknown	154.98643	10/29/0116 09:58.00	00009299	6.494	Inter686t1-0	-0.468	1	1	180.000	11.111	7.3	0.229	0.000	D	F	1753.2	178.972	0.220	-0.017	696.865	999.847	0.018	-	0.115	1.831	-	-	-	-	-	-	-	PAVEMENT_GENERAL	Urban	F	1011101000010101	0000000000000000	-	car	79.789	-7.842	16.667	2.000	180.002	696.397	917.700	-0.000	Terminate	
