ZoneName	Time	SystemTime	Frame	Velocity	LaneName	LanePos	LaneIndex	LaneCount	LaneHeading	SpeedLimit	Steer	Accel	Brake	Gear	Horn	SubjectEngineRPM	SubjectHeading	SubjectPitch	SubjectRoll	SubjectX	SubjectY	SubjectZ	Signal	LatAccel	LongAccel	Collision	CollisionAngle	CollisionVelocity	VehAhead	HeadwayTime	HeadwayDist	TTC	TerrainType	CultureType	Slip	DigitalInputs	DigitalInputs2	ActiveTrigger	EntityName	DistToEntity	TimeToEntity	EntityVelocity	EntityAccel	EntityHeading	EntityX	EntityY	EntityZ	GrabData	
Unknown	0.98335	11/01/0116 09:28.04	00000059	0.002	Inter625t13-0	-0.088	1	2	0.000	11.111	7.3	0.000	0.000	P	F	0.0	0.002	0.153	-0.002	1503.500	523.206	0.019	-	-0.000	0.000	-	-	-	-	-	-	-	PAVEMENT_GENERAL	Urban	F	1011101000011101	0000000000000000	-	-	-	-	-	-	-	-	-	-	Terminate	
Unknown	1.98337	11/01/0116 09:28.05	00000119	0.000	Inter625t13-0	-0.088	1	2	0.000	11.111	7.3	0.000	0.000	P	F	0.0	0.001	0.197	-0.000	1503.500	523.208	0.026	-	0.000	-0.001	-	-	-	-	-	-	-	PAVEMENT_GENERAL	Urban	F	1011101000011101	0000000000010000	-	-	-	-	-	-	-	-	-	-	Terminate	
Unknown	2.98339	11/01/0116 09:28.06	00000179	-0.000	Inter625t13-0	-0.088	1	2	0.000	11.111	7.3	0.000	0.000	P	F	0.0	0.001	0.207	-0.000	1503.500	523.208	0.028	-	0.000	-0.000	-	-	-	-	-	-	-	PAVEMENT_GENERAL	Urban	F	1011101000011101	0000000000010000	-	-	-	-	-	-	-	-	-	-	Terminate	
Unknown	3.98341	11/01/0116 09:28.07	00000239	-0.000	Inter625t13-0	-0.088	1	2	0.000	11.111	7.3	0.000	0.000	N	F	0.0	0.001	0.210	-0.000	1503.500	523.208	0.028	-	0.000	-0.000	-	-	-	-	-	-	-	PAVEMENT_GENERAL	Urban	F	1111101000011101	0000000000010000	-	-	-	-	-	-	-	-	-	-	Terminate	
Unknown	4.98343	11/01/0116 09:28.08	00000299	-0.000	Inter625t13-0	-0.088	1	2	0.000	11.111	7.3	0.000	0.000	2	F	0.0	0.001	0.210	-0.000	1503.500	523.208	0.028	-	0.000	0.000	-	-	-	-	-	-	-	PAVEMENT_GENERAL	Urban	F	1011101000011101	0000000000010000	-	-	-	-	-	-	-	-	-	-	Terminate	
Unknown	5.98345	11/01/0116 09:28.09	00000359	-0.000	Inter625t13-0	-0.088	1	2	0.000	11.111	7.0	0.009	0.000	2	F	0.0	0.001	0.209	-0.000	1503.500	523.208	0.028	-	0.000	0.000	-	-	-	-	-	-	-	PAVEMENT_GENERAL	Urban	F	1011101000011101	0000000000010000	-	-	-	-	-	-	-	-	-	-	Terminate	
Unknown	6.98347	11/01/0116 09:28.10	00000419	-0.000	Inter625t13-0	-0.088	1	2	0.000	11.111	6.5	0.312	0.000	2	F	0.0	0.001	0.209	0.000	1503.500	523.208	0.028	-	0.000	0.000	-	-	-	-	-	-	-	PAVEMENT_GENERAL	Urban	F	1011101000011101	0000000000010000	-	-	-	-	-	-	-	-	-	-	Terminate	
Unknown	7.98349	11/01/0116 09:28.11	00000479	-0.000	Inter625t13-0	-0.088	1	2	0.000	11.111	-3.9	0.000	0.000	2	F	0.0	0.001	0.209	-0.000	1503.500	523.208	0.028	-	0.000	0.000	-	-	-	-	-	-	-	PAVEMENT_GENERAL	Urban	F	1011101000011101	0000000000010000	-	-	-	-	-	-	-	-	-	-	Terminate	
Unknown	8.98351	11/01/0116 09:28.12	00000539	-0.000	Inter625t13-0	-0.088	1	2	0.000	11.111	-5.4	0.000	0.000	N	F	0.0	0.001	0.209	0.000	1503.500	523.208	0.028	-	-0.000	0.000	-	-	-	-	-	-	-	PAVEMENT_GENERAL	Urban	F	1111101000011101	0000000000010000	-	-	-	-	-	-	-	-	-	-	Terminate	
Unknown	9.98353	11/01/0116 09:28.13	00000599	-0.000	Inter625t13-0	-0.088	1	2	0.000	11.111	-5.4	0.000	0.000	P	F	0.0	0.001	0.209	0.000	1503.500	523.208	0.028	-	-0.000	0.000	-	-	-	-	-	-	-	PAVEMENT_GENERAL	Urban	F	1111101000011101	0000000000010000	-	-	-	-	-	-	-	-	-	-	Terminate	
Unknown	10.98355	11/01/0116 09:28.14	00000659	-0.000	Inter625t13-0	-0.088	1	2	0.000	11.111	-3.6	0.000	0.000	P	F	227.8	0.001	0.209	0.000	1503.500	523.208	0.028	-	0.000	-0.000	-	-	-	-	-	-	-	PAVEMENT_GENERAL	Urban	F	1011101000011101	0000000000010000	-	-	-	-	-	-	-	-	-	-	Terminate	
Unknown	11.98357	11/01/0116 09:28.15	00000719	-0.000	Inter625t13-0	-0.088	1	2	0.000	11.111	-5.3	0.000	0.000	P	F	477.5	0.001	0.209	0.000	1503.500	523.208	0.028	-	-0.000	0.000	-	-	-	-	-	-	-	PAVEMENT_GENERAL	Urban	F	1011101000011101	0000000000010000	-	-	-	-	-	-	-	-	-	-	Terminate	
Unknown	12.98359	11/01/0116 09:28.16	00000779	0.000	Inter625t13-0	-0.088	1	2	0.000	11.111	-5.6	0.000	0.000	2	F	477.5	0.001	0.209	0.000	1503.500	523.208	0.028	-	-0.000	0.000	-	-	-	-	-	-	-	PAVEMENT_GENERAL	Urban	F	1011101000011101	0000000000010000	-	-	-	-	-	-	-	-	-	-	Terminate	
Unknown	13.98361	11/01/0116 09:28.17	00000839	0.243	Inter625t13-0	-0.088	1	2	0.000	11.111	-2.2	0.183	0.000	2	F	1367.4	0.000	0.192	-0.002	1503.500	523.235	0.012	-	0.004	2.031	-	-	-	-	-	-	-	PAVEMENT_GENERAL	Urban	F	1011101000011101	0000000000010000	-	-	-	-	-	-	-	-	-	-	Terminate	
Unknown	14.98363	11/01/0116 09:28.18	00000899	4.259	Inter625t13-0	-0.083	1	2	0.000	11.111	2.8	0.284	0.000	2	F	1867.6	0.122	0.224	-0.003	1503.505	525.528	0.009	-	0.020	3.424	-	-	-	-	-	-	-	PAVEMENT_GENERAL	Urban	F	1011101000011101	0000000000010000	-	-	-	-	-	-	-	-	-	-	Terminate	
Unknown	15.98365	11/01/0116 09:28.19	00000959	7.427	Inter625t13-0	-0.064	1	2	0.000	11.111	-2.8	0.416	0.000	2	F	2473.7	0.136	0.227	0.007	1503.524	531.424	0.012	-	-0.053	2.891	-	-	-	-	-	-	-	PAVEMENT_GENERAL	Urban	F	1011101000011101	0000000000010000	-	-	-	-	-	-	-	-	-	-	Terminate	
Unknown	16.98367	11/01/0116 09:28.20	00001019	10.256	Inter625t49-0	-0.046	1	1	0.006	11.111	7.2	0.434	0.000	2	F	3203.9	0.402	0.226	-0.034	1503.543	540.277	0.013	-	0.218	2.758	-	-	-	-	-	-	-	PAVEMENT_GENERAL	Urban	F	1011101000011101	0000000000010000	-	-	-	-	-	-	-	-	-	-	Terminate	
Unknown	17.98369	11/01/0116 09:28.21	00001079	12.459	Inter625t49-0	0.066	1	1	0.008	11.111	-2.9	0.437	0.000	2	F	2367.0	0.322	0.210	0.017	1503.656	551.777	0.019	-	-0.142	1.567	-	-	-	-	-	-	-	PAVEMENT_GENERAL	Urban	F	1011101000011101	0000000000010000	-	-	-	-	-	-	-	-	-	-	Terminate	
Unknown	18.98371	11/01/0116 09:28.22	00001139	13.923	Inter625t49-0	0.113	1	1	0.005	11.111	1.7	0.422	0.000	2	F	2502.4	0.339	0.210	-0.011	1503.705	564.977	0.020	-	0.100	1.423	-	-	-	-	-	-	-	PAVEMENT_GENERAL	Urban	F	1011101000011101	0000000000010000	-	-	-	-	-	-	-	-	-	-	Terminate	
Unknown	19.98373	11/01/0116 09:28.23	00001199	15.331	Inter625t49-0	0.200	1	1	0.005	11.111	-2.4	0.427	0.000	2	F	2675.6	0.163	0.208	0.022	1503.793	579.606	0.020	-	-0.142	1.398	-	-	-	-	-	-	-	PAVEMENT_GENERAL	Urban	F	1011101000011101	0000000000010000	-	-	-	-	-	-	-	-	-	-	Terminate	
Unknown	20.98375	11/01/0116 09:28.24	00001259	16.703	Inter625t15-0	0.260	1	2	0.000	11.111	-1.0	0.413	0.000	2	F	2877.1	0.455	0.206	-0.007	1503.853	595.627	0.020	-	0.063	1.349	-	-	-	-	-	-	-	PAVEMENT_GENERAL	Urban	F	1011101000011101	0000000000010000	-	-	-	-	-	-	-	-	-	-	Terminate	
Unknown	21.98377	11/01/0116 09:28.25	00001319	17.999	Inter614t1-0	0.307	1	2	0.000	11.111	1.0	0.383	0.000	2	F	3055.5	359.788	0.204	0.007	1503.900	612.990	0.021	-	-0.072	1.260	-	-	-	-	-	-	-	PAVEMENT_GENERAL	Urban	F	1011101000011101	0000000000010000	-	-	-	-	-	-	-	-	-	-	Terminate	
Unknown	22.98379	11/01/0116 09:28.26	00001379	19.324	Inter614t1-0	0.305	1	2	0.000	11.111	-2.1	0.499	0.000	2	F	3266.2	0.180	0.202	0.006	1503.898	631.641	0.020	-	-0.024	1.355	-	-	-	-	-	-	-	PAVEMENT_GENERAL	Urban	F	1111101000011101	0000000000010000	-	-	-	-	-	-	-	-	-	-	Terminate	
Unknown	23.98381	11/01/0116 09:28.27	00001439	20.682	Inter614t1-0	0.329	1	2	0.000	11.111	-0.2	0.557	0.000	2	F	3465.7	0.008	0.200	0.004	1503.922	651.644	0.020	-	-0.017	1.367	-	-	-	-	-	-	-	PAVEMENT_GENERAL	Urban	F	1111101000011101	0000000000010000	-	-	-	-	-	-	-	-	-	-	Terminate	
Unknown	24.98383	11/01/0116 09:28.28	00001499	22.012	Inter614t1-0	0.346	1	2	0.000	11.111	-0.6	0.510	0.000	2	F	3638.8	0.205	0.196	-0.009	1503.940	672.998	0.021	-	0.070	1.287	-	-	-	12	7.547	166.121	40.216	PAVEMENT_GENERAL	Urban	F	1011101000011101	0000000000010000	-	-	-	-	-	-	-	-	-	-	Terminate	
Unknown	25.98385	11/01/0116 09:28.29	00001559	22.029	Inter614t1-0	0.399	1	2	0.000	11.111	-0.3	0.037	0.000	2	F	3329.8	0.044	0.169	0.006	1503.992	695.244	0.030	-	-0.051	-0.830	-	-	-	12	7.378	162.541	73.392	PAVEMENT_GENERAL	Urban	F	1011101000011101	0000000000010000	-	-	-	-	-	-	-	-	-	-	Terminate	
Unknown	26.98387	11/01/0116 09:28.30	00001619	21.345	Inter614t1-0	0.418	1	2	0.000	11.111	0.4	0.074	0.000	2	F	3235.6	0.091	0.178	-0.008	1504.011	716.920	0.030	-	0.046	-0.643	-	-	-	12	7.562	161.406	654.083	PAVEMENT_GENERAL	Urban	F	1011101000011101	0000000000010000	-	-	-	-	-	-	-	-	-	-	Terminate	
Unknown	27.98389	11/01/0116 09:28.31	00001679	20.768	Inter614t1-0	0.460	1	2	0.000	11.111	0.3	0.122	0.000	2	F	3162.8	0.146	0.185	-0.002	1504.053	737.961	0.029	-	0.017	-0.361	-	-	-	12	7.792	161.823	-	PAVEMENT_GENERAL	Urban	F	1011101000011101	0000000000010000	-	-	-	-	-	-	-	-	-	-	Terminate	
Unknown	28.98391	11/01/0116 09:28.32	00001739	20.161	Inter614t1-0	0.499	1	2	0.000	11.111	-1.5	0.051	0.000	2	F	3053.5	0.000	0.179	0.018	1504.092	758.445	0.030	-	-0.131	-0.678	-	-	-	12	8.101	163.317	-	PAVEMENT_GENERAL	Urban	F	1011101000011101	0000000000010000	-	-	-	-	-	-	-	-	-	-	Terminate	
Unknown	29.98393	11/01/0116 09:28.33	00001799	19.437	Inter614t1-0	0.410	1	2	0.000	11.111	-2.9	0.025	0.000	2	F	2941.1	359.321	0.180	0.034	1504.004	778.251	0.030	-	-0.267	-0.728	-	-	-	12	8.533	165.848	-	PAVEMENT_GENERAL	Urban	F	1011101000011101	0000000000010000	-	-	-	-	-	-	-	-	-	-	Terminate	
Unknown	30.98395	11/01/0116 09:28.34	00001859	18.728	Inter614t1-0	0.096	1	2	0.000	11.111	1.9	0.041	0.000	2	F	2836.5	358.779	0.184	-0.004	1503.689	797.325	0.030	-	-0.002	-0.642	-	-	-	12	9.031	169.128	-	PAVEMENT_GENERAL	Urban	F	1011101000011101	0000000000010000	-	-	-	-	-	-	-	-	-	-	Terminate	
Unknown	31.98397	11/01/0116 09:28.35	00001919	18.612	Inter612t1-0	-0.187	1	2	0.000	11.111	2.5	0.176	0.000	2	F	2870.7	359.645	0.200	-0.035	1503.406	815.883	0.026	-	0.256	0.235	-	-	-	12	9.291	172.923	-	PAVEMENT_GENERAL	Urban	F	1011101000011101	0000000000010000	-	-	-	-	-	-	-	-	-	-	Terminate	
Unknown	32.98399	11/01/0116 09:28.36	00001979	18.697	Inter612t1-0	-0.305	1	2	0.000	11.111	-4.4	0.152	0.000	2	F	2863.6	359.379	0.189	0.038	1503.288	834.557	0.027	-	-0.274	-0.009	-	-	-	12	9.446	176.603	-	PAVEMENT_GENERAL	Urban	F	1011101000011101	0000000000010000	-	-	-	-	-	-	-	-	-	-	Terminate	
Unknown	33.98401	11/01/0116 09:28.37	00002039	18.891	Inter612t1-0	-0.575	1	2	0.000	11.111	9.1	0.205	0.000	2	F	2981.6	359.431	0.195	-0.068	1503.018	853.307	0.025	-	0.477	0.380	-	-	-	12	9.539	180.206	-	PAVEMENT_GENERAL	Urban	F	1011101000011101	0000000000010000	-	-	-	-	-	-	-	-	-	-	Terminate	
Unknown	34.98403	11/01/0116 09:28.38	00002099	19.438	Inter612t1-0	-0.506	1	2	0.000	11.111	4.3	0.231	0.000	2	F	3112.5	0.941	0.194	-0.039	1503.088	872.468	0.024	-	0.296	0.578	-	-	-	12	9.435	183.399	-	PAVEMENT_GENERAL	Urban	F	1111101000011101	0000000000010000	-	-	-	-	-	-	-	-	-	-	Terminate	
Unknown	35.98405	11/01/0116 09:28.39	00002159	20.090	Inter612t1-0	-0.089	1	2	0.000	11.111	-2.4	0.256	0.000	2	F	3224.6	1.427	0.194	0.006	1503.505	892.215	0.023	-	-0.040	0.697	-	-	-	12	9.258	186.005	-	PAVEMENT_GENERAL	Urban	F	1011101000011101	0000000000010000	-	-	-	-	-	-	-	-	-	-	Terminate	
Unknown	36.98407	11/01/0116 09:28.40	00002219	20.714	Inter612t1-0	0.282	1	2	0.000	11.111	-6.3	0.240	0.000	2	F	3268.1	0.436	0.191	0.053	1503.876	912.627	0.024	-	-0.413	0.558	-	-	-	12	9.074	187.946	-	PAVEMENT_GENERAL	Urban	F	1011101000011101	0000000000010000	-	-	-	-	-	-	-	-	-	-	Terminate	
Unknown	37.98409	11/01/0116 09:28.41	00002279	21.241	Inter612t1-0	0.326	1	2	0.000	11.111	2.1	0.238	0.000	2	F	3324.1	0.044	0.190	-0.018	1503.919	933.609	0.024	-	0.128	0.503	-	-	-	12	8.913	189.318	-	PAVEMENT_GENERAL	Urban	F	1011101000011101	0000000000010000	-	-	-	-	-	-	-	-	-	-	Terminate	
Unknown	38.98411	11/01/0116 09:28.42	00002339	21.729	Inter612t1-0	0.373	1	2	0.000	11.111	0.9	0.257	0.000	2	F	3416.4	0.187	0.194	-0.006	1503.966	955.089	0.024	-	0.046	0.606	-	-	-	12	8.753	190.191	-	PAVEMENT_GENERAL	Urban	F	1011101000011101	0000000000010000	-	-	-	-	-	-	-	-	-	-	Terminate	
Unknown	39.98413	11/01/0116 09:28.43	00002399	22.334	Inter612t1-0	0.466	1	2	0.000	11.111	-2.7	0.284	0.000	2	F	3536.6	0.193	0.190	0.020	1504.059	977.116	0.024	-	-0.133	0.688	-	-	-	12	8.530	190.518	-	PAVEMENT_GENERAL	Urban	F	1011101000011101	0000000000010000	-	-	-	-	-	-	-	-	-	-	Terminate	
Unknown	40.98415	11/01/0116 09:28.44	00002459	23.005	Inter612t1-0	0.532	1	2	0.000	11.111	-0.6	0.259	0.000	2	F	3564.5	0.232	0.187	0.001	1504.125	999.793	0.024	-	0.018	0.584	-	-	-	12	8.165	187.838	287.704	PAVEMENT_GENERAL	Urban	F	1011101000011101	0000000000010000	-	-	-	-	-	-	-	-	-	-	Terminate	
Unknown	41.98417	11/01/0116 09:28.45	00002519	23.442	Inter613t1-0	0.580	1	2	0.000	11.111	-0.4	0.252	0.000	2	F	3624.3	0.009	0.188	0.004	1504.173	1023.047	0.025	-	-0.043	0.418	-	-	-	12	8.075	189.295	173.644	PAVEMENT_GENERAL	Urban	F	1011101000011101	0000000000010000	-	-	-	-	-	-	-	-	-	-	Terminate	
Unknown	42.98419	11/01/0116 09:28.46	00002579	23.875	Inter613t1-0	0.561	1	2	0.000	11.111	-0.9	0.250	0.000	2	F	3690.0	359.857	0.184	0.010	1504.155	1046.708	0.025	-	-0.066	0.413	-	-	-	12	7.874	187.986	123.421	PAVEMENT_GENERAL	Urban	F	1011101000011101	0000000000010000	-	-	-	-	-	-	-	-	-	-	Terminate	
Unknown	43.98421	11/01/0116 09:28.47	00002639	24.276	Inter613t1-0	0.472	1	2	0.000	11.111	0.3	0.247	0.000	2	F	3750.8	359.726	0.184	-0.000	1504.065	1070.784	0.025	-	0.000	0.396	-	-	-	12	7.673	186.264	96.806	PAVEMENT_GENERAL	Urban	F	1011101000011101	0000000000010000	-	-	-	-	-	-	-	-	-	-	Terminate	
Unknown	44.98423	11/01/0116 09:28.48	00002699	24.618	Inter613t1-0	0.391	1	2	0.000	11.111	-0.2	0.173	0.000	2	F	3760.2	359.880	0.164	0.002	1503.984	1095.261	0.026	-	0.008	-0.210	-	-	-	12	7.480	184.141	81.265	PAVEMENT_GENERAL	Urban	F	1011101000011101	0000000000010000	-	-	-	-	-	-	-	-	-	-	Terminate	
Unknown	45.98425	11/01/0116 09:28.49	00002759	23.949	Inter613t1-0	0.337	1	2	0.000	11.111	0.4	0.000	0.000	2	F	3611.1	359.897	0.169	-0.004	1503.930	1119.635	0.031	-	0.026	-0.963	-	-	-	12	7.604	182.120	114.009	PAVEMENT_GENERAL	Urban	F	1011101000011101	0000000000010000	-	-	-	-	-	-	-	-	-	-	Terminate	
Unknown	46.98427	11/01/0116 09:28.50	00002819	23.031	Inter613t1-0	0.301	1	2	0.000	11.111	-0.2	0.023	0.000	2	F	3475.4	359.897	0.173	0.002	1503.894	1143.116	0.031	-	-0.022	-0.923	-	-	-	12	7.859	180.992	266.727	PAVEMENT_GENERAL	Urban	F	1011101000011101	0000000000010000	-	-	-	-	-	-	-	-	-	-	Terminate	
Unknown	47.98429	11/01/0116 09:28.51	00002879	23.263	Inter613t1-0	0.265	1	2	0.000	11.111	0.9	0.282	0.000	2	F	3632.9	0.000	0.186	-0.009	1503.858	1166.143	0.024	-	0.067	0.618	-	-	-	12	7.751	180.319	198.015	PAVEMENT_GENERAL	Urban	F	1011101000011101	0000000000010000	-	-	-	-	-	-	-	-	-	-	Terminate	
Unknown	48.98431	11/01/0116 09:28.52	00002939	24.080	Inter613t1-0	0.290	1	2	0.000	11.111	0.1	0.330	0.000	2	F	3818.1	0.204	0.188	-0.008	1503.883	1189.793	0.023	-	0.060	0.872	-	-	-	12	7.435	179.022	103.609	PAVEMENT_GENERAL	Urban	F	1111101000011101	0000000000010000	-	-	-	-	-	-	-	-	-	-	Terminate	
Unknown	49.98433	11/01/0116 09:28.53	00002999	24.914	Inter746t1-0	0.392	1	2	0.000	11.111	-0.4	0.328	0.000	2	F	3912.2	0.324	0.186	-0.002	1503.985	1214.294	0.023	-	0.018	0.816	-	-	-	12	7.099	176.875	69.037	PAVEMENT_GENERAL	Urban	F	1011101000011101	0000000000010000	-	-	-	-	-	-	-	-	-	-	Terminate	
Unknown	50.98435	11/01/0116 09:28.54	00003059	25.687	Inter746t1-0	0.528	1	2	0.000	11.111	-0.2	0.325	0.000	2	F	3998.3	0.304	0.183	0.001	1504.121	1239.600	0.024	-	-0.008	0.740	-	-	-	12	6.732	172.919	27.884	PAVEMENT_GENERAL	Urban	F	1011101000011101	0000000000010000	-	-	-	-	-	-	-	-	-	-	Terminate	
Unknown	51.98437	11/01/0116 09:28.55	00003119	26.406	Inter746t1-0	0.646	1	2	0.000	11.111	-0.9	0.325	0.000	2	F	4106.7	0.134	0.182	0.011	1504.239	1265.650	0.024	-	-0.090	0.694	-	-	-	12	6.225	164.387	15.053	PAVEMENT_GENERAL	Urban	F	1011101000011101	0000000000010000	-	-	-	-	-	-	-	-	-	-	Terminate	
Unknown	52.98439	11/01/0116 09:28.56	00003179	26.206	Inter746t1-0	0.681	1	2	0.000	11.111	-1.8	0.000	0.000	2	F	3950.1	359.882	0.161	0.021	1504.274	1292.162	0.032	-	-0.160	-1.039	-	-	-	12	5.779	151.440	10.687	PAVEMENT_GENERAL	Urban	F	1011101000011101	0000000000010000	-	-	-	-	-	-	-	-	-	-	Terminate	
Unknown	53.98441	11/01/0116 09:28.57	00003239	24.952	Inter746t1-0	0.572	1	2	0.000	11.111	-1.7	0.000	0.176	2	F	3683.0	359.493	0.114	0.018	1504.165	1317.834	0.033	-	-0.150	-2.658	-	-	-	12	5.504	137.323	9.945	PAVEMENT_GENERAL	Urban	F	1011101000011101	0000000000010000	-	-	-	-	-	-	-	-	-	-	Terminate	
Unknown	54.98443	11/01/0116 09:28.58	00003299	22.380	Inter746t1-0	0.323	1	2	0.000	11.111	-0.2	0.000	0.042	2	F	3359.7	359.188	0.169	0.007	1503.916	1341.200	0.032	-	-0.062	-1.311	-	-	-	-	-	-	-	PAVEMENT_GENERAL	Urban	F	1011101000011101	0000000000010000	-	-	-	-	-	-	-	-	-	-	Terminate	
Unknown	55.98445	11/01/0116 09:28.59	00003359	21.370	Inter746t1-0	0.037	1	2	0.000	11.111	6.0	0.000	0.000	2	F	3228.1	359.488	0.176	-0.046	1503.630	1363.043	0.031	-	0.334	-0.886	-	-	-	-	-	-	-	PAVEMENT_GENERAL	Urban	F	1111101000011101	0000000000010000	-	-	-	-	-	-	-	-	-	-	Terminate	
Unknown	56.98447	11/01/0116 09:29.00	00003419	20.034	Inter746t1-0	-0.018	1	2	0.000	11.111	-10.5	0.000	0.096	2	F	2989.2	359.650	0.153	0.076	1503.575	1383.874	0.033	-	-0.542	-2.006	-	-	-	-	-	-	-	PAVEMENT_GENERAL	Urban	F	1011101000011101	0000000000010000	-	-	-	-	-	-	-	-	-	-	Terminate	
Unknown	57.98449	11/01/0116 09:29.01	00003479	18.028	Inter749t9-0	-0.533	1	2	0.000	11.111	-17.8	0.000	0.104	2	F	2691.5	356.357	0.152	0.171	1503.060	1402.919	0.033	L	-1.292	-2.094	-	-	-	-	-	-	-	PAVEMENT_GENERAL	Urban	F	1011101000111101	0000000000010000	-	-	-	-	-	-	-	-	-	-	Terminate	
Unknown	58.98451	11/01/0116 09:29.02	00003539	15.953	-	-	SH-	1	-	-	9.0	0.000	0.104	2	F	2378.6	354.096	0.165	-0.026	1501.608	1419.842	0.033	L	0.102	-1.997	-	-	-	-	-	-	-	PAVEMENT_GENERAL	Urban	F	1011101000111101	0000000000010000	-	-	-	-	-	-	-	-	-	-	Terminate	
Unknown	59.98453	11/01/0116 09:29.03	00003599	14.103	-	-	SH	1	-	-	11.6	0.000	0.110	2	F	2104.5	357.412	0.157	-0.088	1500.432	1434.796	0.032	L	0.746	-1.948	-	-	-	-	-	-	-	PAVEMENT_GENERAL	Urban	F	1011101000111101	0000000000010000	-	-	-	-	-	-	-	-	-	-	Terminate	
Unknown	60.98455	11/01/0116 09:29.04	00003659	12.239	Inter749t31-0	-1.140	1	1	356.499	11.111	7.6	0.000	0.078	2	F	1834.3	359.804	0.178	-0.043	1500.103	1447.924	0.031	L	0.389	-1.555	-	-	-	-	-	-	-	PAVEMENT_GENERAL	Urban	F	1111101000111101	0000000000010000	-	-	-	-	-	-	-	-	-	-	Terminate	
Unknown	61.98457	11/01/0116 09:29.05	00003719	10.470	Inter749t31-0	-0.349	1	1	356.903	11.111	0.3	0.000	0.137	2	F	1556.4	0.556	0.165	-0.005	1500.157	1459.325	0.032	L	0.034	-2.135	-	-	-	-	-	-	-	PAVEMENT_GENERAL	Urban	F	1011101000111101	0000000000010000	-	-	-	-	-	-	-	-	-	-	Terminate	
Unknown	62.98459	11/01/0116 09:29.06	00003779	8.162	Inter749t11-0	0.182	LT1	2	0.000	11.111	-0.7	0.000	0.140	2	F	1213.4	0.499	0.167	0.001	1500.245	1468.623	0.032	L	-0.017	-2.242	-	-	-	-	-	-	-	PAVEMENT_GENERAL	Urban	F	1011101000111101	0000000000010000	-	-	-	-	-	-	-	-	-	-	Terminate	
Unknown	63.98461	11/01/0116 09:29.07	00003839	5.086	Inter749t11-0	0.235	LT1	2	0.000	11.111	-0.7	0.000	0.290	2	F	741.8	0.415	0.129	0.001	1500.297	1475.408	0.036	L	-0.006	-3.904	-	-	-	-	-	-	-	PAVEMENT_GENERAL	Urban	F	1011101000111101	0000000000010000	-	-	-	-	-	-	-	-	-	-	Terminate	
Unknown	64.98463	11/01/0116 09:29.08	00003899	2.039	Inter749t11-0	0.257	LT1	2	0.000	11.111	-1.0	0.000	0.000	2	F	477.5	0.373	0.274	0.001	1500.319	1478.695	0.033	L	-0.004	-0.441	-	-	-	-	-	-	-	PAVEMENT_GENERAL	Urban	F	1011101000111101	0000000000010000	-	-	-	-	-	-	-	-	-	-	Terminate	
Unknown	65.98465	11/01/0116 09:29.09	00003959	3.848	Inter749t11-0	0.257	LT1	2	0.000	11.111	-12.2	0.201	0.000	2	F	1707.3	0.000	0.204	0.013	1500.319	1481.180	0.011	L	-0.087	2.970	-	-	-	-	-	-	-	PAVEMENT_GENERAL	Urban	F	1111101000111101	0000000000010000	-	-	-	-	-	-	-	-	-	-	Terminate	
Unknown	66.98467	11/01/0116 09:29.10	00004019	6.081	Inter749t65-0	0.695	1	1	345.320	11.111	-37.3	0.266	0.000	2	F	2107.1	357.859	0.233	0.071	1500.192	1486.198	0.017	L	-0.528	2.387	-	-	-	-	-	-	-	PAVEMENT_GENERAL	Urban	F	1011101000111101	0000000000010000	-	-	-	-	-	-	-	-	-	-	Terminate	
Unknown	67.98470	11/01/0116 09:29.11	00004079	6.962	-Inter749t61-0	-0.169	-1	1	89.733	11.111	-174.9	0.000	0.000	2	F	1116.4	346.360	0.174	0.423	1499.204	1492.982	0.029	L	-3.035	-0.771	-	-	-	-	-	-	-	PAVEMENT_GENERAL	Urban	F	1111101000111101	0000000000010000	-	-	-	-	-	-	-	-	-	-	Terminate	
Unknown	68.98471	11/01/0116 09:29.12	00004139	6.875	-Inter749t83-0	0.758	-1	1	179.883	11.111	-190.4	0.102	0.000	2	F	1432.7	318.928	0.171	0.387	1495.670	1498.718	0.026	L	-3.039	0.276	-	-	-	Ambient252	8.367	57.528	-	PAVEMENT_GENERAL	Urban	F	1011101000111101	0000000000010000	-	-	-	-	-	-	-	-	-	-	Terminate	
Unknown	69.98473	11/01/0116 09:29.13	00004199	8.267	Inter749t65-0	1.383	1	1	299.914	11.111	-197.1	0.289	0.000	2	F	1902.6	291.679	0.205	0.551	1489.303	1502.592	0.022	L	-4.195	1.291	-	-	-	-	-	-	-	PAVEMENT_GENERAL	Urban	F	1111101000111101	0000000000010000	-	-	-	-	-	-	-	-	-	-	Terminate	
Unknown	70.98476	11/01/0116 09:29.14	00004259	9.830	Inter749t3-3	0.092	1	2	270.000	11.111	-26.4	0.303	0.000	2	F	2038.7	270.497	0.203	0.071	1480.350	1503.622	0.019	L	-0.873	1.537	-	-	-	-	-	-	-	PAVEMENT_GENERAL	Urban	F	1011101000111101	0000000000010000	-	-	-	-	-	-	-	-	-	-	Terminate	
Unknown	71.98477	11/01/0116 09:29.15	00004319	11.416	Inter749t3-3	-0.069	1	2	270.000	11.111	8.1	0.383	0.000	2	F	2219.1	268.882	0.214	-0.033	1469.730	1503.462	0.019	-	0.200	1.552	-	-	-	-	-	-	-	PAVEMENT_GENERAL	Urban	F	1011101000011101	0000000000010000	-	-	-	-	-	-	-	-	-	-	Terminate	
Unknown	72.98479	11/01/0116 09:29.16	00004379	12.918	Inter749t19-0	-0.151	1	1	270.092	11.111	3.7	0.423	0.000	2	F	2373.8	270.287	0.211	-0.029	1457.556	1503.390	0.020	-	0.203	1.452	-	-	-	-	-	-	-	PAVEMENT_GENERAL	Urban	F	1011101000011101	0000000000010000	-	-	-	-	-	-	-	-	-	-	Terminate	
Unknown	73.98481	11/01/0116 09:29.17	00004439	14.344	Inter749t19-0	-0.042	1	1	270.093	11.111	2.2	0.406	0.000	2	F	2549.1	270.700	0.210	-0.016	1443.921	1503.520	0.020	-	0.081	1.398	-	-	-	-	-	-	-	PAVEMENT_GENERAL	Urban	F	1011101000011101	0000000000010000	-	-	-	-	-	-	-	-	-	-	Terminate	
Unknown	74.98483	11/01/0116 09:29.18	00004499	15.738	Inter749t19-0	0.159	1	1	270.061	11.111	2.3	0.427	0.000	2	F	2737.1	271.088	0.207	-0.017	1428.883	1503.747	0.020	-	0.131	1.390	-	-	-	-	-	-	-	PAVEMENT_GENERAL	Urban	F	1011101000011101	0000000000010000	-	-	-	-	-	-	-	-	-	-	Terminate	
Unknown	75.98486	11/01/0116 09:29.19	00004559	17.118	Inter749t1-2	0.508	1	2	270.000	11.111	0.1	0.450	0.000	2	F	2943.8	271.456	0.206	-0.015	1412.458	1504.108	0.020	-	0.073	1.377	-	-	-	-	-	-	-	PAVEMENT_GENERAL	Urban	F	1011101000011101	0000000000010000	-	-	-	-	-	-	-	-	-	-	Terminate	
Unknown	76.98487	11/01/0116 09:29.20	00004619	18.465	Inter747t1-2	0.854	1	2	270.000	11.111	-4.4	0.439	0.000	2	F	3135.3	270.602	0.203	0.040	1394.666	1504.461	0.020	-	-0.307	1.328	-	-	-	-	-	-	-	PAVEMENT_GENERAL	Urban	F	1011101000011101	0000000000010000	-	-	-	-	-	-	-	-	-	-	Terminate	
Unknown	77.98489	11/01/0116 09:29.21	00004679	19.774	Inter747t1-2	0.971	1	2	270.000	11.111	-1.9	0.436	0.000	2	F	3318.8	270.047	0.200	0.020	1375.543	1504.578	0.021	-	-0.149	1.287	-	-	-	-	-	-	-	PAVEMENT_GENERAL	Urban	F	1011101000011101	0000000000010000	-	-	-	-	-	-	-	-	-	-	Terminate	
Unknown	78.98492	11/01/0116 09:29.22	00004739	21.043	Inter747t1-2	0.978	1	2	270.000	11.111	1.7	0.443	0.000	2	F	3496.2	270.189	0.198	-0.027	1355.132	1504.584	0.021	-	0.177	1.261	-	-	-	-	-	-	-	PAVEMENT_GENERAL	Urban	F	1011101000011101	0000000000010000	-	-	-	-	-	-	-	-	-	-	Terminate	
Unknown	79.98493	11/01/0116 09:29.23	00004799	22.284	Inter747t1-2	1.008	1	2	270.000	11.111	-1.1	0.443	0.000	2	F	3660.7	269.682	0.195	0.029	1333.464	1504.615	0.021	-	-0.239	1.222	-	-	-	-	-	-	-	PAVEMENT_GENERAL	Urban	F	1011101000011101	0000000000010000	-	-	-	-	-	-	-	-	-	-	Terminate	
Unknown	80.98495	11/01/0116 09:29.24	00004859	23.479	Inter747t1-2	0.928	1	2	270.000	11.111	0.6	0.439	0.000	2	F	3812.4	270.107	0.192	-0.024	1310.577	1504.535	0.021	-	0.188	1.164	-	-	-	-	-	-	-	PAVEMENT_GENERAL	Urban	F	1011101000011101	0000000000010000	-	-	-	-	-	-	-	-	-	-	Terminate	
Unknown	81.98497	11/01/0116 09:29.25	00004919	24.614	Inter747t1-2	0.857	1	2	270.000	11.111	2.1	0.439	0.000	2	F	3956.4	269.420	0.189	0.004	1286.526	1504.464	0.022	-	-0.084	1.112	-	-	-	-	-	-	-	PAVEMENT_GENERAL	Urban	F	1011101000011101	0000000000010000	-	-	-	-	-	-	-	-	-	-	Terminate	
Unknown	82.98499	11/01/0116 09:29.26	00004979	25.696	Inter747t1-2	0.705	1	2	270.000	11.111	0.1	0.441	0.000	2	F	4088.2	269.716	0.187	0.003	1261.367	1504.312	0.022	-	-0.030	1.051	-	-	-	-	-	-	-	PAVEMENT_GENERAL	Urban	F	1011101000011101	0000000000010000	-	-	-	-	-	-	-	-	-	-	Terminate	
Unknown	83.98502	11/01/0116 09:29.27	00005039	26.722	Inter747t1-2	0.644	1	2	270.000	11.111	-0.3	0.446	0.000	2	F	4211.5	270.110	0.184	-0.002	1235.153	1504.250	0.022	-	0.076	1.002	-	-	-	-	-	-	-	PAVEMENT_GENERAL	Urban	F	1011101000011101	0000000000010000	-	-	-	-	-	-	-	-	-	-	Terminate	
Unknown	84.98503	11/01/0116 09:29.28	00005099	27.690	Inter747t1-2	0.687	1	2	270.000	11.111	-0.3	0.446	0.000	2	F	4333.3	270.191	0.181	-0.005	1207.942	1504.294	0.023	-	0.054	0.946	-	-	-	-	-	-	-	PAVEMENT_GENERAL	Urban	F	1011101000011101	0000000000010000	-	-	-	-	-	-	-	-	-	-	Terminate	
Unknown	85.98505	11/01/0116 09:29.29	00005159	28.558	Inter748t1-2	0.759	1	2	270.000	11.111	-1.3	0.372	0.000	2	F	4447.2	270.065	0.176	0.013	1179.797	1504.366	0.024	-	-0.094	0.711	-	-	-	-	-	-	-	PAVEMENT_GENERAL	Urban	F	1011101000011101	0000000000010000	-	-	-	-	-	-	-	-	-	-	Terminate	
Unknown	86.98507	11/01/0116 09:29.30	00005219	28.323	Inter748t1-2	0.755	1	2	270.000	11.111	-0.5	0.113	0.000	2	F	4285.4	269.860	0.155	0.009	1151.222	1504.361	0.031	-	-0.073	-0.837	-	-	-	-	-	-	-	PAVEMENT_GENERAL	Urban	F	1011101000011101	0000000000010000	-	-	-	-	-	-	-	-	-	-	Terminate	
Unknown	87.98509	11/01/0116 09:29.31	00005279	27.584	Inter748t1-2	0.676	1	2	270.000	11.111	-0.6	0.134	0.000	2	F	4185.3	269.737	0.165	0.010	1123.288	1504.283	0.030	-	-0.080	-0.658	-	-	-	-	-	-	-	PAVEMENT_GENERAL	Urban	F	1011101000011101	0000000000010000	-	-	-	-	-	-	-	-	-	-	Terminate	
Unknown	88.98512	11/01/0116 09:29.32	00005339	27.079	Inter748t1-2	0.538	1	2	270.000	11.111	-0.2	0.198	0.000	2	F	4150.9	269.669	0.182	0.002	1095.996	1504.145	0.028	-	-0.016	-0.077	-	-	-	-	-	-	-	PAVEMENT_GENERAL	Urban	F	1011101000011101	0000000000010000	-	-	-	-	-	-	-	-	-	-	Terminate	
Unknown	89.98513	11/01/0116 09:29.33	00005399	26.887	Inter748t1-2	0.382	1	2	270.000	11.111	0.3	0.182	0.000	2	F	4112.0	269.693	0.171	-0.005	1069.007	1503.989	0.028	-	0.032	-0.219	-	-	-	-	-	-	-	PAVEMENT_GENERAL	Urban	F	1011101000011101	0000000000010000	-	-	-	-	-	-	-	-	-	-	Terminate	
Unknown	90.98515	11/01/0116 09:29.34	00005459	26.676	Inter748t1-2	0.262	1	2	270.000	11.111	1.6	0.178	0.000	2	F	4076.5	269.887	0.172	-0.018	1042.227	1503.869	0.028	-	0.125	-0.225	-	-	-	-	-	-	-	PAVEMENT_GENERAL	Urban	F	1011101000011101	0000000000010000	-	-	-	-	-	-	-	-	-	-	Terminate	
Unknown	91.98518	11/01/0116 09:29.35	00005519	26.033	Inter748t1-2	0.278	1	2	270.000	11.111	1.6	0.111	0.000	2	F	3943.9	270.361	0.167	-0.031	1015.836	1503.885	0.031	-	0.229	-0.753	-	-	-	-	-	-	-	PAVEMENT_GENERAL	Urban	F	1011101000011101	0000000000010000	-	-	-	-	-	-	-	-	-	-	Terminate	
Unknown	92.98519	11/01/0116 09:29.36	00005579	25.532	Inter752t1-2	-0.278	1	2	269.953	24.444	-2.8	0.141	0.000	2	F	3868.8	269.963	0.245	-0.162	990.061	1504.015	0.077	-	-0.303	-0.379	-	-	-	-	-	-	-	FREEWAY_SMOOTH	Urban	F	1111101000011101	0000000000010000	-	-	-	-	-	-	-	-	-	-	Terminate	
Unknown	93.98521	11/01/0116 09:29.37	00005639	25.147	Inter752t1-2	-0.264	1	2	269.006	24.444	-4.5	0.152	0.000	2	F	3829.2	268.903	0.273	-0.767	964.739	1503.835	0.084	-	-0.540	-0.321	-	-	-	-	-	-	-	FREEWAY_SMOOTH	Urban	F	1011101000011101	0000000000010000	-	-	-	-	-	-	-	-	-	-	Terminate	
Unknown	94.98523	11/01/0116 09:29.38	00005699	24.829	Inter752t1-2	-0.166	1	2	266.952	24.444	-8.1	0.159	0.000	2	F	3783.1	267.024	0.278	-1.328	939.767	1503.073	0.129	-	-1.011	-0.274	-	-	-	-	-	-	-	FREEWAY_SMOOTH	Urban	F	1111101000011101	0000000000010000	-	-	-	-	-	-	-	-	-	-	Terminate	
Unknown	95.98525	11/01/0116 09:29.39	00005759	24.522	Inter752t1-2	0.020	1	2	263.835	24.444	-15.2	0.131	0.000	2	F	3723.0	263.641	0.263	-1.835	915.139	1501.284	0.180	-	-1.798	-0.489	-	-	-	-	-	-	-	FREEWAY_SMOOTH	Urban	F	1011101000011101	0000000000010000	-	-	-	-	-	-	-	-	-	-	Terminate	
Unknown	96.98528	11/01/0116 09:29.40	00005819	24.195	Inter752t1-2	0.023	1	2	259.706	24.444	-17.6	0.155	0.000	2	F	3684.8	258.708	0.238	-2.388	891.048	1497.801	0.224	-	-2.219	-0.257	-	-	-	-	-	-	-	FREEWAY_SMOOTH	Urban	F	1011101000011101	0000000000010000	-	-	-	-	-	-	-	-	-	-	Terminate	
Unknown	97.98529	11/01/0116 09:29.41	00005879	23.937	Inter752t1-2	-0.237	1	2	254.616	24.444	-20.3	0.155	0.000	2	F	3645.9	252.900	0.178	-2.936	867.653	1492.188	0.254	-	-2.575	-0.217	-	-	-	-	-	-	-	FREEWAY_SMOOTH	Urban	F	1011101000011101	0000000000010000	-	-	-	-	-	-	-	-	-	-	Terminate	
Unknown	98.98531	11/01/0116 09:29.42	00005939	23.638	Inter752t1-2	-0.600	1	2	248.770	24.444	-14.9	0.143	0.000	2	F	3595.7	247.718	0.110	-3.259	845.190	1484.323	0.252	-	-1.963	-0.396	-	-	-	-	-	-	-	FREEWAY_SMOOTH	Urban	F	1011101000011101	0000000000010000	-	-	-	-	-	-	-	-	-	-	Terminate	
Unknown	99.98534	11/01/0116 09:29.43	00005999	23.315	Inter752t1-2	-0.571	1	2	242.867	24.444	-16.3	0.160	0.000	2	F	3554.6	242.894	0.177	-3.247	823.805	1474.684	0.253	-	-2.026	-0.227	-	-	-	-	-	-	-	FREEWAY_SMOOTH	Urban	F	1011101000011101	0000000000010000	-	-	-	-	-	-	-	-	-	-	Terminate	
Unknown	100.98535	11/01/0116 09:29.44	00006059	23.062	Inter752t1-2	-0.227	1	2	237.069	24.444	-21.3	0.160	0.000	2	F	3516.6	237.266	0.182	-3.183	803.592	1463.328	0.273	-	-2.483	-0.227	-	-	-	-	-	-	-	FREEWAY_SMOOTH	Urban	F	1011101000011101	0000000000010000	-	-	-	-	-	-	-	-	-	-	Terminate	
Unknown	101.98537	11/01/0116 09:29.45	00006119	22.807	Inter752t1-2	-0.014	1	2	231.334	24.444	-23.8	0.157	0.000	2	F	3477.6	230.559	0.124	-3.146	784.907	1450.043	0.287	-	-2.778	-0.211	-	-	-	-	-	-	-	FREEWAY_SMOOTH	Urban	F	1011101000011101	0000000000010000	-	-	-	-	-	-	-	-	-	-	Terminate	
Unknown	102.98539	11/01/0116 09:29.46	00006179	22.549	Inter752t1-2	-0.313	1	2	225.657	24.444	-22.0	0.157	0.000	2	F	3438.3	223.073	0.007	-3.129	768.170	1434.759	0.269	-	-2.898	-0.188	-	-	-	-	-	-	-	FREEWAY_SMOOTH	Urban	F	1011101000011101	0000000000010000	-	-	-	-	-	-	-	-	-	-	Terminate	
Unknown	103.98541	11/01/0116 09:29.47	00006239	22.077	Inter752t1-2	-1.102	1	2	220.052	24.444	-11.4	0.060	0.000	2	F	3342.1	217.559	0.019	-3.266	753.581	1417.795	0.224	-	-1.835	-0.733	-	-	-	-	-	-	-	FREEWAY_SMOOTH	Urban	F	1011101000011101	0000000000010000	-	-	-	-	-	-	-	-	-	-	Terminate	
Unknown	104.98544	11/01/0116 09:29.48	00006299	21.613	Inter752t1-2	-1.395	1	2	214.569	24.444	-3.0	0.159	0.000	2	F	3302.8	215.600	0.247	-3.452	740.640	1400.243	0.203	-	-0.478	-0.231	-	-	-	-	-	-	-	FREEWAY_SMOOTH	Urban	F	1011101000011101	0000000000010000	-	-	-	-	-	-	-	-	-	-	Terminate	
Unknown	105.98545	11/01/0116 09:29.49	00006359	21.489	Inter752t1-2	-0.465	1	2	209.166	24.444	-22.3	0.171	0.000	2	F	3284.3	211.840	0.346	-3.225	728.529	1382.422	0.258	-	-2.116	-0.047	-	-	-	-	-	-	-	FREEWAY_SMOOTH	Urban	F	1011101000011101	0000000000010000	-	-	-	-	-	-	-	-	-	-	Terminate	
Unknown	106.98547	11/01/0116 09:29.50	00006419	21.347	Inter752t1-2	0.442	1	2	203.829	24.444	-29.9	0.150	0.000	2	F	3255.0	204.434	0.208	-3.115	718.218	1363.649	0.314	-	-2.982	-0.189	-	-	-	-	-	-	-	FREEWAY_SMOOTH	Urban	F	1011101000011101	0000000000010000	-	-	-	-	-	-	-	-	-	-	Terminate	
Unknown	107.98550	11/01/0116 09:29.51	00006479	21.302	Inter752t1-2	0.325	1	2	198.534	24.444	-27.8	0.171	0.000	2	F	3254.1	195.379	-0.026	-3.080	710.684	1343.719	0.307	-	-3.255	-0.020	-	-	-	-	-	-	-	FREEWAY_SMOOTH	Urban	F	1011101000011101	0000000000010000	-	-	-	-	-	-	-	-	-	-	Terminate	
Unknown	108.98551	11/01/0116 09:29.52	00006539	21.298	Inter752t1-2	-0.859	1	2	193.480	24.444	-0.6	0.175	0.000	2	F	3265.3	190.149	-0.080	-2.951	706.036	1322.945	0.209	-	-0.723	-0.022	-	-	-	-	-	-	-	FREEWAY_SMOOTH	Urban	F	1011101000011101	0000000000010000	-	-	-	-	-	-	-	-	-	-	Terminate	
Unknown	109.98553	11/01/0116 09:29.53	00006599	21.306	Inter752t1-2	-1.388	1	2	189.237	24.444	-7.1	0.249	0.000	2	F	3354.7	189.394	0.131	-2.445	702.431	1301.969	0.154	-	-0.526	0.382	-	-	-	-	-	-	-	FREEWAY_SMOOTH	Urban	F	1011101000011101	0000000000010000	-	-	-	-	-	-	-	-	-	-	Terminate	
Unknown	110.98555	11/01/0116 09:29.54	00006659	21.884	Inter752t1-2	-1.097	1	2	185.719	24.444	-18.5	0.302	0.000	2	F	3501.1	186.173	0.131	-1.771	699.396	1280.608	0.134	-	-1.543	0.743	-	-	-	-	-	-	-	FREEWAY_SMOOTH	Urban	F	1011101000011101	0000000000010000	-	-	-	-	-	-	-	-	-	-	Terminate	
Unknown	111.98557	11/01/0116 09:29.55	00006719	22.594	Inter752t1-2	-1.035	1	2	182.969	24.444	-6.5	0.286	0.000	2	F	3562.1	182.423	0.097	-1.311	697.702	1258.417	0.106	-	-0.898	0.634	-	-	-	-	-	-	-	FREEWAY_SMOOTH	Urban	F	1011101000011101	0000000000010000	-	-	-	-	-	-	-	-	-	-	Terminate	
Unknown	112.98560	11/01/0116 09:29.56	00006779	23.215	Inter752t1-2	-0.993	1	2	181.074	24.444	-7.0	0.300	0.000	2	F	3654.5	181.578	0.115	-0.795	696.899	1235.528	0.074	-	-0.400	0.635	-	-	-	-	-	-	-	FREEWAY_SMOOTH	Urban	F	1011101000011101	0000000000010000	-	-	-	-	-	-	-	-	-	-	Terminate	
Unknown	113.98561	11/01/0116 09:29.57	00006839	23.862	Inter752t1-2	-0.804	1	2	180.109	24.444	-2.9	0.293	0.000	2	F	3727.5	180.320	0.103	-0.229	696.510	1211.986	0.042	-	-0.295	0.612	-	-	-	-	-	-	-	FREEWAY_SMOOTH	Urban	F	1011101000011101	0000000000010000	-	-	-	-	-	-	-	-	-	-	Terminate	
Unknown	114.98563	11/01/0116 09:29.58	00006899	24.471	Inter754t3-2	-0.026	1	2	180.000	11.111	-4.8	0.287	0.000	2	F	3795.5	179.856	0.186	0.051	696.419	1187.819	0.024	-	-0.345	0.605	-	-	-	Ambient320	-0.104	-2.548	-0.183	PAVEMENT_GENERAL	Urban	F	1011101000011101	0000000000010000	-	-	-	-	-	-	-	-	-	-	Terminate	
Unknown	115.98566	11/01/0116 09:29.59	00006959	25.073	Inter754t3-2	-0.162	1	2	180.000	11.111	4.3	0.291	0.000	2	F	3888.7	179.879	0.183	-0.054	696.555	1163.048	0.024	-	0.359	0.584	-	-	-	Ambient334	3.659	91.747	7.098	PAVEMENT_GENERAL	Urban	F	1011101000011101	0000000000010000	-	-	-	-	-	-	-	-	-	-	Terminate	
Unknown	116.98567	11/01/0116 09:30.00	00007019	25.624	Inter754t3-2	-0.175	1	2	180.000	11.111	2.3	0.286	0.000	2	F	3972.0	179.911	0.182	0.000	696.568	1137.692	0.025	-	-0.026	0.521	-	-	-	Ambient334	3.065	78.538	5.828	PAVEMENT_GENERAL	Urban	F	1011101000011101	0000000000010000	-	-	-	-	-	-	-	-	-	-	Terminate	
Unknown	117.98569	11/01/0116 09:30.01	00007079	25.957	Inter754t3-2	-0.127	1	2	180.000	11.111	-1.1	0.000	0.000	2	F	3912.4	180.240	0.131	0.007	696.520	1111.828	0.027	-	-0.011	-0.977	-	-	-	Ambient334	2.497	64.822	4.694	PAVEMENT_GENERAL	Urban	F	1011101000011101	0000000000010000	-	-	-	-	-	-	-	-	-	-	Terminate	
Unknown	118.98571	11/01/0116 09:30.02	00007139	24.583	Inter754t9-0	-0.067	1	1	179.992	11.111	-0.8	0.000	0.152	2	F	3629.8	179.982	0.109	0.010	696.461	1086.422	0.034	-	-0.082	-2.843	-	-	-	Ambient334	2.098	51.564	4.147	PAVEMENT_GENERAL	Urban	F	1111101000011101	0000000000010000	-	-	-	-	-	-	-	-	-	-	Terminate	
Unknown	119.98573	11/01/0116 09:30.03	00007199	22.159	Inter754t9-0	-0.080	1	1	179.989	11.111	0.0	0.000	0.191	2	F	3258.7	179.898	0.136	0.002	696.478	1062.861	0.036	-	-0.021	-3.227	-	-	-	Ambient334	1.704	37.763	3.772	PAVEMENT_GENERAL	Urban	F	1011101000011101	0000000000010000	-	-	-	-	-	-	-	-	-	-	Terminate	
Unknown	120.98576	11/01/0116 09:30.04	00007259	18.849	Inter754t9-0	-0.105	1	1	179.994	11.111	1.8	0.000	0.155	2	F	2785.9	180.040	0.147	-0.014	696.507	1042.406	0.035	-	0.111	-2.885	-	-	-	Ambient334	1.688	31.816	4.748	PAVEMENT_GENERAL	Urban	F	1011101000011101	0000000000010000	-	-	-	-	-	-	-	-	-	-	Terminate	
Unknown	121.98577	11/01/0116 09:30.05	00007319	17.756	Inter754t9-0	-0.064	1	1	179.996	11.111	0.0	0.000	0.000	2	F	2682.2	180.150	0.183	-0.004	696.468	1024.231	0.030	-	-0.005	-0.776	-	-	-	Ambient334	1.454	25.818	4.604	PAVEMENT_GENERAL	Urban	F	1011101000011101	0000000000010000	-	-	-	-	-	-	-	-	-	-	Terminate	
Unknown	122.98579	11/01/0116 09:30.06	00007379	16.722	Inter754t1-1	-0.041	1	1	180.000	11.111	-2.3	0.000	0.069	2	F	2503.6	179.835	0.160	0.022	696.445	1006.903	0.032	-	-0.161	-1.638	-	-	-	Ambient334	1.234	20.640	4.512	PAVEMENT_GENERAL	Urban	F	1011101000011101	0000000000010000	-	-	-	-	-	-	-	-	-	-	Terminate	
Unknown	123.98581	11/01/0116 09:30.07	00007439	14.964	Inter686t1-0	-0.091	1	1	180.000	11.111	2.0	0.000	0.101	2	F	2230.7	179.998	0.164	-0.016	696.487	990.958	0.033	-	0.108	-2.131	-	-	-	Ambient334	1.126	16.843	5.981	PAVEMENT_GENERAL	Urban	F	1011101000011101	0000000000010000	-	-	-	-	-	-	-	-	-	-	Terminate	
Unknown	124.98583	11/01/0116 09:30.08	00007499	13.833	Inter686t1-0	-0.060	1	1	180.000	11.111	-0.6	0.000	0.000	2	F	2092.3	180.214	0.188	0.004	696.456	976.671	0.029	-	-0.009	-0.669	-	-	-	Ambient334	1.063	14.702	8.726	PAVEMENT_GENERAL	Urban	F	1011101000011101	0000000000010000	-	-	-	-	-	-	-	-	-	-	Terminate	
Unknown	125.98586	11/01/0116 09:30.09	00007559	13.172	Inter686t1-0	-0.018	1	1	180.000	11.111	1.3	0.000	0.000	2	F	1992.9	180.175	0.191	-0.008	696.414	963.169	0.029	-	0.038	-0.652	-	-	-	Ambient334	1.013	13.348	13.031	PAVEMENT_GENERAL	Urban	F	1011101000011101	0000000000010000	-	-	-	-	-	-	-	-	-	-	Terminate	
Unknown	126.98587	11/01/0116 09:30.10	00007619	12.538	Inter686t1-0	0.031	1	1	180.000	11.111	-2.8	0.011	0.000	2	F	1899.7	180.132	0.193	0.017	696.365	950.320	0.029	-	-0.111	-0.576	-	-	-	Ambient334	1.009	12.645	32.422	PAVEMENT_GENERAL	Urban	F	1011101000011101	0000000000010000	-	-	-	-	-	-	-	-	-	-	Terminate	
Unknown	127.98589	11/01/0116 09:30.11	00007679	12.240	Inter686t1-0	0.051	1	1	180.000	11.111	2.9	0.065	0.000	2	F	1887.5	180.268	0.196	-0.016	696.345	937.971	0.027	-	0.121	-0.163	-	-	-	Ambient334	1.017	12.444	135.485	PAVEMENT_GENERAL	Urban	F	1011101000011101	0000000000010000	-	-	-	-	-	-	-	-	-	-	Terminate	
Unknown	128.98592	11/01/0116 09:30.12	00007739	12.122	Inter686t1-0	0.138	1	1	180.000	11.111	-1.6	0.079	0.000	2	F	1898.5	180.410	0.196	0.007	696.259	925.799	0.027	-	-0.051	-0.108	-	-	-	Ambient334	1.025	12.419	-	PAVEMENT_GENERAL	Urban	F	1011101000011101	0000000000010000	-	-	-	-	-	-	-	-	-	-	Terminate	
Unknown	129.98593	11/01/0116 09:30.13	00007799	12.039	Inter686t1-0	0.194	1	1	180.000	11.111	-1.0	0.071	0.000	2	F	1887.1	180.140	0.197	0.001	696.202	913.716	0.027	-	-0.041	-0.090	-	-	-	Ambient334	1.037	12.483	-	PAVEMENT_GENERAL	Urban	F	1011101000011101	0000000000010000	-	-	-	-	-	-	-	-	-	-	Terminate	
Unknown	130.98595	11/01/0116 09:30.14	00007859	11.974	Inter686t1-0	0.213	1	1	180.000	11.111	1.0	0.076	0.000	2	F	1891.9	180.102	0.197	-0.004	696.183	901.712	0.027	-	0.032	-0.054	-	-	-	Ambient334	1.054	12.626	-	PAVEMENT_GENERAL	Urban	F	1011101000011101	0000000000010000	-	-	-	-	-	-	-	-	-	-	Terminate	
Unknown	131.98598	11/01/0116 09:30.15	00007919	11.834	Inter686t1-0	0.248	1	1	180.000	11.111	-3.1	0.000	0.000	2	F	1790.8	180.134	0.184	0.016	696.148	889.747	0.029	-	-0.099	-0.615	-	-	-	Ambient334	1.082	12.809	-	PAVEMENT_GENERAL	Urban	F	1011101000011101	0000000000010000	-	-	-	-	-	-	-	-	-	-	Terminate	
Unknown	132.98599	11/01/0116 09:30.16	00007979	11.383	Inter686t1-0	0.228	1	1	180.000	11.111	0.0	0.051	0.000	2	F	1746.8	179.804	0.200	0.002	696.168	878.169	0.028	-	-0.004	-0.204	-	-	-	Ambient334	1.175	13.378	-	PAVEMENT_GENERAL	Urban	F	1011101000011101	0000000000010000	-	-	-	-	-	-	-	-	-	-	Terminate	
Unknown	133.98601	11/01/0116 09:30.17	00008039	11.332	Inter686t1-0	0.198	1	1	180.000	11.111	1.1	0.097	0.000	2	F	1868.7	179.892	0.201	-0.001	696.198	866.841	0.026	-	0.032	0.147	-	-	-	Ambient334	1.253	14.197	-	PAVEMENT_GENERAL	Urban	F	1011101000011101	0000000000010000	-	-	-	-	-	-	-	-	-	-	Terminate	
Unknown	134.98604	11/01/0116 09:30.18	00008099	11.534	Inter686t1-0	0.192	1	1	180.000	11.111	0.6	0.113	0.000	2	F	1914.2	180.033	0.201	-0.003	696.204	855.424	0.025	-	0.023	0.252	-	-	-	Ambient334	1.294	14.927	-	PAVEMENT_GENERAL	Urban	F	1011101000011101	0000000000010000	-	-	-	-	-	-	-	-	-	-	Terminate	
Unknown	135.98605	11/01/0116 09:30.19	00008159	11.750	Inter686t1-0	0.208	1	1	180.000	11.111	0.0	0.111	0.000	2	F	1936.1	180.096	0.200	-0.000	696.188	843.780	0.025	-	0.001	0.195	-	-	-	Ambient334	1.313	15.431	-	PAVEMENT_GENERAL	Urban	F	1011101000011101	0000000000010000	-	-	-	-	-	-	-	-	-	-	Terminate	
Unknown	136.98607	11/01/0116 09:30.20	00008219	11.907	Inter686t1-0	0.227	1	1	180.000	11.111	-1.0	0.101	0.000	2	F	1937.1	180.087	0.200	0.005	696.169	831.944	0.026	-	-0.028	0.107	-	-	-	Ambient334	1.322	15.742	-	PAVEMENT_GENERAL	Urban	F	1011101000011101	0000000000010000	-	-	-	-	-	-	-	-	-	-	Terminate	
Unknown	137.98610	11/01/0116 09:30.21	00008279	11.966	Inter686t1-0	0.216	1	1	180.000	11.111	-6.0	0.079	0.000	2	F	1897.6	179.700	0.197	0.029	696.180	819.996	0.026	-	-0.203	-0.033	-	-	-	Ambient334	1.332	15.941	-	PAVEMENT_GENERAL	Urban	F	1011101000011101	0000000000010000	-	-	-	-	-	-	-	-	-	-	Terminate	
Unknown	138.98611	11/01/0116 09:30.22	00008339	11.963	Inter686t1-0	0.049	1	1	180.000	11.111	4.4	0.083	0.000	2	F	1913.9	178.952	0.198	-0.012	696.347	808.038	0.026	-	0.087	0.020	-	-	-	Ambient334	1.348	16.131	-	PAVEMENT_GENERAL	Urban	F	1011101000011101	0000000000010000	-	-	-	-	-	-	-	-	-	-	Terminate	
Unknown	139.98613	11/01/0116 09:30.23	00008399	11.998	Inter682t1-1	0.015	1	1	180.000	11.111	6.8	0.093	0.000	2	F	1931.7	180.666	0.198	-0.033	696.388	796.062	0.026	-	0.295	0.036	-	-	-	Ambient334	1.359	16.301	-	PAVEMENT_GENERAL	Urban	F	1011101000011101	0000000000010000	-	-	-	-	-	-	-	-	-	-	Terminate	
Unknown	140.98616	11/01/0116 09:30.24	00008459	12.036	Inter682t1-1	0.212	1	1	180.000	11.111	-1.8	0.090	0.000	2	F	1936.0	180.905	0.198	0.009	696.192	784.045	0.026	-	-0.069	0.034	-	-	-	Ambient334	1.365	16.432	-	PAVEMENT_GENERAL	Urban	F	1011101000011101	0000000000010000	-	-	-	-	-	-	-	-	-	-	Terminate	
Unknown	141.98618	11/01/0116 09:30.25	00008519	12.087	Inter682t1-1	0.362	1	1	180.000	11.111	-2.0	0.095	0.000	2	F	1955.2	180.519	0.199	0.010	696.042	771.992	0.026	-	-0.080	0.082	-	-	-	Ambient334	1.367	16.526	-	PAVEMENT_GENERAL	Urban	F	1011101000011101	0000000000010000	-	-	-	-	-	-	-	-	-	-	Terminate	
Unknown	142.98619	11/01/0116 09:30.26	00008579	12.137	Inter682t1-1	0.433	1	1	180.000	11.111	-1.9	0.111	0.000	2	F	1983.3	180.168	0.198	0.009	695.971	759.876	0.026	-	-0.072	0.050	-	-	-	Ambient334	1.358	16.481	80.325	PAVEMENT_GENERAL	Urban	F	1011101000011101	0000000000010000	-	-	-	-	-	-	-	-	-	-	Terminate	
Unknown	143.98621	11/01/0116 09:30.27	00008639	12.251	Inter682t1-1	0.438	1	1	180.000	11.111	-2.4	0.097	0.000	2	F	1973.9	179.899	0.198	0.013	695.966	747.673	0.026	-	-0.083	0.068	-	-	-	Ambient334	1.313	16.086	28.241	PAVEMENT_GENERAL	Urban	F	1011101000011101	0000000000010000	-	-	-	-	-	-	-	-	-	-	Terminate	
Unknown	144.98624	11/01/0116 09:30.28	00008699	12.299	Inter682t1-1	0.368	1	1	180.000	11.111	-2.4	0.095	0.000	2	F	1970.9	179.459	0.198	0.012	696.036	735.396	0.026	-	-0.095	0.039	-	-	-	Ambient334	1.251	15.387	18.826	PAVEMENT_GENERAL	Urban	F	1011101000011101	0000000000010000	-	-	-	-	-	-	-	-	-	-	Terminate	
Unknown	145.98625	11/01/0116 09:30.29	00008759	12.363	Inter682t1-1	0.213	1	1	180.000	11.111	1.2	0.108	0.000	2	F	2005.9	179.184	0.199	-0.005	696.191	723.069	0.026	-	0.022	0.105	-	-	-	Ambient334	1.169	14.450	13.791	PAVEMENT_GENERAL	Urban	F	1011101000011101	0000000000010000	-	-	-	-	-	-	-	-	-	-	Terminate	
Unknown	146.98627	11/01/0116 09:30.30	00008819	12.412	Inter682t1-1	0.093	1	1	180.000	11.111	3.8	0.088	0.000	2	F	1976.4	179.870	0.198	-0.024	696.311	710.672	0.026	-	0.182	0.015	-	-	-	Ambient334	1.071	13.294	10.661	PAVEMENT_GENERAL	Urban	F	1011101000011101	0000000000010000	-	-	-	-	-	-	-	-	-	-	Terminate	
Unknown	147.98630	11/01/0116 09:30.31	00008879	12.437	Inter682t1-1	0.098	1	1	180.000	11.111	-3.2	0.092	0.000	2	F	1981.6	179.953	0.198	0.016	696.306	698.248	0.026	-	-0.111	0.019	-	-	-	Ambient334	0.964	11.987	8.791	PAVEMENT_GENERAL	Urban	F	1011101000011101	0000000000010000	-	-	-	-	-	-	-	-	-	-	Terminate	
Unknown	148.98631	11/01/0116 09:30.32	00008939	12.456	Inter682t1-1	0.023	1	1	180.000	11.111	1.3	0.095	0.000	2	F	1986.8	179.416	0.198	-0.001	696.381	685.803	0.026	-	-0.005	0.021	-	-	-	Ambient334	0.848	10.563	7.124	PAVEMENT_GENERAL	Urban	F	1011101000011101	0000000000010000	-	-	-	-	-	-	-	-	-	-	Terminate	
Unknown	149.98633	11/01/0116 09:30.33	00008999	12.473	Inter682t1-1	-0.035	1	1	180.000	11.111	4.6	0.090	0.000	2	F	1987.5	180.128	0.198	-0.024	696.439	673.336	0.026	-	0.189	0.011	-	-	-	Ambient334	0.724	9.035	5.737	PAVEMENT_GENERAL	Urban	F	1011101000011101	0000000000010000	-	-	-	-	-	-	-	-	-	-	Terminate	
Unknown	150.98636	11/01/0116 09:30.34	00009059	12.113	Inter682t1-1	0.049	1	1	180.000	11.111	-2.7	0.000	0.000	2	F	1833.4	180.389	0.190	0.013	696.355	660.965	0.029	-	-0.095	-0.626	-	-	-	Ambient334	0.622	7.537	5.958	PAVEMENT_GENERAL	Urban	F	1011101000011101	0000000000010000	-	-	-	-	-	-	-	-	-	-	Terminate	
Unknown	151.98637	11/01/0116 09:30.35	00009119	11.452	Inter682t1-1	0.076	1	1	180.000	11.111	-1.4	0.000	0.000	2	F	1733.6	179.948	0.193	0.007	696.328	649.197	0.029	-	-0.055	-0.610	-	-	-	Ambient334	0.573	6.558	5.650	PAVEMENT_GENERAL	Urban	F	1011101000011101	0000000000010000	-	-	-	-	-	-	-	-	-	-	Terminate	
Unknown	152.98639	11/01/0116 09:30.36	00009179	10.039	Inter682t1-1	0.041	1	1	180.000	11.111	-1.5	0.000	0.119	2	F	1495.6	179.689	0.171	0.006	696.363	638.298	0.032	-	-0.049	-2.006	-	-	-	Ambient334	0.554	5.562	24.035	PAVEMENT_GENERAL	Urban	F	1011101000011101	0000000000010000	-	-	-	-	-	-	-	-	-	-	Terminate	
Unknown	153.98642	11/01/0116 09:30.37	00009239	8.849	Inter682t1-1	-0.025	1	1	180.000	11.111	0.5	0.000	0.000	2	F	1340.3	179.577	0.196	-0.002	696.428	629.050	0.029	-	0.012	-0.547	-	-	-	Ambient334	0.704	6.234	-	PAVEMENT_GENERAL	Urban	F	1011101000011101	0000000000010000	-	-	-	-	-	-	-	-	-	-	Terminate	
Unknown	154.98643	11/01/0116 09:30.38	00009299	8.308	Inter682t1-1	-0.078	1	1	180.000	11.111	1.6	0.000	0.000	2	F	1258.9	179.692	0.196	-0.005	696.482	620.473	0.029	-	0.036	-0.535	-	-	-	Ambient334	0.888	7.375	-	PAVEMENT_GENERAL	Urban	F	1011101000011101	0000000000010000	-	-	-	-	-	-	-	-	-	-	Terminate	
Unknown	155.98645	11/01/0116 09:30.39	00009359	7.798	Inter682t1-1	-0.097	1	1	180.000	11.111	1.8	0.000	0.000	2	F	1181.7	179.976	0.196	-0.005	696.501	612.414	0.029	-	0.038	-0.523	-	-	-	Ambient334	1.013	7.897	-	PAVEMENT_GENERAL	Urban	F	1011101000011101	0000000000010000	-	-	-	-	-	-	-	-	-	-	Terminate	
Unknown	156.98647	11/01/0116 09:30.40	00009419	7.280	Inter682t1-1	-0.085	1	1	180.000	11.111	-0.2	0.000	0.000	2	F	1103.4	180.149	0.197	0.004	696.488	604.875	0.029	L	-0.005	-0.512	-	-	-	Ambient334	1.316	9.578	-	PAVEMENT_GENERAL	Urban	F	1011101000111101	0000000000010000	-	-	-	-	-	-	-	-	-	-	Terminate	
Unknown	157.98650	11/01/0116 09:30.41	00009479	6.774	Inter688t25-1	-0.109	1	1	180.000	11.111	-8.8	0.000	0.000	2	F	1026.9	179.599	0.197	0.024	696.505	597.849	0.029	L	-0.168	-0.502	-	-	-	Ambient334	1.615	10.944	-	PAVEMENT_GENERAL	Urban	F	1011101000111101	0000000000010000	-	-	-	-	-	-	-	-	-	-	Terminate	
Unknown	158.98651	11/01/0116 09:30.42	00009539	6.374	Inter688t25-1	-0.297	1	1	180.000	11.111	-21.3	0.035	0.000	2	F	1102.6	177.529	0.207	0.035	696.693	591.316	0.027	L	-0.290	-0.076	-	-	-	Ambient334	2.090	13.322	-	PAVEMENT_GENERAL	Urban	F	1011101000111101	0000000000010000	-	-	-	-	-	-	-	-	-	-	Terminate	
Unknown	159.98653	11/01/0116 09:30.43	00009599	6.885	Inter688t25-1	-0.773	1	1	180.000	11.111	-13.3	0.141	0.000	2	F	1532.3	175.137	0.214	0.025	697.169	584.798	0.023	L	-0.194	0.881	-	-	-	Ambient334	1.906	13.122	-	PAVEMENT_GENERAL	Urban	F	1011101000111101	0000000000010000	-	-	-	-	-	-	-	-	-	-	Terminate	
Unknown	160.98656	11/01/0116 09:30.44	00009659	7.696	Inter688t33-0	-1.115	1	1	174.647	11.111	-1.7	0.136	0.000	2	F	1575.2	173.933	0.206	0.001	697.901	577.535	0.023	L	-0.024	0.745	-	-	-	Ambient334	2.183	16.805	-	PAVEMENT_GENERAL	Urban	F	1011101000111101	0000000000010000	-	-	-	-	-	-	-	-	-	-	Terminate	
Unknown	161.98657	11/01/0116 09:30.45	00009719	8.530	Inter688t33-0	-1.346	1	1	172.850	11.111	10.4	0.143	0.000	2	F	1643.9	174.754	0.210	-0.025	698.713	569.452	0.023	L	0.231	0.778	-	-	-	Ambient334	1.737	14.817	18.370	PAVEMENT_GENERAL	Urban	F	1011101000111101	0000000000010000	-	-	-	-	-	-	-	-	-	-	Terminate	
Unknown	162.98659	11/01/0116 09:30.46	00009779	8.876	Inter688t33-0	-0.869	1	1	175.007	11.111	15.3	0.000	0.000	2	F	1343.5	176.653	0.174	-0.052	699.355	560.659	0.027	L	0.398	-0.556	-	-	-	-	-	-	-	PAVEMENT_GENERAL	Urban	F	1011101000111101	0000000000010000	-	-	-	-	-	-	-	-	-	-	Terminate	
Unknown	163.98662	11/01/0116 09:30.47	00009839	8.334	Inter688t33-0	-0.348	1	1	176.027	11.111	8.9	0.000	0.000	2	F	1262.9	178.547	0.196	-0.027	699.672	552.061	0.029	L	0.210	-0.536	-	-	-	-	-	-	-	PAVEMENT_GENERAL	Urban	F	1011101000111101	0000000000010000	-	-	-	-	-	-	-	-	-	-	Terminate	
Unknown	164.98663	11/01/0116 09:30.48	00009899	7.713	Inter688t33-0	0.123	1	1	176.027	11.111	7.5	0.000	0.069	2	F	1157.4	179.861	0.167	-0.016	699.760	544.000	0.029	L	0.137	-1.284	-	-	-	-	-	-	-	PAVEMENT_GENERAL	Urban	F	1011101000111101	0000000000010000	-	-	-	-	-	-	-	-	-	-	Terminate	
Unknown	165.98665	11/01/0116 09:30.49	00009959	6.706	Inter688t27-1	0.244	LT1	1	179.909	11.111	1.5	0.000	0.033	2	F	1012.6	180.497	0.198	-0.002	699.718	536.816	0.030	L	0.022	-0.853	-	-	-	-	-	-	-	PAVEMENT_GENERAL	Urban	F	1011101000111101	0000000000010000	-	-	-	-	-	-	-	-	-	-	Terminate	
Unknown	166.98668	11/01/0116 09:30.50	00010019	4.872	Inter688t27-1	0.306	LT1	1	179.909	11.111	-2.1	0.000	0.060	2	F	735.1	180.469	0.197	0.002	699.665	530.951	0.032	L	-0.019	-1.259	-	-	-	-	-	-	-	PAVEMENT_GENERAL	Urban	F	1011101000111101	0000000000010000	-	-	-	-	-	-	-	-	-	-	Terminate	
Unknown	167.98669	11/01/0116 09:30.51	00010079	4.148	Inter688t27-1	0.334	LT1	1	179.909	11.111	-3.0	0.000	0.069	2	F	623.3	180.209	0.177	0.002	699.644	526.437	0.029	L	-0.017	-1.170	-	-	-	44	8.422	34.938	-	PAVEMENT_GENERAL	Urban	F	1011101000111101	0000000000010000	-	-	-	-	-	-	-	-	-	-	Terminate	
Unknown	168.98671	11/01/0116 09:30.52	00010139	2.246	Inter688t27-1	0.341	LT1	1	179.909	11.111	-3.0	0.000	0.170	2	F	477.5	180.008	0.153	0.000	699.643	523.144	0.032	L	-0.002	-2.488	-	-	-	44	18.988	42.650	-	PAVEMENT_GENERAL	Urban	F	1011101000111101	0000000000010000	-	-	-	-	-	-	-	-	-	-	Terminate	
Unknown	169.98674	11/01/0116 09:30.53	00010199	0.421	Inter688t27-1	0.340	LT1	1	179.909	11.111	-2.9	0.000	0.096	2	F	477.5	179.935	0.213	-0.000	699.645	521.970	0.030	L	0.001	-0.823	-	-	-	44	129.545	54.477	-	PAVEMENT_GENERAL	Urban	F	1011101000111101	0000000000010000	-	-	-	-	-	-	-	-	-	-	Terminate	
Unknown	170.98676	11/01/0116 09:30.54	00010259	0.350	Inter688t27-1	0.340	LT1	1	179.909	11.111	-2.8	0.000	0.000	2	F	477.5	179.916	0.210	0.000	699.646	521.657	0.027	L	-0.000	0.153	-	-	-	44	195.888	68.498	-	PAVEMENT_GENERAL	Urban	F	1011101000111101	0000000000010000	-	-	-	-	-	-	-	-	-	-	Terminate	
Unknown	171.98677	11/01/0116 09:30.55	00010319	0.456	Inter688t27-1	0.339	LT1	1	179.909	11.111	-2.8	0.000	0.000	2	F	477.5	179.892	0.204	0.000	699.647	521.247	0.026	L	-0.000	0.070	-	-	-	44	182.005	83.084	-	PAVEMENT_GENERAL	Urban	F	1011101000111101	0000000000010000	-	-	-	-	-	-	-	-	-	-	Terminate	
Unknown	172.98679	11/01/0116 09:30.56	00010379	0.502	Inter688t27-1	0.338	LT1	1	179.909	11.111	-2.0	0.002	0.000	2	F	477.5	179.868	0.204	-0.000	699.649	520.765	0.026	L	-0.000	0.030	-	-	-	44	195.308	98.087	-	PAVEMENT_GENERAL	Urban	F	1011101000111101	0000000000010000	-	-	-	-	-	-	-	-	-	-	Terminate	
Unknown	173.98682	11/01/0116 09:30.57	00010439	1.333	Inter688t27-1	0.337	LT1	1	179.909	11.111	-1.6	0.074	0.000	2	F	1044.3	179.841	0.200	0.000	699.652	520.023	0.021	L	-0.002	1.377	-	-	-	44	83.036	110.655	-	PAVEMENT_GENERAL	Urban	F	1011101000111101	0000000000010000	-	-	-	-	-	-	-	-	-	-	Terminate	
Unknown	174.98683	11/01/0116 09:30.58	00010499	2.458	Inter688t59-0	0.335	1	1	177.491	11.111	-8.5	0.063	0.000	2	F	1106.4	179.670	0.219	0.006	699.664	518.053	0.022	L	-0.038	1.028	-	-	-	44	51.538	126.671	-	PAVEMENT_GENERAL	Urban	F	1011101000111101	0000000000010000	-	-	-	-	-	-	-	-	-	-	Terminate	
Unknown	175.98685	11/01/0116 09:30.59	00010559	4.257	Inter688t59-0	0.625	1	1	167.622	11.111	-42.3	0.164	0.000	2	F	1665.6	178.262	0.224	0.051	699.749	514.750	0.017	L	-0.379	2.057	-	-	-	44	32.674	139.094	-	PAVEMENT_GENERAL	Urban	F	1011101000111101	0000000000010000	-	-	-	-	-	-	-	-	-	-	Terminate	
Unknown	176.98688	11/01/0116 09:31.00	00010619	5.963	Inter688t59-0	1.542	1	1	156.117	11.111	-118.4	0.122	0.000	2	F	1635.0	170.010	0.212	0.201	700.406	509.615	0.019	L	-1.517	1.299	-	-	-	44	25.134	149.870	-	PAVEMENT_GENERAL	Urban	F	1011101000111101	0000000000010000	-	-	-	-	-	-	-	-	-	-	Terminate	
Unknown	177.98689	11/01/0116 09:31.01	00010679	6.146	-Inter688t55-0	0.316	-1	1	269.712	11.111	-126.8	0.118	0.000	2	F	1433.0	155.652	0.210	0.225	702.478	503.951	0.024	L	-1.696	0.682	-	-	-	Ambient415	9.707	59.655	-	PAVEMENT_GENERAL	Urban	F	1011101000111101	0000000000010000	-	-	-	-	-	-	-	-	-	-	Terminate	
Unknown	178.98691	11/01/0116 09:31.02	00010739	6.596	-	-	INT	0	-	-	-189.2	0.000	0.000	2	F	982.7	136.308	0.149	0.394	706.348	498.803	0.027	L	-2.886	-0.784	-	-	-	-	-	-	-	PAVEMENT_GENERAL	Urban	F	1011101000111101	0000000000010000	-	-	-	-	-	-	-	-	-	-	Terminate	
Unknown	179.98694	11/01/0116 09:31.03	00010799	6.086	Inter688t43-0	0.688	1	1	89.747	11.111	-213.0	0.037	0.000	2	F	1073.2	110.355	0.170	0.370	711.839	495.789	0.029	L	-2.796	-0.403	-	-	-	44	29.213	177.792	-	PAVEMENT_GENERAL	Urban	F	1011101000111101	0000000000010000	-	-	-	-	-	-	-	-	-	-	Terminate	
Unknown	180.98695	11/01/0116 09:31.04	00010859	6.869	Inter688t43-0	1.283	1	1	89.747	11.111	-94.7	0.173	0.000	2	F	1644.8	90.406	0.216	0.167	718.143	495.221	0.021	L	-1.397	1.372	-	-	-	44	27.318	187.648	-	PAVEMENT_GENERAL	Urban	F	1011101000111101	0000000000010000	-	-	-	-	-	-	-	-	-	-	Terminate	
Unknown	181.98697	11/01/0116 09:31.05	00010919	8.194	Inter688t5-0	0.705	1	1	90.156	11.111	7.5	0.217	0.000	2	F	1820.5	85.198	0.220	-0.033	725.650	495.780	0.020	-	0.161	1.402	-	-	-	44	24.182	198.150	-	PAVEMENT_GENERAL	Urban	F	1011101000011101	0000000000010000	-	-	-	-	-	-	-	-	-	-	Terminate	
Unknown	182.98700	11/01/0116 09:31.06	00010979	9.597	Inter688t5-0	0.212	1	1	90.156	11.111	12.9	0.265	0.000	2	F	1981.6	88.472	0.213	-0.043	734.527	496.249	0.020	-	0.381	1.431	-	-	-	44	21.353	204.919	-	PAVEMENT_GENERAL	Urban	F	1111101000011101	0000000000010000	-	-	-	-	-	-	-	-	-	-	Terminate	
Unknown	183.98701	11/01/0116 09:31.07	00011039	10.981	Inter688t19-0	0.061	1	1	90.099	11.111	9.9	0.312	0.000	2	F	2136.4	89.939	0.215	-0.041	744.812	496.373	0.020	-	0.332	1.420	-	-	-	44	19.150	210.278	-	PAVEMENT_GENERAL	Urban	F	1011101000011101	0000000000010000	-	-	-	-	-	-	-	-	-	-	Terminate	
Unknown	184.98703	11/01/0116 09:31.08	00011099	12.416	Inter688t19-0	0.152	1	1	90.035	11.111	-1.9	0.337	0.000	2	F	2292.5	90.734	0.211	0.016	756.511	496.261	0.020	-	-0.048	1.404	-	-	-	44	17.254	214.224	-	PAVEMENT_GENERAL	Urban	F	1011101000011101	0000000000010000	-	-	-	-	-	-	-	-	-	-	Terminate	
Unknown	185.98706	11/01/0116 09:31.09	00011159	13.735	Inter688t19-0	0.326	1	1	90.003	11.111	-0.6	0.314	0.000	2	F	2438.3	90.819	0.208	0.002	769.597	496.079	0.021	-	-0.021	1.254	-	-	-	44	15.784	216.782	-	PAVEMENT_GENERAL	Urban	F	1011101000011101	0000000000010000	-	-	-	-	-	-	-	-	-	-	Terminate	
Unknown	186.98708	11/01/0116 09:31.10	00011219	14.964	Inter688t7-0	0.513	1	1	90.000	11.111	-6.0	0.310	0.000	2	F	2591.2	90.664	0.207	0.033	783.949	495.890	0.021	-	-0.188	1.196	-	-	-	44	14.574	218.075	-	PAVEMENT_GENERAL	Urban	F	1011101000011101	0000000000010000	-	-	-	-	-	-	-	-	-	-	Terminate	
Unknown	187.98709	11/01/0116 09:31.11	00011279	15.893	Inter688t7-0	0.487	1	1	90.000	11.111	-10.4	0.245	0.000	2	F	2673.4	88.917	0.201	0.071	799.416	495.917	0.022	-	-0.558	0.865	-	-	-	44	13.583	215.879	873.730	PAVEMENT_GENERAL	Urban	F	1011101000011101	0000000000010000	-	-	-	-	-	-	-	-	-	-	Terminate	
Unknown	188.98711	11/01/0116 09:31.12	00011339	16.731	Inter683t1-0	0.033	1	1	90.000	11.111	7.5	0.245	0.000	2	F	2787.8	88.661	0.201	-0.058	815.723	496.363	0.023	-	0.412	0.829	-	-	-	44	13.005	217.590	200.517	PAVEMENT_GENERAL	Urban	F	1011101000011101	0000000000010000	-	-	-	-	-	-	-	-	-	-	Terminate	
Unknown	189.98714	11/01/0116 09:31.13	00011399	17.550	Inter683t1-0	-0.148	1	1	90.000	11.111	4.9	0.261	0.000	2	F	2910.1	90.319	0.199	-0.061	832.860	496.544	0.023	-	0.437	0.854	-	-	-	44	12.313	216.098	113.474	PAVEMENT_GENERAL	Urban	F	1011101000011101	0000000000010000	-	-	-	-	-	-	-	-	-	-	Terminate	
Unknown	190.98715	11/01/0116 09:31.14	00011459	18.360	Inter683t1-0	-0.051	1	1	90.000	11.111	-6.2	0.247	0.000	2	F	3003.5	89.916	0.197	0.050	850.823	496.447	0.023	-	-0.370	0.754	-	-	-	44	11.644	213.779	78.769	PAVEMENT_GENERAL	Urban	F	1011101000011101	0000000000010000	-	-	-	-	-	-	-	-	-	-	Terminate	
Unknown	191.98717	11/01/0116 09:31.15	00011519	19.094	Inter683t1-0	-0.220	1	1	90.000	11.111	6.6	0.257	0.000	2	F	3102.7	89.261	0.196	-0.026	869.549	496.616	0.023	-	0.190	0.749	-	-	-	44	11.035	210.698	61.104	PAVEMENT_GENERAL	Urban	F	1111101000011101	0000000000010000	-	-	-	-	-	-	-	-	-	-	Terminate	
Unknown	192.98720	11/01/0116 09:31.16	00011579	19.829	Inter683t1-0	-0.256	1	1	90.000	11.111	2.1	0.259	0.000	2	F	3197.9	90.578	0.194	-0.031	889.012	496.652	0.023	-	0.262	0.725	-	-	-	44	10.433	206.879	49.456	PAVEMENT_GENERAL	Urban	F	1011101000011101	0000000000010000	-	-	-	-	-	-	-	-	-	-	Terminate	
Unknown	193.98721	11/01/0116 09:31.17	00011639	20.539	Inter683t1-0	-0.055	1	1	90.000	11.111	-0.0	0.266	0.000	2	F	3295.7	90.505	0.194	0.004	909.196	496.451	0.023	-	-0.039	0.714	-	-	-	44	9.852	202.340	41.356	PAVEMENT_GENERAL	Urban	F	1011101000011101	0000000000010000	-	-	-	-	-	-	-	-	-	-	Terminate	
Unknown	194.98723	11/01/0116 09:31.18	00011699	21.200	Inter683t1-0	0.116	1	1	90.000	11.111	-3.2	0.257	0.000	2	F	3356.1	90.348	0.191	0.022	930.075	496.280	0.024	-	-0.153	0.617	-	-	-	44	9.297	197.106	35.487	PAVEMENT_GENERAL	Urban	F	1011101000011101	0000000000010000	-	-	-	-	-	-	-	-	-	-	Terminate	
Unknown	195.98726	11/01/0116 09:31.19	00011759	20.935	Inter683t1-0	0.165	1	1	90.000	11.111	0.3	0.000	0.000	2	F	3160.1	89.863	0.171	0.008	951.306	496.231	0.030	-	-0.076	-0.869	-	-	-	44	9.148	191.519	36.213	PAVEMENT_GENERAL	Urban	F	1011101000011101	0000000000010000	-	-	-	-	-	-	-	-	-	-	Terminate	
Unknown	196.98727	11/01/0116 09:31.20	00011819	20.079	Inter683t1-0	0.154	1	1	90.000	11.111	-1.2	0.000	0.000	2	F	3031.0	90.073	0.179	0.006	971.811	496.242	0.031	-	-0.010	-0.845	-	-	-	44	9.296	186.659	42.109	PAVEMENT_GENERAL	Urban	F	1011101000011101	0000000000010000	-	-	-	-	-	-	-	-	-	-	Terminate	
Unknown	197.98729	11/01/0116 09:31.21	00011879	19.247	Inter683t1-0	0.069	1	1	90.000	11.111	1.5	0.000	0.000	2	F	2906.5	89.272	0.180	0.008	991.471	496.327	0.030	-	-0.105	-0.818	-	-	-	44	9.489	182.643	50.716	PAVEMENT_GENERAL	Urban	F	1011101000011101	0000000000010000	-	-	-	-	-	-	-	-	-	-	Terminate	
Unknown	198.98732	11/01/0116 09:31.22	00011939	18.440	Inter684t1-0	-0.076	1	1	90.000	11.111	2.4	0.000	0.000	2	F	2785.9	89.842	0.182	-0.019	1010.312	496.472	0.030	-	0.146	-0.796	-	-	-	44	9.732	179.447	64.232	PAVEMENT_GENERAL	Urban	F	1011101000011101	0000000000010000	-	-	-	-	-	-	-	-	-	-	Terminate	
Unknown	199.98734	11/01/0116 09:31.23	00011999	17.678	Inter684t1-0	-0.004	1	1	90.000	11.111	-0.6	0.046	0.000	2	F	2680.8	90.805	0.188	-0.015	1028.359	496.401	0.030	-	0.164	-0.590	-	-	-	44	10.015	177.044	87.114	PAVEMENT_GENERAL	Urban	F	1011101000011101	0000000000010000	-	-	-	-	-	-	-	-	-	-	Terminate	
Unknown	200.98735	11/01/0116 09:31.24	00012059	17.333	Inter684t1-0	0.187	1	1	90.000	11.111	-0.8	0.134	0.000	2	F	2651.0	90.461	0.191	0.005	1045.835	496.209	0.028	-	-0.060	-0.137	-	-	-	44	10.109	175.213	103.868	PAVEMENT_GENERAL	Urban	F	1111101000011101	0000000000010000	-	-	-	-	-	-	-	-	-	-	Terminate	
Unknown	201.98737	11/01/0116 09:31.25	00012119	17.315	Inter684t1-0	0.293	1	1	90.000	11.111	-2.2	0.175	0.000	2	F	2736.8	90.122	0.193	0.014	1063.139	496.103	0.026	-	-0.138	0.211	-	-	-	44	10.023	173.553	103.969	PAVEMENT_GENERAL	Urban	F	1011101000011101	0000000000010000	-	-	-	-	-	-	-	-	-	-	Terminate	
Unknown	202.98740	11/01/0116 09:31.26	00012179	17.565	Inter684t1-0	0.281	1	1	90.000	11.111	-0.2	0.168	0.000	2	F	2723.9	89.808	0.191	0.004	1080.587	496.115	0.026	-	-0.040	0.163	-	-	-	44	9.778	171.750	89.487	PAVEMENT_GENERAL	Urban	F	1011101000011101	0000000000010000	-	-	-	-	-	-	-	-	-	-	Terminate	
Unknown	203.98741	11/01/0116 09:31.27	00012239	17.775	Inter684t1-0	0.226	1	1	90.000	11.111	0.4	0.169	0.000	2	F	2761.2	89.856	0.193	-0.003	1098.257	496.170	0.026	-	0.026	0.203	-	-	-	44	9.548	169.724	79.711	PAVEMENT_GENERAL	Urban	F	1011101000011101	0000000000010000	-	-	-	-	-	-	-	-	-	-	Terminate	
Unknown	204.98743	11/01/0116 09:31.28	00012299	17.527	Inter684t1-0	0.194	1	1	90.000	11.111	0.2	0.063	0.000	2	F	2661.4	89.952	0.187	-0.003	1116.016	496.202	0.030	-	0.025	-0.531	-	-	-	44	9.563	167.610	89.118	PAVEMENT_GENERAL	Urban	F	1011101000011101	0000000000010000	-	-	-	-	-	-	-	-	-	-	Terminate	
