ZoneName	Time	SystemTime	Frame	Velocity	LaneName	LanePos	LaneIndex	LaneCount	LaneHeading	SpeedLimit	Steer	Accel	Brake	Gear	Horn	SubjectEngineRPM	SubjectHeading	SubjectPitch	SubjectRoll	SubjectX	SubjectY	SubjectZ	Signal	LatAccel	LongAccel	Collision	CollisionAngle	CollisionVelocity	VehAhead	HeadwayTime	HeadwayDist	TTC	TerrainType	CultureType	Slip	DigitalInputs	DigitalInputs2	ActiveTrigger	EntityName	DistToEntity	TimeToEntity	EntityVelocity	EntityAccel	EntityHeading	EntityX	EntityY	EntityZ	GrabData	
Unknown	0.98335	10/29/0116 10:20.13	00000059	0.002	Inter625t13-0	-0.088	1	2	0.000	11.111	2.4	0.000	0.000	D	F	0.0	0.001	0.153	-0.001	1503.500	523.206	0.019	-	-0.000	0.000	-	-	-	-	-	-	-	PAVEMENT_GENERAL	Urban	F	1111101000010101	0000000000000000	-	-	-	-	-	-	-	-	-	-	Terminate	
Unknown	1.98337	10/29/0116 10:20.14	00000119	0.000	Inter625t13-0	-0.088	1	2	0.000	11.111	2.4	0.000	0.000	D	F	0.0	0.000	0.197	-0.000	1503.500	523.208	0.026	-	0.000	-0.001	-	-	-	-	-	-	-	PAVEMENT_GENERAL	Urban	F	1011101000010101	0000000000000000	-	-	-	-	-	-	-	-	-	-	Terminate	
Unknown	2.98339	10/29/0116 10:20.15	00000179	-0.000	Inter625t13-0	-0.088	1	2	0.000	11.111	2.4	0.000	0.000	D	F	0.0	0.000	0.207	-0.000	1503.500	523.208	0.028	-	0.000	-0.000	-	-	-	-	-	-	-	PAVEMENT_GENERAL	Urban	F	1011101000010101	0000000000000000	-	-	-	-	-	-	-	-	-	-	Terminate	
Unknown	3.98341	10/29/0116 10:20.16	00000239	-0.000	Inter625t13-0	-0.088	1	2	0.000	11.111	2.4	0.000	0.000	D	F	0.0	0.000	0.210	-0.000	1503.500	523.208	0.028	-	0.000	-0.000	-	-	-	-	-	-	-	PAVEMENT_GENERAL	Urban	F	1011101000010101	0000000000000000	-	-	-	-	-	-	-	-	-	-	Terminate	
Unknown	4.98343	10/29/0116 10:20.17	00000299	-0.000	Inter625t13-0	-0.088	1	2	0.000	11.111	2.4	0.000	0.000	D	F	44.4	0.000	0.210	-0.000	1503.500	523.208	0.028	-	0.000	0.000	-	-	-	-	-	-	-	PAVEMENT_GENERAL	Urban	F	1011101000010111	0000000000000000	-	-	-	-	-	-	-	-	-	-	Terminate	
Unknown	5.98345	10/29/0116 10:20.18	00000359	0.001	Inter625t13-0	-0.088	1	2	0.000	11.111	2.4	0.000	0.000	D	F	377.8	0.000	0.209	-0.000	1503.500	523.208	0.028	-	0.000	0.004	-	-	-	-	-	-	-	PAVEMENT_GENERAL	Urban	F	1011101000010101	0000000000000000	-	-	-	-	-	-	-	-	-	-	Terminate	
Unknown	6.98347	10/29/0116 10:20.19	00000419	0.020	Inter625t13-0	-0.088	1	2	0.000	11.111	9.5	0.004	0.000	D	F	477.5	0.002	0.199	0.000	1503.500	523.216	0.025	-	0.000	0.045	-	-	-	-	-	-	-	PAVEMENT_GENERAL	Urban	F	1011101000010101	0000000000000000	-	-	-	-	-	-	-	-	-	-	Terminate	
Unknown	7.98349	10/29/0116 10:20.20	00000479	0.534	Inter625t13-0	-0.087	1	2	0.000	11.111	7.7	0.039	0.000	D	F	795.3	0.030	0.201	-0.000	1503.501	523.371	0.021	-	0.004	0.907	-	-	-	-	-	-	-	PAVEMENT_GENERAL	Urban	F	1011101000010101	0000000000000000	-	-	-	-	-	-	-	-	-	-	Terminate	
Unknown	8.98351	10/29/0116 10:20.21	00000539	1.675	Inter625t13-0	-0.080	1	2	0.000	11.111	9.0	0.078	0.000	D	F	1145.3	0.223	0.226	-0.002	1503.508	524.382	0.020	-	0.017	1.847	-	-	-	-	-	-	-	PAVEMENT_GENERAL	Urban	F	1011101000010101	0000000000000000	-	-	-	-	-	-	-	-	-	-	Terminate	
Unknown	9.98353	10/29/0116 10:20.22	00000599	3.365	Inter625t13-0	-0.047	1	2	0.000	11.111	7.7	0.095	0.000	D	F	1354.0	0.684	0.214	-0.004	1503.541	526.938	0.019	-	0.031	1.470	-	-	-	-	-	-	-	PAVEMENT_GENERAL	Urban	F	1111101000010101	0000000000000000	-	-	-	-	-	-	-	-	-	-	Terminate	
Unknown	10.98355	10/29/0116 10:20.23	00000659	4.748	Inter625t13-0	0.033	1	2	0.000	11.111	3.2	0.118	0.000	D	F	1592.5	1.173	0.214	-0.002	1503.621	531.005	0.020	-	0.015	1.269	-	-	-	-	-	-	-	PAVEMENT_GENERAL	Urban	F	1011101000010101	0000000000000000	-	-	-	-	-	-	-	-	-	-	Terminate	
Unknown	11.98357	10/29/0116 10:20.24	00000719	6.030	Inter625t49-0	0.160	1	1	0.006	11.111	-0.1	0.139	0.000	D	F	1583.5	1.412	0.209	0.004	1503.749	536.387	0.020	-	-0.012	1.196	-	-	-	-	-	-	-	PAVEMENT_GENERAL	Urban	F	1111101000010101	0000000000000000	-	-	-	-	-	-	-	-	-	-	Terminate	
Unknown	12.98359	10/29/0116 10:20.25	00000779	7.051	Inter625t49-0	0.309	1	1	0.007	11.111	-2.5	0.143	0.000	D	F	1558.1	1.193	0.211	0.005	1503.898	542.944	0.022	-	-0.041	0.936	-	-	-	-	-	-	-	PAVEMENT_GENERAL	Urban	F	1011101000010101	0000000000000000	-	-	-	-	-	-	-	-	-	-	Terminate	
Unknown	13.98361	10/29/0116 10:20.26	00000839	7.932	Inter625t49-0	0.434	1	1	0.008	11.111	-1.2	0.148	0.000	D	F	1626.0	0.828	0.209	0.002	1504.023	550.443	0.022	-	-0.022	0.829	-	-	-	-	-	-	-	PAVEMENT_GENERAL	Urban	F	1011101000010101	0000000000000000	-	-	-	-	-	-	-	-	-	-	Terminate	
Unknown	14.98363	10/29/0116 10:20.27	00000899	8.705	Inter625t49-0	0.516	1	1	0.006	11.111	-6.4	0.148	0.000	D	F	1677.9	0.290	0.208	0.020	1504.106	558.770	0.023	-	-0.148	0.725	-	-	-	-	-	-	-	PAVEMENT_GENERAL	Urban	F	1011101000010101	0000000000000000	-	-	-	-	-	-	-	-	-	-	Terminate	
Unknown	15.98365	10/29/0116 10:20.28	00000959	9.389	Inter625t49-0	0.486	1	1	0.005	11.111	1.7	0.146	0.000	D	F	1729.3	359.638	0.207	-0.005	1504.078	567.823	0.023	-	0.030	0.652	-	-	-	-	-	-	-	PAVEMENT_GENERAL	Urban	F	1011101000010101	0000000000000000	-	-	-	-	-	-	-	-	-	-	Terminate	
Unknown	16.98367	10/29/0116 10:20.29	00001019	10.002	Inter625t49-0	0.460	1	1	0.005	11.111	2.3	0.148	0.000	D	F	1790.8	0.016	0.206	-0.008	1504.053	577.524	0.024	-	0.066	0.586	-	-	-	-	-	-	-	PAVEMENT_GENERAL	Urban	F	1011101000010101	0000000000000000	-	-	-	-	-	-	-	-	-	-	Terminate	
Unknown	17.98369	10/29/0116 10:20.30	00001079	10.568	Inter625t15-0	0.499	1	2	0.000	11.111	1.3	0.148	0.000	D	F	1853.2	0.312	0.205	-0.007	1504.092	587.813	0.024	-	0.038	0.546	-	-	-	-	-	-	-	PAVEMENT_GENERAL	Urban	F	1011101000010101	0000000000000000	-	-	-	-	-	-	-	-	-	-	Terminate	
Unknown	18.98371	10/29/0116 10:20.31	00001139	11.109	Inter625t15-0	0.553	1	2	0.000	11.111	-2.3	0.160	0.000	D	F	1619.8	0.153	0.205	0.010	1504.147	598.658	0.024	-	-0.079	0.531	-	-	-	-	-	-	-	PAVEMENT_GENERAL	Urban	F	1011101000010101	0000000000000000	-	-	-	-	-	-	-	-	-	-	Terminate	
Unknown	19.98373	10/29/0116 10:20.32	00001199	11.637	Inter614t1-0	0.566	1	2	0.000	11.111	0.1	0.168	0.000	D	F	1653.8	0.071	0.204	-0.001	1504.159	610.030	0.024	-	0.008	0.535	-	-	-	-	-	-	-	PAVEMENT_GENERAL	Urban	F	1011101000010101	0000000000000000	-	-	-	-	-	-	-	-	-	-	Terminate	
Unknown	20.98375	10/29/0116 10:20.33	00001259	12.202	Inter614t1-0	0.588	1	2	0.000	11.111	1.4	0.182	0.000	D	F	1712.4	0.169	0.203	-0.008	1504.182	621.945	0.024	-	0.049	0.570	-	-	-	-	-	-	-	PAVEMENT_GENERAL	Urban	F	1011101000010101	0000000000000000	-	-	-	-	-	-	-	-	-	-	Terminate	
Unknown	21.98377	10/29/0116 10:20.34	00001319	12.769	Inter614t1-0	0.641	1	2	0.000	11.111	0.1	0.189	0.000	D	F	1750.7	0.271	0.203	-0.001	1504.234	634.431	0.024	-	0.007	0.561	-	-	-	-	-	-	-	PAVEMENT_GENERAL	Urban	F	1011101000010101	0000000000000000	-	-	-	-	-	-	-	-	-	-	Terminate	
Unknown	22.98379	10/29/0116 10:20.35	00001379	13.330	Inter614t1-0	0.707	1	2	0.000	11.111	-0.4	0.192	0.000	D	F	1792.2	0.315	0.202	0.001	1504.300	647.480	0.024	-	-0.005	0.558	-	-	-	-	-	-	-	PAVEMENT_GENERAL	Urban	F	1011101000010101	0000000000000000	-	-	-	-	-	-	-	-	-	-	Terminate	
Unknown	23.98381	10/29/0116 10:20.36	00001439	13.871	Inter614t1-0	0.773	1	2	0.000	11.111	-0.4	0.192	0.000	D	F	1817.2	0.230	0.201	0.003	1504.366	661.083	0.024	-	-0.022	0.524	-	-	-	-	-	-	-	PAVEMENT_GENERAL	Urban	F	1011101000010101	0000000000000000	-	-	-	-	-	-	-	-	-	-	Terminate	
Unknown	24.98383	10/29/0116 10:20.37	00001499	14.375	Inter614t1-0	0.818	1	2	0.000	11.111	-0.5	0.192	0.000	D	F	1839.5	0.133	0.200	0.003	1504.412	675.209	0.024	-	-0.026	0.489	-	-	-	12	11.402	163.910	-	PAVEMENT_GENERAL	Urban	F	1011101000010101	0000000000000000	-	-	-	-	-	-	-	-	-	-	Terminate	
Unknown	25.98385	10/29/0116 10:20.38	00001559	14.847	Inter614t1-0	0.841	1	2	0.000	11.111	-0.5	0.194	0.000	D	F	1861.3	0.037	0.200	0.003	1504.435	689.822	0.024	-	-0.026	0.459	-	-	-	12	11.313	167.962	-	PAVEMENT_GENERAL	Urban	F	1011101000010101	0000000000000000	-	-	-	-	-	-	-	-	-	-	Terminate	
Unknown	26.98387	10/29/0116 10:20.39	00001619	15.287	Inter614t1-0	0.839	1	2	0.000	11.111	-0.5	0.190	0.000	D	F	1872.9	0.000	0.198	0.004	1504.432	704.893	0.025	-	-0.022	0.413	-	-	-	12	11.345	173.433	-	PAVEMENT_GENERAL	Urban	F	1011101000010101	0000000000000000	-	-	-	-	-	-	-	-	-	-	Terminate	
Unknown	27.98389	10/29/0116 10:20.40	00001679	15.684	Inter614t1-0	0.809	1	2	0.000	11.111	-0.3	0.189	0.000	D	F	1889.7	359.794	0.198	0.000	1504.402	720.380	0.025	-	-0.028	0.384	-	-	-	12	11.439	179.404	-	PAVEMENT_GENERAL	Urban	F	1011101000010101	0000000000000000	-	-	-	-	-	-	-	-	-	-	Terminate	
Unknown	28.98391	10/29/0116 10:20.41	00001739	16.052	Inter614t1-0	0.732	1	2	0.000	11.111	-1.3	0.183	0.000	D	F	1905.5	359.550	0.197	0.011	1504.325	736.250	0.025	-	-0.093	0.355	-	-	-	12	11.557	185.511	-	PAVEMENT_GENERAL	Urban	F	1011101000010101	0000000000000000	-	-	-	-	-	-	-	-	-	-	Terminate	
Unknown	29.98393	10/29/0116 10:20.42	00001799	16.397	Inter614t1-0	0.623	1	2	0.000	11.111	4.2	0.190	0.000	D	F	1923.6	0.000	0.196	-0.032	1504.216	752.476	0.025	-	0.245	0.337	-	-	-	12	11.687	191.623	-	PAVEMENT_GENERAL	Urban	F	1011101000010101	0000000000000000	-	-	-	-	-	-	-	-	-	-	Terminate	
Unknown	30.98395	10/29/0116 10:20.43	00001859	16.721	Inter614t1-0	0.694	1	2	0.000	11.111	0.8	0.187	0.000	D	F	1947.3	0.442	0.196	-0.009	1504.287	769.036	0.025	-	0.050	0.316	-	-	-	12	11.806	197.417	-	PAVEMENT_GENERAL	Urban	F	1011101000010101	0000000000000000	-	-	-	-	-	-	-	-	-	-	Terminate	
Unknown	31.98397	10/29/0116 10:20.44	00001919	17.028	Inter614t1-0	0.789	1	2	0.000	11.111	-1.9	0.185	0.000	D	F	1967.1	0.076	0.195	0.019	1504.383	785.912	0.025	-	-0.136	0.299	-	-	-	12	11.916	202.894	-	PAVEMENT_GENERAL	Urban	F	1011101000010101	0000000000000000	-	-	-	-	-	-	-	-	-	-	Terminate	
Unknown	32.98399	10/29/0116 10:20.45	00001979	17.321	Inter612t1-0	0.783	1	2	0.000	11.111	-1.5	0.189	0.000	D	F	1989.6	359.840	0.194	0.011	1504.376	803.087	0.025	-	-0.084	0.290	-	-	-	12	12.013	208.073	-	PAVEMENT_GENERAL	Urban	F	1011101000010101	0000000000000000	-	-	-	-	-	-	-	-	-	-	Terminate	
Unknown	33.98401	10/29/0116 10:20.46	00002039	17.605	Inter612t1-0	0.693	1	2	0.000	11.111	-1.6	0.185	0.000	D	F	2009.2	359.527	0.194	0.012	1504.286	820.551	0.025	-	-0.098	0.276	-	-	-	12	12.097	212.962	-	PAVEMENT_GENERAL	Urban	F	1011101000010101	0000000000000000	-	-	-	-	-	-	-	-	-	-	Terminate	
Unknown	34.98403	10/29/0116 10:20.47	00002099	17.877	Inter612t1-0	0.510	1	2	0.000	11.111	0.2	0.189	0.000	D	F	2030.0	359.296	0.193	0.002	1504.103	838.291	0.025	-	-0.018	0.269	-	-	-	12	12.171	217.575	-	PAVEMENT_GENERAL	Urban	F	1011101000010101	0000000000000000	-	-	-	-	-	-	-	-	-	-	Terminate	
Unknown	35.98405	10/29/0116 10:20.48	00002159	18.144	Inter612t1-0	0.316	1	2	0.000	11.111	4.1	0.189	0.000	D	F	2049.2	359.625	0.193	-0.031	1503.909	856.301	0.025	-	0.221	0.265	-	-	-	12	12.231	221.919	-	PAVEMENT_GENERAL	Urban	F	1011101000010101	0000000000000000	-	-	-	-	-	-	-	-	-	-	Terminate	
Unknown	36.98407	10/29/0116 10:20.49	00002219	18.401	Inter612t1-0	0.308	1	2	0.000	11.111	3.1	0.189	0.000	D	F	2069.0	0.398	0.192	-0.027	1503.901	874.574	0.025	-	0.214	0.257	-	-	-	12	12.282	226.000	-	PAVEMENT_GENERAL	Urban	F	1011101000010101	0000000000000000	-	-	-	-	-	-	-	-	-	-	Terminate	
Unknown	37.98409	10/29/0116 10:20.50	00002279	18.653	Inter612t1-0	0.466	1	2	0.000	11.111	-1.6	0.190	0.000	D	F	2089.1	0.360	0.192	0.020	1504.059	893.101	0.025	-	-0.142	0.249	-	-	-	12	12.321	229.826	-	PAVEMENT_GENERAL	Urban	F	1011101000010101	0000000000000000	-	-	-	-	-	-	-	-	-	-	Terminate	
Unknown	38.98411	10/29/0116 10:20.51	00002339	18.907	Inter612t1-0	0.579	1	2	0.000	11.111	2.0	0.192	0.000	D	F	2112.8	0.462	0.192	-0.017	1504.173	911.880	0.025	-	0.122	0.257	-	-	-	12	12.345	233.401	-	PAVEMENT_GENERAL	Urban	F	1011101000010101	0000000000000000	-	-	-	-	-	-	-	-	-	-	Terminate	
Unknown	39.98413	10/29/0116 10:20.52	00002399	19.156	Inter612t1-0	0.772	1	2	0.000	11.111	-1.8	0.192	0.000	D	F	2128.0	0.603	0.191	0.012	1504.366	930.911	0.026	-	-0.076	0.244	-	-	-	12	12.358	236.723	-	PAVEMENT_GENERAL	Urban	F	1011101000010101	0000000000000000	-	-	-	-	-	-	-	-	-	-	Terminate	
Unknown	40.98415	10/29/0116 10:20.53	00002459	19.395	Inter612t1-0	0.915	1	2	0.000	11.111	-2.2	0.192	0.000	D	F	2146.1	0.168	0.191	0.020	1504.508	950.187	0.026	-	-0.151	0.235	-	-	-	12	12.364	239.801	-	PAVEMENT_GENERAL	Urban	F	1011101000010101	0000000000000000	-	-	-	-	-	-	-	-	-	-	Terminate	
Unknown	41.98417	10/29/0116 10:20.54	00002519	19.624	Inter612t1-0	0.922	1	2	0.000	11.111	-0.5	0.196	0.000	D	F	2167.3	359.895	0.191	0.004	1504.515	969.698	0.026	-	-0.031	0.227	-	-	-	12	12.364	242.643	-	PAVEMENT_GENERAL	Urban	F	1011101000010101	0000000000000000	-	-	-	-	-	-	-	-	-	-	Terminate	
Unknown	42.98419	10/29/0116 10:20.55	00002579	19.843	Inter612t1-0	0.872	1	2	0.000	11.111	-0.5	0.192	0.000	D	F	2185.3	359.790	0.190	0.005	1504.465	989.433	0.026	-	-0.038	0.209	-	-	-	-	-	-	-	PAVEMENT_GENERAL	Urban	F	1011101000010101	0000000000000000	-	-	-	-	-	-	-	-	-	-	Terminate	
Unknown	43.98421	10/29/0116 10:20.56	00002639	20.051	Inter613t1-0	0.790	1	2	0.000	11.111	-0.2	0.194	0.000	D	F	2203.6	359.732	0.189	0.002	1504.383	1009.380	0.026	-	-0.016	0.207	-	-	-	-	-	-	-	PAVEMENT_GENERAL	Urban	F	1011101000010101	0000000000000000	-	-	-	-	-	-	-	-	-	-	Terminate	
Unknown	44.98423	10/29/0116 10:20.57	00002699	20.263	Inter613t1-0	0.688	1	2	0.000	11.111	0.1	0.196	0.000	D	F	2227.1	359.697	0.189	-0.002	1504.282	1029.537	0.026	-	0.004	0.212	-	-	-	-	-	-	-	PAVEMENT_GENERAL	Urban	F	1011101000010101	0000000000000000	-	-	-	-	-	-	-	-	-	-	Terminate	
Unknown	45.98425	10/29/0116 10:20.58	00002759	20.475	Inter613t1-0	0.577	1	2	0.000	11.111	-0.0	0.192	0.000	D	F	2245.7	359.661	0.189	0.001	1504.170	1049.907	0.026	-	-0.010	0.206	-	-	-	-	-	-	-	PAVEMENT_GENERAL	Urban	F	1011101000010101	0000000000000000	-	-	-	-	-	-	-	-	-	-	Terminate	
Unknown	46.98427	10/29/0116 10:20.59	00002819	20.662	Inter613t1-0	0.449	1	2	0.000	11.111	-0.3	0.189	0.000	D	F	2258.0	359.580	0.188	0.005	1504.042	1070.478	0.026	-	-0.038	0.178	-	-	-	-	-	-	-	PAVEMENT_GENERAL	Urban	F	1011101000010101	0000000000000000	-	-	-	-	-	-	-	-	-	-	Terminate	
Unknown	47.98429	10/29/0116 10:21.00	00002879	20.839	Inter613t1-0	0.291	1	2	0.000	11.111	0.1	0.192	0.000	D	F	2274.6	359.553	0.188	-0.001	1503.884	1091.228	0.026	-	0.005	0.177	-	-	-	-	-	-	-	PAVEMENT_GENERAL	Urban	F	1011101000010101	0000000000000000	-	-	-	-	-	-	-	-	-	-	Terminate	
Unknown	48.98431	10/29/0116 10:21.01	00002939	21.014	Inter613t1-0	0.131	1	2	0.000	11.111	-0.2	0.190	0.000	D	F	2290.5	359.565	0.187	0.002	1503.725	1112.154	0.026	-	-0.009	0.170	-	-	-	-	-	-	-	PAVEMENT_GENERAL	Urban	F	1011101000010101	0000000000000000	-	-	-	-	-	-	-	-	-	-	Terminate	
Unknown	49.98433	10/29/0116 10:21.02	00002999	21.184	Inter613t1-0	-0.016	1	2	0.000	11.111	2.7	0.189	0.000	D	F	2305.4	359.755	0.187	-0.020	1503.578	1133.253	0.026	-	0.152	0.171	-	-	-	-	-	-	-	PAVEMENT_GENERAL	Urban	F	1111101000010101	0000000000000000	-	-	-	-	-	-	-	-	-	-	Terminate	
Unknown	50.98435	10/29/0116 10:21.03	00003059	21.350	Inter613t1-0	0.007	1	2	0.000	11.111	1.6	0.190	0.000	D	F	2321.5	0.512	0.187	-0.022	1503.600	1154.520	0.026	-	0.202	0.164	-	-	-	-	-	-	-	PAVEMENT_GENERAL	Urban	F	1011101000010101	0000000000000000	-	-	-	-	-	-	-	-	-	-	Terminate	
Unknown	51.98437	10/29/0116 10:21.04	00003119	21.511	Inter613t1-0	0.217	1	2	0.000	11.111	1.7	0.192	0.000	D	F	2333.1	0.649	0.186	-0.013	1503.810	1175.951	0.026	-	0.083	0.153	-	-	-	-	-	-	-	PAVEMENT_GENERAL	Urban	F	1011101000010101	0000000000000000	-	-	-	-	-	-	-	-	-	-	Terminate	
Unknown	52.98439	10/29/0116 10:21.05	00003179	21.660	Inter613t1-0	0.474	1	2	0.000	11.111	-2.4	0.189	0.000	D	F	2345.0	0.612	0.186	0.020	1504.067	1197.536	0.026	-	-0.126	0.143	-	-	-	-	-	-	-	PAVEMENT_GENERAL	Urban	F	1111101000010101	0000000000000000	-	-	-	-	-	-	-	-	-	-	Terminate	
Unknown	53.98441	10/29/0116 10:21.06	00003239	21.799	Inter746t1-0	0.641	1	2	0.000	11.111	-2.2	0.187	0.000	D	F	2349.1	0.202	0.186	0.020	1504.234	1219.265	0.026	-	-0.152	0.136	-	-	-	12	10.821	235.892	22.138	PAVEMENT_GENERAL	Urban	F	1011101000010101	0000000000000000	-	-	-	-	-	-	-	-	-	-	Terminate	
Unknown	54.98443	10/29/0116 10:21.07	00003299	21.907	Inter746t1-0	0.655	1	2	0.000	11.111	-0.2	0.190	0.000	D	F	1879.0	359.796	0.184	0.011	1504.248	1241.130	0.026	-	-0.089	0.071	-	-	-	-	-	-	-	PAVEMENT_GENERAL	Urban	F	1011101000010101	0000000000000000	-	-	-	-	-	-	-	-	-	-	Terminate	
Unknown	55.98445	10/29/0116 10:21.08	00003359	21.979	Inter746t1-0	0.598	1	2	0.000	11.111	-0.2	0.196	0.000	D	F	1880.6	359.895	0.185	-0.001	1504.192	1263.072	0.026	-	0.006	0.076	-	-	-	-	-	-	-	PAVEMENT_GENERAL	Urban	F	1011101000010101	0000000000000000	-	-	-	-	-	-	-	-	-	-	Terminate	
Unknown	56.98447	10/29/0116 10:21.09	00003419	22.058	Inter746t1-0	0.548	1	2	0.000	11.111	0.1	0.198	0.000	D	F	1887.8	359.859	0.185	-0.001	1504.142	1285.090	0.026	-	0.005	0.081	-	-	-	-	-	-	-	PAVEMENT_GENERAL	Urban	F	1011101000010101	0000000000000000	-	-	-	-	-	-	-	-	-	-	Terminate	
Unknown	57.98449	10/29/0116 10:21.10	00003479	22.132	Inter746t1-0	0.473	1	2	0.000	11.111	-1.8	0.194	0.000	D	F	1883.9	359.625	0.184	0.019	1504.066	1307.185	0.026	-	-0.140	0.070	-	-	-	-	-	-	-	PAVEMENT_GENERAL	Urban	F	1111101000010101	0000000000000000	-	-	-	-	-	-	-	-	-	-	Terminate	
Unknown	58.98451	10/29/0116 10:21.11	00003539	22.119	Inter746t1-0	0.281	1	2	0.000	11.111	-5.1	0.123	0.000	D	F	1734.7	359.288	0.178	0.037	1503.874	1329.328	0.027	-	-0.241	-0.159	-	-	-	-	-	-	-	PAVEMENT_GENERAL	Urban	F	1011101000010101	0000000000000000	-	-	-	-	-	-	-	-	-	-	Terminate	
Unknown	59.98453	10/29/0116 10:21.12	00003599	21.771	Inter746t1-0	-0.315	1	2	0.000	11.111	-14.3	0.004	0.000	D	F	1484.0	356.474	0.164	0.197	1503.278	1351.303	0.029	-	-1.484	-0.617	-	-	-	-	-	-	-	PAVEMENT_GENERAL	Urban	F	1011101000010101	0000000000000000	-	-	-	-	-	-	-	-	-	-	Terminate	
Unknown	60.98455	10/29/0116 10:21.13	00003659	21.140	-	-	CL	0	-	-	21.5	0.000	0.000	D	F	1441.1	355.756	0.176	-0.176	1501.657	1372.696	0.030	-	1.173	-0.631	-	-	-	-	-	-	-	PAVEMENT_GENERAL	Urban	F	1011101000010101	0000000000000000	-	-	-	-	-	-	-	-	-	-	Terminate	
Unknown	61.98457	10/29/0116 10:21.14	00003719	20.491	-	-	CL	0	-	-	7.4	0.000	0.000	D	F	1397.1	1.244	0.169	-0.174	1500.984	1393.492	0.030	-	1.362	-0.613	-	-	-	-	-	-	-	PAVEMENT_GENERAL	Urban	F	1011101000010101	0000000000000000	-	-	-	-	-	-	-	-	-	-	Terminate	
Unknown	62.98459	10/29/0116 10:21.15	00003779	19.759	-	-	CL	0	-	-	-11.8	0.000	0.024	D	F	1344.7	0.263	0.172	0.123	1501.369	1413.656	0.030	-	-0.909	-0.836	-	-	-	-	-	-	-	PAVEMENT_GENERAL	Urban	F	1011101000010101	0000000000000000	-	-	-	-	-	-	-	-	-	-	Terminate	
Unknown	63.98461	10/29/0116 10:21.16	00003839	18.181	Inter749t31-0	-1.660	1	1	354.373	11.111	0.8	0.000	0.191	D	F	1207.0	357.740	0.130	0.040	1501.062	1432.869	0.034	-	-0.345	-2.990	-	-	-	12	3.259	59.258	5.783	PAVEMENT_GENERAL	Urban	F	1011101000010101	0000000000000000	-	-	-	-	-	-	-	-	-	-	Terminate	
Unknown	64.98463	10/29/0116 10:21.17	00003899	14.526	Inter749t31-0	-0.576	1	1	356.713	11.111	6.7	0.000	0.325	D	F	947.0	358.916	0.118	-0.057	1500.527	1449.345	0.038	-	0.432	-4.332	-	-	-	-	-	-	-	PAVEMENT_GENERAL	Urban	F	1011101000010101	0000000000000000	-	-	-	-	-	-	-	-	-	-	Terminate	
Unknown	65.98465	10/29/0116 10:21.18	00003959	8.639	Inter749t31-0	-0.018	1	1	356.903	11.111	-1.9	0.000	0.513	D	F	779.6	359.789	-0.076	0.001	1500.392	1461.118	0.041	-	0.012	-6.242	-	-	-	-	-	-	-	PAVEMENT_GENERAL	Urban	F	1011101000010101	0000000000000000	-	-	-	-	-	-	-	-	-	-	Terminate	
Unknown	66.98467	10/29/0116 10:21.19	00004019	2.796	Inter749t31-0	0.240	1	1	356.903	11.111	2.3	0.000	0.290	D	F	477.5	359.415	0.060	-0.008	1500.347	1466.708	0.040	-	0.029	-3.904	-	-	-	-	-	-	-	PAVEMENT_GENERAL	Urban	F	1011101000010101	0000000000000000	-	-	-	-	-	-	-	-	-	-	Terminate	
Unknown	67.98470	10/29/0116 10:21.20	00004079	1.524	Inter749t11-0	0.270	LT1	2	0.000	11.111	1.0	0.000	0.000	D	F	477.5	359.511	0.203	0.001	1500.333	1468.527	0.029	-	-0.012	-0.308	-	-	-	-	-	-	-	PAVEMENT_GENERAL	Urban	F	1011101000010101	0000000000000000	-	-	-	-	-	-	-	-	-	-	Terminate	
Unknown	68.98471	10/29/0116 10:21.21	00004139	2.832	Inter749t11-0	0.251	LT1	2	0.000	11.111	-2.5	0.148	0.000	D	F	1455.1	359.421	0.206	-0.000	1500.314	1470.324	0.015	-	-0.004	2.603	-	-	-	-	-	-	-	PAVEMENT_GENERAL	Urban	F	1011101000010101	0000000000000000	-	-	-	-	-	-	-	-	-	-	Terminate	
Unknown	69.98473	10/29/0116 10:21.22	00004199	4.662	Inter749t11-0	0.201	LT1	2	0.000	11.111	-1.1	0.095	0.000	D	F	1511.3	359.234	0.203	0.000	1500.263	1474.196	0.019	-	-0.003	0.988	-	-	-	-	-	-	-	PAVEMENT_GENERAL	Urban	F	1011101000010101	0000000000000000	-	-	-	-	-	-	-	-	-	-	Terminate	
Unknown	70.98476	10/29/0116 10:21.23	00004259	5.279	Inter749t11-0	0.105	LT1	2	0.000	11.111	-21.2	0.056	0.000	D	F	1153.7	358.620	0.201	0.039	1500.167	1479.245	0.025	-	-0.258	0.254	-	-	-	-	-	-	-	PAVEMENT_GENERAL	Urban	F	1111101000010101	0000000000000000	-	-	-	-	-	-	-	-	-	-	Terminate	
Unknown	71.98477	10/29/0116 10:21.24	00004319	5.602	Inter749t65-0	-0.030	1	1	349.139	11.111	-77.4	0.062	0.000	D	F	1180.0	354.137	0.202	0.125	1499.769	1484.669	0.025	-	-0.949	0.259	-	-	-	-	-	-	-	PAVEMENT_GENERAL	Urban	F	1011101000010101	0000000000000000	-	-	-	-	-	-	-	-	-	-	Terminate	
Unknown	72.98479	10/29/0116 10:21.25	00004379	5.982	Inter749t65-0	0.342	1	1	335.169	11.111	-105.8	0.078	0.000	D	F	1274.2	342.985	0.200	0.172	1498.412	1490.282	0.025	-	-1.314	0.367	-	-	-	-	-	-	-	PAVEMENT_GENERAL	Urban	F	1011101000010101	0000000000000000	-	-	-	-	-	-	-	-	-	-	Terminate	
Unknown	73.98481	10/29/0116 10:21.26	00004439	6.353	Inter749t65-0	0.845	1	1	322.651	11.111	-104.1	0.069	0.000	D	F	1273.7	330.756	0.196	0.197	1495.743	1495.847	0.025	-	-1.487	0.247	-	-	-	-	-	-	-	PAVEMENT_GENERAL	Urban	F	1011101000010101	0000000000000000	-	-	-	-	-	-	-	-	-	-	Terminate	
Unknown	74.98483	10/29/0116 10:21.27	00004499	6.569	Inter749t65-0	1.305	1	1	308.096	11.111	-148.1	0.074	0.000	D	F	1291.7	315.317	0.188	0.307	1491.650	1500.842	0.026	-	-2.266	0.078	-	-	-	-	-	-	-	PAVEMENT_GENERAL	Urban	F	1011101000010101	0000000000000000	-	-	-	-	-	-	-	-	-	-	Terminate	
Unknown	75.98486	10/29/0116 10:21.28	00004559	6.797	Inter749t65-0	1.529	1	1	287.120	11.111	-153.5	0.072	0.000	D	F	1298.9	294.506	0.182	0.310	1485.964	1504.318	0.026	-	-2.409	0.072	-	-	-	Ambient238	33.198	225.638	-	PAVEMENT_GENERAL	Urban	F	1011101000010101	0000000000000000	-	-	-	-	-	-	-	-	-	-	Terminate	
Unknown	76.98487	10/29/0116 10:21.29	00004619	7.061	Inter749t3-4	-1.295	2	2	270.000	11.111	-81.6	0.076	0.000	D	F	1336.9	278.063	0.195	0.161	1479.220	1505.836	0.025	-	-1.320	0.235	-	-	-	Ambient238	32.787	231.511	-	PAVEMENT_GENERAL	Urban	F	1011101000010101	0000000000000000	-	-	-	-	-	-	-	-	-	-	Terminate	
Unknown	77.98489	10/29/0116 10:21.30	00004679	7.361	Inter749t3-4	-0.890	2	2	270.000	11.111	4.4	0.081	0.000	D	F	1382.2	272.432	0.205	-0.027	1472.024	1506.241	0.025	-	0.105	0.307	-	-	-	Ambient238	31.884	234.693	-	PAVEMENT_GENERAL	Urban	F	1011101000010101	0000000000000000	-	-	-	-	-	-	-	-	-	-	Terminate	
Unknown	78.98492	10/29/0116 10:21.31	00004739	7.927	Inter749t17-0	-0.540	1	1	270.070	11.111	-20.0	0.138	0.000	D	F	1598.9	272.441	0.210	0.066	1464.421	1506.594	0.023	-	-0.422	0.729	-	-	-	Ambient238	29.955	237.470	-	PAVEMENT_GENERAL	Urban	F	1011101000010101	0000000000000000	-	-	-	-	-	-	-	-	-	-	Terminate	
Unknown	79.98493	10/29/0116 10:21.32	00004799	8.774	Inter749t17-0	-0.417	1	1	270.096	11.111	1.6	0.152	0.000	D	F	1694.9	270.362	0.208	-0.007	1456.064	1506.726	0.023	-	0.026	0.763	-	-	-	Ambient238	27.295	239.491	-	PAVEMENT_GENERAL	Urban	F	1011101000010101	0000000000000000	-	-	-	-	-	-	-	-	-	-	Terminate	
Unknown	80.98495	10/29/0116 10:21.33	00004859	9.489	Inter749t17-0	-0.215	1	1	270.102	11.111	11.5	0.155	0.000	D	F	1760.5	272.494	0.208	-0.041	1446.932	1506.941	0.023	-	0.337	0.713	-	-	-	Ambient238	25.370	240.737	-	PAVEMENT_GENERAL	Urban	F	1011101000010101	0000000000000000	-	-	-	-	-	-	-	-	-	-	Terminate	
Unknown	81.98497	10/29/0116 10:21.34	00004919	10.135	Inter749t17-0	0.139	1	1	270.072	11.111	-19.6	0.155	0.000	D	F	1817.9	271.017	0.206	0.076	1437.121	1507.314	0.023	-	-0.596	0.626	-	-	-	Ambient238	23.809	241.303	-	PAVEMENT_GENERAL	Urban	F	1011101000010101	0000000000000000	-	-	-	-	-	-	-	-	-	-	Terminate	
Unknown	82.98499	10/29/0116 10:21.35	00004979	10.736	Inter749t17-0	0.131	1	1	270.061	11.111	6.9	0.155	0.000	D	F	1884.4	269.976	0.205	-0.028	1426.682	1507.321	0.024	-	0.191	0.583	-	-	-	Ambient238	22.471	241.243	680.248	PAVEMENT_GENERAL	Urban	F	1011101000010101	0000000000000000	-	-	-	-	-	-	-	-	-	-	Terminate	
Unknown	83.98502	10/29/0116 10:21.36	00005039	11.291	Inter749t1-3	0.241	2	2	270.000	11.111	-2.0	0.155	0.000	D	F	1610.2	271.083	0.203	0.000	1415.654	1507.441	0.024	-	0.009	0.486	-	-	-	Ambient238	21.309	240.594	264.435	PAVEMENT_GENERAL	Urban	F	1011101000010101	0000000000000000	-	-	-	-	-	-	-	-	-	-	Terminate	
Unknown	84.98503	10/29/0116 10:21.37	00005099	11.828	Inter749t1-3	0.326	2	2	270.000	11.111	-5.4	0.180	0.000	D	F	1686.0	269.678	0.204	0.031	1404.105	1507.526	0.024	-	-0.249	0.565	-	-	-	Ambient238	20.242	239.424	165.447	PAVEMENT_GENERAL	Urban	F	1011101000010101	0000000000000000	-	-	-	-	-	-	-	-	-	-	Terminate	
Unknown	85.98505	10/29/0116 10:21.38	00005159	12.460	Inter747t1-3	0.219	2	2	270.000	11.111	6.5	0.212	0.000	D	F	1803.0	269.729	0.205	-0.034	1391.969	1507.426	0.023	-	0.233	0.691	-	-	-	Ambient238	19.074	237.659	114.316	PAVEMENT_GENERAL	Urban	F	1011101000010101	0000000000000000	-	-	-	-	-	-	-	-	-	-	Terminate	
Unknown	86.98507	10/29/0116 10:21.39	00005219	13.169	Inter747t1-3	0.263	2	2	270.000	11.111	1.7	0.208	0.000	D	F	1824.6	270.476	0.203	-0.009	1379.147	1507.469	0.023	-	0.080	0.670	-	-	-	Ambient238	17.861	235.216	84.365	PAVEMENT_GENERAL	Urban	F	1011101000010101	0000000000000000	-	-	-	-	-	-	-	-	-	-	Terminate	
Unknown	87.98509	10/29/0116 10:21.40	00005279	13.817	Inter747t1-3	0.373	2	2	270.000	11.111	-4.2	0.210	0.000	D	F	1858.4	270.220	0.202	0.026	1365.651	1507.580	0.024	-	-0.194	0.631	-	-	-	Ambient238	16.798	232.098	67.544	PAVEMENT_GENERAL	Urban	F	1011101000010101	0000000000000000	-	-	-	-	-	-	-	-	-	-	Terminate	
Unknown	88.98512	10/29/0116 10:21.41	00005339	14.451	Inter747t1-3	0.368	2	2	270.000	11.111	1.4	0.222	0.000	D	F	1919.0	269.881	0.202	-0.005	1351.518	1507.575	0.024	-	0.029	0.655	-	-	-	Ambient238	15.801	228.343	56.106	PAVEMENT_GENERAL	Urban	F	1011101000010101	0000000000000000	-	-	-	-	-	-	-	-	-	-	Terminate	
Unknown	89.98513	10/29/0116 10:21.42	00005399	15.128	Inter747t1-3	0.367	2	2	270.000	11.111	-0.0	0.236	0.000	D	F	1963.5	270.092	0.201	-0.002	1336.726	1507.574	0.023	-	0.020	0.651	-	-	-	Ambient238	14.803	223.930	47.178	PAVEMENT_GENERAL	Urban	F	1011101000010101	0000000000000000	-	-	-	-	-	-	-	-	-	-	Terminate	
Unknown	90.98515	10/29/0116 10:21.43	00005459	15.755	Inter747t1-3	0.376	2	2	270.000	11.111	1.3	0.238	0.000	D	F	1991.9	269.966	0.200	-0.006	1321.281	1507.583	0.024	-	0.021	0.607	-	-	-	Ambient238	13.892	218.863	40.729	PAVEMENT_GENERAL	Urban	F	1011101000010101	0000000000000000	-	-	-	-	-	-	-	-	-	-	Terminate	
Unknown	91.98518	10/29/0116 10:21.44	00005519	16.340	Inter747t1-3	0.425	2	2	270.000	11.111	3.1	0.242	0.000	D	F	2022.3	270.481	0.199	-0.025	1305.232	1507.632	0.024	-	0.182	0.571	-	-	-	Ambient238	13.048	213.192	35.780	PAVEMENT_GENERAL	Urban	F	1011101000010101	0000000000000000	-	-	-	-	-	-	-	-	-	-	Terminate	
Unknown	92.98519	10/29/0116 10:21.45	00005579	16.893	Inter747t1-3	0.617	2	2	270.000	11.111	-6.3	0.238	0.000	D	F	2048.3	270.648	0.197	0.031	1288.613	1507.823	0.024	-	-0.221	0.537	-	-	-	Ambient238	12.251	206.952	31.781	PAVEMENT_GENERAL	Urban	F	1011101000010101	0000000000000000	-	-	-	-	-	-	-	-	-	-	Terminate	
Unknown	93.98521	10/29/0116 10:21.46	00005639	17.412	Inter747t1-3	0.652	2	2	270.000	11.111	-3.4	0.238	0.000	D	F	2074.8	269.622	0.196	0.027	1271.458	1507.859	0.024	-	-0.214	0.506	-	-	-	Ambient238	11.496	200.176	28.471	PAVEMENT_GENERAL	Urban	F	1011101000010101	0000000000000000	-	-	-	-	-	-	-	-	-	-	Terminate	
Unknown	94.98523	10/29/0116 10:21.47	00005699	17.906	Inter747t1-3	0.461	2	2	270.000	11.111	0.8	0.242	0.000	D	F	2104.2	269.215	0.195	-0.006	1253.798	1507.668	0.024	-	0.011	0.480	-	-	-	Ambient238	10.773	192.894	25.635	PAVEMENT_GENERAL	Urban	F	1011101000010101	0000000000000000	-	-	-	-	-	-	-	-	-	-	Terminate	
Unknown	95.98525	10/29/0116 10:21.48	00005759	18.376	Inter747t1-3	0.240	2	2	270.000	11.111	1.7	0.243	0.000	D	F	2140.7	269.438	0.195	-0.013	1235.657	1507.447	0.024	-	0.095	0.462	-	-	-	Ambient238	10.075	185.131	23.157	PAVEMENT_GENERAL	Urban	F	1011101000010101	0000000000000000	-	-	-	-	-	-	-	-	-	-	Terminate	
Unknown	96.98528	10/29/0116 10:21.49	00005819	18.835	Inter747t1-3	0.100	2	2	270.000	11.111	1.5	0.256	0.000	D	F	2186.0	269.736	0.194	-0.011	1217.053	1507.307	0.025	-	0.094	0.473	-	-	-	Ambient238	9.393	176.905	20.927	PAVEMENT_GENERAL	Urban	F	1011101000010101	0000000000000000	-	-	-	-	-	-	-	-	-	-	Terminate	
Unknown	97.98529	10/29/0116 10:21.50	00005879	19.343	Inter748t1-3	0.051	2	2	270.000	11.111	0.1	0.286	0.000	D	F	2252.3	269.994	0.194	-0.006	1197.972	1507.258	0.024	-	0.045	0.546	-	-	-	Ambient238	8.696	168.203	18.769	PAVEMENT_GENERAL	Urban	F	1011101000010101	0000000000000000	-	-	-	-	-	-	-	-	-	-	Terminate	
Unknown	98.98531	10/29/0116 10:21.51	00005939	19.880	Inter748t1-3	-0.038	2	2	270.000	11.111	-6.6	0.287	0.000	D	F	2293.4	269.094	0.192	0.062	1178.360	1507.169	0.024	-	-0.475	0.529	-	-	-	Ambient238	7.997	158.973	16.736	PAVEMENT_GENERAL	Urban	F	1011101000010101	0000000000000000	-	-	-	-	-	-	-	-	-	-	Terminate	
Unknown	99.98534	10/29/0116 10:21.52	00005999	20.403	Inter748t1-3	-0.532	2	2	270.000	11.111	-0.1	0.287	0.000	D	F	2335.5	268.052	0.192	0.020	1158.224	1506.675	0.024	-	-0.144	0.519	-	-	-	Ambient238	7.314	149.219	14.890	PAVEMENT_GENERAL	Urban	F	1011101000010101	0000000000000000	-	-	-	-	-	-	-	-	-	-	Terminate	
Unknown	100.98535	10/29/0116 10:21.53	00006059	20.933	Inter748t1-3	-1.150	2	2	270.000	11.111	6.1	0.307	0.000	D	F	2390.5	268.900	0.191	-0.062	1137.569	1506.057	0.024	-	0.468	0.544	-	-	-	-	-	-	-	PAVEMENT_GENERAL	Urban	F	1011101000010101	0000000000000000	-	-	-	-	-	-	-	-	-	-	Terminate	
Unknown	101.98537	10/29/0116 10:21.54	00006119	21.485	Inter748t1-3	-1.470	2	2	270.000	11.111	-3.1	0.316	0.000	D	F	2444.1	269.073	0.190	0.033	1116.363	1505.737	0.024	-	-0.222	0.556	-	-	-	-	-	-	-	PAVEMENT_GENERAL	Urban	F	1011101000010101	0000000000000000	-	-	-	-	-	-	-	-	-	-	Terminate	
Unknown	102.98539	10/29/0116 10:21.55	00006179	22.063	Inter748t1-2	1.788	1	2	270.000	11.111	2.6	0.326	0.000	D	F	2501.0	269.391	0.189	-0.031	1094.594	1505.395	0.024	-	0.238	0.589	-	-	-	-	-	-	-	PAVEMENT_GENERAL	Urban	F	1111101000010101	0000000000000000	-	-	-	-	-	-	-	-	-	-	Terminate	
Unknown	103.98541	10/29/0116 10:21.56	00006239	22.562	Inter748t1-2	1.607	1	2	270.000	11.111	-0.1	0.263	0.000	D	F	2490.0	269.692	0.187	-0.003	1072.264	1505.214	0.025	-	0.031	0.409	-	-	-	-	-	-	-	PAVEMENT_GENERAL	Urban	F	1011101000010101	0000000000000000	-	-	-	-	-	-	-	-	-	-	Terminate	
Unknown	104.98544	10/29/0116 10:21.57	00006299	22.886	Inter748t1-2	1.459	1	2	270.000	11.111	-1.1	0.224	0.000	D	F	2497.2	269.499	0.186	0.012	1049.527	1505.066	0.026	-	-0.092	0.276	-	-	-	-	-	-	-	PAVEMENT_GENERAL	Urban	F	1011101000010101	0000000000000000	-	-	-	-	-	-	-	-	-	-	Terminate	
Unknown	105.98545	10/29/0116 10:21.58	00006359	23.179	Inter748t1-2	1.228	1	2	270.000	11.111	-2.6	0.240	0.000	D	F	2531.6	269.301	0.184	0.013	1026.498	1504.835	0.025	-	-0.124	0.300	-	-	-	-	-	-	-	PAVEMENT_GENERAL	Urban	F	1011101000010101	0000000000000000	-	-	-	-	-	-	-	-	-	-	Terminate	
Unknown	106.98547	10/29/0116 10:21.59	00006419	23.445	Inter748t1-2	0.845	1	2	270.000	11.111	-3.0	0.224	0.000	D	F	2544.8	268.455	0.183	0.059	1003.184	1504.452	0.026	-	-0.414	0.248	-	-	-	-	-	-	-	PAVEMENT_GENERAL	Urban	F	1011101000010101	0000000000000000	-	-	-	-	-	-	-	-	-	-	Terminate	
Unknown	107.98550	10/29/0116 10:22.00	00006479	23.675	Inter752t1-2	-0.469	1	2	269.697	24.444	5.7	0.217	0.000	D	F	2021.3	268.368	0.372	-0.500	979.622	1503.796	0.050	-	0.160	0.181	-	-	-	-	-	-	-	FREEWAY_SMOOTH	Urban	F	1011101000010101	0000000000000000	-	-	-	-	-	-	-	-	-	-	Terminate	
Unknown	108.98551	10/29/0116 10:22.01	00006539	23.796	Inter752t1-2	-0.523	1	2	268.404	24.444	-9.7	0.224	0.000	D	F	2013.7	269.641	0.298	-1.015	955.891	1503.372	0.092	-	-0.230	0.174	-	-	-	-	-	-	-	FREEWAY_SMOOTH	Urban	F	1011101000010101	0000000000000000	-	-	-	-	-	-	-	-	-	-	Terminate	
Unknown	109.98553	10/29/0116 10:22.02	00006599	23.947	Inter752t1-2	-0.236	1	2	266.091	24.444	-16.8	0.222	0.000	D	F	2013.9	265.267	0.251	-1.397	932.034	1502.526	0.139	-	-1.974	0.158	-	-	-	-	-	-	-	FREEWAY_SMOOTH	Urban	F	1011101000010101	0000000000000000	-	-	-	-	-	-	-	-	-	-	Terminate	
Unknown	110.98555	10/29/0116 10:22.03	00006659	24.087	Inter752t1-2	-0.624	1	2	262.753	24.444	-16.4	0.222	0.000	D	F	2018.2	260.630	0.187	-1.994	908.177	1499.807	0.166	-	-1.972	0.158	-	-	-	-	-	-	-	FREEWAY_SMOOTH	Urban	F	1011101000010101	0000000000000000	-	-	-	-	-	-	-	-	-	-	Terminate	
Unknown	111.98557	10/29/0116 10:22.04	00006719	24.238	Inter752t1-2	-1.124	1	2	258.330	24.444	0.9	0.224	0.000	D	F	2027.8	258.598	0.272	-2.833	884.433	1495.336	0.179	-	-0.168	0.152	-	-	-	-	-	-	-	FREEWAY_SMOOTH	Urban	F	1011101000010101	0000000000000000	-	-	-	-	-	-	-	-	-	-	Terminate	
Unknown	112.98560	10/29/0116 10:22.05	00006779	24.365	Inter752t1-2	-0.221	1	2	252.892	24.444	-21.4	0.222	0.000	D	F	2029.0	255.696	0.445	-3.146	860.683	1490.157	0.265	-	-2.170	0.114	-	-	-	-	-	-	-	FREEWAY_SMOOTH	Urban	F	1111101000010101	0000000000000000	-	-	-	-	-	-	-	-	-	-	Terminate	
Unknown	113.98561	10/29/0116 10:22.06	00006839	24.351	Inter752t1-2	0.974	1	2	246.836	24.444	-40.0	0.224	0.000	D	F	2028.6	246.664	0.147	-2.927	837.453	1482.842	0.346	-	-4.385	0.060	-	-	-	-	-	-	-	FREEWAY_SMOOTH	Urban	F	1011101000010101	0000000000000000	-	-	-	-	-	-	-	-	-	-	Terminate	
Unknown	114.98563	10/29/0116 10:22.07	00006899	24.315	Inter752t1-2	0.628	1	2	240.797	24.444	-31.5	0.226	0.000	D	F	2028.4	236.501	-0.101	-2.976	815.831	1471.747	0.326	-	-4.027	0.118	-	-	-	-	-	-	-	FREEWAY_SMOOTH	Urban	F	1111101000010101	0000000000000000	-	-	-	-	-	-	-	-	-	-	Terminate	
Unknown	115.98566	10/29/0116 10:22.08	00006959	24.408	Inter752t1-2	-0.515	1	2	234.679	24.444	-6.4	0.226	0.000	D	F	2035.8	234.104	0.146	-3.469	795.904	1457.742	0.254	-	-0.307	0.099	-	-	-	-	-	-	-	FREEWAY_SMOOTH	Urban	F	1011101000010101	0000000000000000	-	-	-	-	-	-	-	-	-	-	Terminate	
Unknown	116.98567	10/29/0116 10:22.09	00007019	24.488	Inter752t1-2	-0.105	1	2	228.572	24.444	-19.4	0.226	0.000	D	F	2037.1	230.029	0.267	-3.231	776.520	1442.837	0.279	-	-2.100	0.078	-	-	-	-	-	-	-	FREEWAY_SMOOTH	Urban	F	1011101000010101	0000000000000000	-	-	-	-	-	-	-	-	-	-	Terminate	
Unknown	117.98569	10/29/0116 10:22.10	00007079	24.505	Inter752t1-2	0.737	1	2	222.453	24.444	-35.5	0.229	0.000	D	F	2038.4	222.386	0.158	-2.995	758.508	1426.238	0.331	-	-3.865	0.067	-	-	-	-	-	-	-	FREEWAY_SMOOTH	Urban	F	1011101000010101	0000000000000000	-	-	-	-	-	-	-	-	-	-	Terminate	
Unknown	118.98571	10/29/0116 10:22.11	00007139	24.516	Inter752t1-2	0.620	1	2	216.358	24.444	-16.4	0.229	0.000	D	F	2039.4	214.200	0.042	-3.166	743.104	1407.205	0.323	-	-2.689	0.108	-	-	-	-	-	-	-	FREEWAY_SMOOTH	Urban	F	1011101000010101	0000000000000000	-	-	-	-	-	-	-	-	-	-	Terminate	
Unknown	119.98573	10/29/0116 10:22.12	00007199	24.596	Inter752t1-2	0.330	1	2	210.280	24.444	-20.6	0.231	0.000	D	F	2042.7	209.498	0.135	-3.207	729.921	1386.490	0.305	-	-2.318	0.092	-	-	-	-	-	-	-	FREEWAY_SMOOTH	Urban	F	1011101000010101	0000000000000000	-	-	-	-	-	-	-	-	-	-	Terminate	
Unknown	120.98576	10/29/0116 10:22.13	00007259	24.649	Inter752t1-2	0.269	1	2	204.088	24.444	-23.5	0.236	0.000	D	F	2051.4	202.707	0.085	-3.124	718.796	1364.533	0.302	-	-2.945	0.106	-	-	-	-	-	-	-	FREEWAY_SMOOTH	Urban	F	1011101000010101	0000000000000000	-	-	-	-	-	-	-	-	-	-	Terminate	
Unknown	121.98577	10/29/0116 10:22.14	00007319	24.710	Inter752t1-2	-0.016	1	2	197.913	24.444	-21.6	0.229	0.000	D	F	2048.4	196.301	0.081	-3.156	710.278	1341.378	0.285	-	-2.695	0.075	-	-	-	-	-	-	-	FREEWAY_SMOOTH	Urban	F	1011101000010101	0000000000000000	-	-	-	-	-	-	-	-	-	-	Terminate	
Unknown	122.98579	10/29/0116 10:22.15	00007379	24.711	Inter752t1-2	-0.429	1	2	192.242	24.444	-20.6	0.226	0.000	D	F	2042.7	190.092	-0.034	-2.554	704.341	1317.397	0.222	-	-2.617	0.036	-	-	-	-	-	-	-	FREEWAY_SMOOTH	Urban	F	1011101000010101	0000000000000000	-	-	-	-	-	-	-	-	-	-	Terminate	
Unknown	123.98581	10/29/0116 10:22.16	00007439	24.733	Inter752t1-2	-0.821	1	2	187.626	24.444	-1.2	0.226	0.000	D	F	2045.0	188.338	0.120	-2.299	700.541	1292.970	0.165	-	-0.004	0.021	-	-	-	-	-	-	-	FREEWAY_SMOOTH	Urban	F	1011101000010101	0000000000000000	-	-	-	-	-	-	-	-	-	-	Terminate	
Unknown	124.98583	10/29/0116 10:22.17	00007499	24.756	Inter752t1-2	-0.050	1	2	184.091	24.444	-6.2	0.224	0.000	D	F	2045.1	186.319	0.138	-1.565	697.320	1268.435	0.151	-	-0.859	0.019	-	-	-	-	-	-	-	FREEWAY_SMOOTH	Urban	F	1011101000010101	0000000000000000	-	-	-	-	-	-	-	-	-	-	Terminate	
Unknown	125.98586	10/29/0116 10:22.18	00007559	24.774	Inter752t1-2	1.216	1	2	181.649	24.444	-25.6	0.222	0.000	D	F	2041.6	183.986	0.086	-0.792	694.879	1243.791	0.130	-	-1.918	0.014	-	-	-	-	-	-	-	FREEWAY_SMOOTH	Urban	F	1011101000010101	0000000000000000	-	-	-	-	-	-	-	-	-	-	Terminate	
Unknown	126.98587	10/29/0116 10:22.19	00007619	24.776	Inter752t1-2	1.777	1	2	180.290	24.444	1.1	0.228	0.000	D	F	2047.7	181.144	0.037	-0.481	693.951	1219.043	0.075	-	0.164	0.030	-	-	-	-	-	-	-	FREEWAY_SMOOTH	Urban	F	1011101000010101	0000000000000000	-	-	-	-	-	-	-	-	-	-	Terminate	
Unknown	127.98589	10/29/0116 10:22.20	00007679	24.807	Inter754t3-3	-1.065	2	2	180.000	11.111	-4.4	0.224	0.000	D	F	2044.9	177.716	0.203	0.176	693.858	1194.251	0.026	-	-1.497	0.081	-	-	-	Ambient355	1.773	43.995	3.076	PAVEMENT_GENERAL	Urban	F	1011101000010101	0000000000000000	-	-	-	-	-	-	-	-	-	-	Terminate	
Unknown	128.98592	10/29/0116 10:22.21	00007739	24.876	Inter754t3-2	1.716	1	2	180.000	11.111	4.4	0.219	0.000	D	F	2039.4	178.681	0.178	-0.061	694.678	1169.422	0.027	-	0.502	0.065	-	-	-	Ambient355	1.097	27.292	1.899	PAVEMENT_GENERAL	Urban	F	1011101000010101	0000000000000000	-	-	-	-	-	-	-	-	-	-	Terminate	
Unknown	129.98593	10/29/0116 10:22.22	00007799	24.941	Inter754t3-2	1.272	1	2	180.000	11.111	5.4	0.217	0.000	D	F	2043.2	179.593	0.178	-0.051	695.121	1144.519	0.027	-	0.422	0.069	-	-	-	Ambient355	0.517	12.904	0.894	PAVEMENT_GENERAL	Urban	F	1011101000010101	0000000000000000	-	-	-	-	-	-	-	-	-	-	Terminate	
Unknown	130.98595	10/29/0116 10:22.23	00007859	24.991	Inter754t3-2	1.342	1	2	180.000	11.111	8.1	0.219	0.000	D	F	2039.1	181.359	0.176	-0.110	695.051	1119.552	0.027	-	0.841	0.052	-	-	-	Ambient355	-0.061	-1.535	-0.106	PAVEMENT_GENERAL	Urban	F	1011101000010101	0000000000000000	-	-	-	-	-	-	-	-	-	-	Terminate	
Unknown	131.98598	10/29/0116 10:22.24	00007919	25.045	Inter754t11-0	-1.356	LT1	0	178.019	11.111	-21.7	0.222	0.000	D	F	2047.8	181.571	0.176	0.167	694.277	1094.548	0.027	-	-1.159	0.061	-	-	-	Ambient337	4.525	113.332	7.739	PAVEMENT_GENERAL	Urban	F	1011101000010101	0000000000000000	-	-	-	-	-	-	-	-	-	-	Terminate	
Unknown	132.98599	10/29/0116 10:22.25	00007979	25.035	Inter754t11-0	-0.626	LT1	0	176.234	11.111	-5.2	0.190	0.000	D	F	1987.6	176.073	0.164	0.176	694.606	1069.510	0.028	-	-1.450	-0.053	-	-	-	Ambient337	3.940	98.633	6.740	PAVEMENT_GENERAL	Urban	F	1011101000010101	0000000000000000	-	-	-	-	-	-	-	-	-	-	Terminate	
Unknown	133.98601	10/29/0116 10:22.26	00008039	24.989	Inter754t11-0	-0.515	LT1	0	177.667	11.111	14.4	0.199	0.000	D	F	2003.9	178.244	0.173	-0.205	696.066	1044.543	0.027	-	1.542	-0.022	-	-	-	Ambient337	3.364	84.055	5.762	PAVEMENT_GENERAL	Urban	F	1011101000010101	0000000000000000	-	-	-	-	-	-	-	-	-	-	Terminate	
Unknown	134.98604	10/29/0116 10:22.27	00008099	24.971	Inter754t1-1	-0.096	1	1	180.000	11.111	-9.6	0.203	0.000	D	F	2011.6	179.055	0.178	0.105	696.500	1019.571	0.027	-	-0.727	0.005	-	-	-	Ambient337	2.783	69.495	4.770	PAVEMENT_GENERAL	Urban	F	1011101000010101	0000000000000000	-	-	-	-	-	-	-	-	-	-	Terminate	
Unknown	135.98605	10/29/0116 10:22.28	00008159	24.970	Inter686t1-0	-0.712	1	1	180.000	11.111	-3.5	0.206	0.000	D	F	2016.0	178.649	0.178	-0.018	697.108	994.609	0.027	-	0.136	0.005	-	-	-	Ambient337	2.200	54.933	3.771	PAVEMENT_GENERAL	Urban	F	1011101000010101	0000000000000000	-	-	-	-	-	-	-	-	-	-	Terminate	
Unknown	136.98607	10/29/0116 10:22.29	00008219	24.977	Inter686t1-0	-1.638	1	1	180.000	11.111	9.2	0.208	0.000	D	F	2019.2	176.882	0.175	-0.014	698.034	969.652	0.027	-	-0.054	0.019	-	-	-	Ambient337	1.617	40.377	2.770	PAVEMENT_GENERAL	Urban	F	1011101000010101	0000000000000000	-	-	-	-	-	-	-	-	-	-	Terminate	
Unknown	137.98610	10/29/0116 10:22.30	00008279	24.969	-	-	CL	0	-	-	6.0	0.203	0.000	D	F	2011.3	180.642	0.169	-0.168	698.763	944.688	0.027	-	1.306	0.002	-	-	-	-	-	-	-	PAVEMENT_GENERAL	Urban	F	1011101000010101	0000000000000000	-	-	-	-	-	-	-	-	-	-	Terminate	
Unknown	138.98611	10/29/0116 10:22.31	00008339	24.967	-	-	CL	0	-	-	-7.2	0.205	0.000	D	F	2012.5	180.255	0.177	0.079	698.507	919.722	0.027	-	-0.567	0.004	-	-	-	-	-	-	-	PAVEMENT_GENERAL	Urban	F	1111101000010101	0000000000000000	-	-	-	-	-	-	-	-	-	-	Terminate	
Unknown	139.98613	10/29/0116 10:22.32	00008399	24.960	-	-	CL	0	-	-	-5.0	0.205	0.000	D	F	2009.4	178.536	0.176	0.083	698.669	894.759	0.027	-	-0.643	-0.007	-	-	-	-	-	-	-	PAVEMENT_GENERAL	Urban	F	1011101000010101	0000000000000000	-	-	-	-	-	-	-	-	-	-	Terminate	
Unknown	140.98616	10/29/0116 10:22.33	00008459	24.962	-	-	CL	0	-	-	9.0	0.203	0.000	D	F	2008.6	178.732	0.177	-0.092	699.346	869.809	0.027	-	0.616	-0.003	-	-	-	-	-	-	-	PAVEMENT_GENERAL	Urban	F	1011101000010101	0000000000000000	-	-	-	-	-	-	-	-	-	-	Terminate	
Unknown	141.98618	10/29/0116 10:22.34	00008519	24.953	-	-	CL	0	-	-	19.4	0.206	0.000	D	F	2012.6	181.356	0.175	-0.217	699.530	844.854	0.027	-	1.599	0.003	-	-	-	-	-	-	-	PAVEMENT_GENERAL	Urban	F	1011101000010101	0000000000000000	-	-	-	-	-	-	-	-	-	-	Terminate	
Unknown	142.98619	10/29/0116 10:22.35	00008579	24.932	-	-	CL	0	-	-	-2.1	0.206	0.000	D	F	2011.0	184.839	0.172	-0.040	698.261	819.948	0.027	-	0.510	-0.008	-	-	-	-	-	-	-	PAVEMENT_GENERAL	Urban	F	1011101000010101	0000000000000000	-	-	-	-	-	-	-	-	-	-	Terminate	
Unknown	143.98621	10/29/0116 10:22.36	00008639	24.930	Inter682t1-1	-0.168	1	1	180.000	11.111	-15.8	0.205	0.000	D	F	2007.8	181.964	0.173	0.213	696.572	795.073	0.027	-	-1.596	-0.003	-	-	-	-	-	-	-	PAVEMENT_GENERAL	Urban	F	1011101000010101	0000000000000000	-	-	-	-	-	-	-	-	-	-	Terminate	
Unknown	144.98624	10/29/0116 10:22.37	00008699	24.914	Inter682t1-1	0.127	1	1	180.000	11.111	14.5	0.205	0.000	D	F	2011.8	179.298	0.174	-0.049	696.277	770.158	0.027	-	0.166	0.019	-	-	-	-	-	-	-	PAVEMENT_GENERAL	Urban	F	1011101000010101	0000000000000000	-	-	-	-	-	-	-	-	-	-	Terminate	
Unknown	145.98625	10/29/0116 10:22.38	00008759	24.911	Inter682t1-1	0.347	1	1	180.000	11.111	5.8	0.205	0.000	D	F	2006.8	181.795	0.176	-0.091	696.057	745.246	0.027	-	0.704	-0.003	-	-	-	-	-	-	-	PAVEMENT_GENERAL	Urban	F	1011101000010101	0000000000000000	-	-	-	-	-	-	-	-	-	-	Terminate	
Unknown	146.98627	10/29/0116 10:22.39	00008819	24.908	Inter682t1-1	0.941	1	1	180.000	11.111	-11.9	0.206	0.000	D	F	2009.0	179.509	0.171	0.216	695.463	720.343	0.027	-	-1.597	0.005	-	-	-	-	-	-	-	PAVEMENT_GENERAL	Urban	F	1011101000010101	0000000000000000	-	-	-	-	-	-	-	-	-	-	Terminate	
Unknown	147.98630	10/29/0116 10:22.40	00008879	24.904	Inter682t1-1	0.465	1	1	180.000	11.111	-3.6	0.205	0.000	D	F	2011.3	177.961	0.177	0.054	695.939	695.444	0.027	-	-0.415	0.005	-	-	-	-	-	-	-	PAVEMENT_GENERAL	Urban	F	1011101000010101	0000000000000000	-	-	-	-	-	-	-	-	-	-	Terminate	
Unknown	148.98631	10/29/0116 10:22.41	00008939	24.911	Inter682t1-1	-0.391	1	1	180.000	11.111	8.7	0.206	0.000	D	F	2009.8	178.516	0.177	-0.081	696.795	670.552	0.027	-	0.620	0.011	-	-	-	-	-	-	-	PAVEMENT_GENERAL	Urban	F	1011101000010101	0000000000000000	-	-	-	-	-	-	-	-	-	-	Terminate	
Unknown	149.98633	10/29/0116 10:22.42	00008999	24.915	Inter682t1-1	-0.738	1	1	180.000	11.111	7.1	0.206	0.000	D	F	2011.0	180.310	0.177	-0.090	697.142	645.642	0.027	-	0.700	0.008	-	-	-	-	-	-	-	PAVEMENT_GENERAL	Urban	F	1011101000010101	0000000000000000	-	-	-	-	-	-	-	-	-	-	Terminate	
Unknown	150.98636	10/29/0116 10:22.43	00009059	24.920	Inter682t1-1	-0.392	1	1	180.000	11.111	-3.8	0.201	0.000	D	F	2007.2	181.412	0.176	-0.004	696.795	620.727	0.027	-	0.062	-0.003	-	-	-	-	-	-	-	PAVEMENT_GENERAL	Urban	F	1011101000010101	0000000000000000	-	-	-	-	-	-	-	-	-	-	Terminate	
Unknown	151.98637	10/29/0116 10:22.44	00009119	24.562	Inter688t25-1	-0.415	1	1	180.000	11.111	-23.4	0.000	0.000	D	F	1672.2	175.673	0.141	0.439	696.811	595.900	0.032	-	-3.266	-0.692	-	-	-	-	-	-	-	PAVEMENT_GENERAL	Urban	F	1011101000010101	0000000000000000	-	-	-	-	-	-	-	-	-	-	Terminate	
Unknown	152.98639	10/29/0116 10:22.45	00009179	23.798	Inter688t33-0	-1.690	1	1	173.195	11.111	34.0	0.000	0.107	D	F	1602.8	176.358	0.149	-0.360	698.871	571.786	0.031	-	2.511	-1.556	-	-	-	-	-	-	-	PAVEMENT_GENERAL	Urban	F	1011101000010101	0000000000000000	-	-	-	-	-	-	-	-	-	-	Terminate	
Unknown	153.98642	10/29/0116 10:22.46	00009239	20.259	Inter688t33-0	0.402	1	1	176.027	11.111	4.1	0.000	0.301	D	F	1326.7	184.665	0.024	-0.265	699.093	549.578	0.040	-	2.052	-4.230	-	-	-	-	-	-	-	PAVEMENT_GENERAL	Urban	F	1011101000010101	0000000000000000	-	-	-	-	-	-	-	-	-	-	Terminate	
Unknown	154.98643	10/29/0116 10:22.47	00009299	14.457	Inter688t27-2	-1.626	2	2	179.909	11.111	-38.5	0.000	0.606	D	F	899.4	181.083	-0.188	0.306	697.996	531.956	0.043	-	-1.800	-7.167	-	-	-	-	-	-	-	PAVEMENT_GENERAL	Urban	F	1011101000010101	0000000000000000	-	-	-	-	-	-	-	-	-	-	Terminate	
Unknown	155.98645	10/29/0116 10:22.48	00009359	6.716	Inter688t27-1	1.602	LT1	1	179.909	11.111	-44.6	0.000	0.609	D	F	609.7	173.039	-0.204	0.130	698.384	521.422	0.043	-	-0.892	-7.217	-	-	-	-	-	-	-	PAVEMENT_GENERAL	Urban	F	1011101000010101	0000000000000000	-	-	-	-	-	-	-	-	-	-	Terminate	
Unknown	156.98647	10/29/0116 10:22.49	00009419	1.580	Inter688t59-0	1.032	1	1	176.819	11.111	-32.2	0.000	0.063	D	F	477.5	170.162	0.195	-0.007	698.972	517.844	0.035	-	-0.001	-1.176	-	-	-	-	-	-	-	PAVEMENT_GENERAL	Urban	F	1011101000010101	0000000000000000	-	-	-	-	-	-	-	-	-	-	Terminate	
Unknown	157.98650	10/29/0116 10:22.50	00009479	1.283	Inter688t59-0	0.858	1	1	172.549	11.111	-32.5	0.000	0.000	D	F	477.5	169.261	0.200	0.002	699.247	516.464	0.028	-	-0.026	-0.222	-	-	-	-	-	-	-	PAVEMENT_GENERAL	Urban	F	1011101000010101	0000000000000000	-	-	-	-	-	-	-	-	-	-	Terminate	
Unknown	158.98651	10/29/0116 10:22.51	00009539	2.247	Inter688t59-0	0.747	1	1	168.152	11.111	-41.0	0.071	0.000	D	F	1139.9	167.976	0.210	0.016	699.594	514.917	0.020	-	-0.105	1.500	-	-	-	44	12.809	28.778	-	PAVEMENT_GENERAL	Urban	F	1011101000010101	0000000000000000	-	-	-	-	-	-	-	-	-	-	Terminate	
Unknown	159.98653	10/29/0116 10:22.52	00009599	3.472	Inter688t59-0	0.739	1	1	161.248	11.111	-43.9	0.090	0.000	D	F	1350.4	165.469	0.217	0.031	700.311	512.160	0.020	-	-0.220	1.330	-	-	-	44	10.956	38.043	-	PAVEMENT_GENERAL	Urban	F	1011101000010101	0000000000000000	-	-	-	-	-	-	-	-	-	-	Terminate	
Unknown	160.98656	10/29/0116 10:22.53	00009659	4.567	Inter688t59-0	1.037	1	1	152.746	11.111	-78.4	0.085	0.000	D	F	1466.9	161.096	0.207	0.100	701.568	508.301	0.022	-	-0.701	0.821	-	-	-	44	10.492	47.915	-	PAVEMENT_GENERAL	Urban	F	1011101000010101	0000000000000000	-	-	-	-	-	-	-	-	-	-	Terminate	
Unknown	161.98657	10/29/0116 10:22.54	00009719	5.106	Inter688t59-0	1.441	1	1	143.194	11.111	-134.4	0.072	0.000	D	F	1216.5	150.683	0.199	0.164	703.743	503.934	0.025	-	-1.282	0.356	-	-	-	Ambient373	4.266	21.780	-	PAVEMENT_GENERAL	Urban	F	1011101000010101	0000000000000000	-	-	-	-	-	-	-	-	-	-	Terminate	
Unknown	162.98659	10/29/0116 10:22.55	00009779	5.587	Inter688t59-0	1.530	1	1	131.593	11.111	-162.0	0.076	0.000	D	F	1250.2	135.204	0.193	0.249	707.220	499.876	0.024	-	-1.838	0.326	-	-	-	Ambient373	4.863	27.166	-	PAVEMENT_GENERAL	Urban	F	1011101000010101	0000000000000000	-	-	-	-	-	-	-	-	-	-	Terminate	
Unknown	163.98662	10/29/0116 10:22.56	00009839	5.951	Inter688t59-0	1.145	1	1	114.959	11.111	-186.4	0.069	0.000	D	F	1241.0	115.343	0.183	0.311	712.159	496.891	0.025	-	-2.364	0.112	-	-	-	Ambient392	0.328	1.953	-	PAVEMENT_GENERAL	Urban	F	1111101000010101	0000000000000000	-	-	-	-	-	-	-	-	-	-	Terminate	
Unknown	164.98663	10/29/0116 10:22.57	00009899	6.295	Inter688t59-0	0.692	1	1	91.947	11.111	-101.3	0.074	0.000	D	F	1281.5	94.854	0.193	0.138	718.163	495.817	0.025	-	-1.169	0.294	-	-	-	Ambient392	0.783	4.931	-	PAVEMENT_GENERAL	Urban	F	1011101000010101	0000000000000000	-	-	-	-	-	-	-	-	-	-	Terminate	
Unknown	165.98665	10/29/0116 10:22.58	00009959	6.691	Inter688t5-0	0.516	1	1	90.156	11.111	-16.5	0.083	0.000	D	F	1335.6	87.181	0.204	0.039	724.649	495.972	0.024	-	-0.187	0.365	-	-	-	Ambient392	1.743	11.660	-	PAVEMENT_GENERAL	Urban	F	1011101000010101	0000000000000000	-	-	-	-	-	-	-	-	-	-	Terminate	
Unknown	166.98668	10/29/0116 10:22.59	00010019	7.090	Inter688t5-0	0.139	1	1	90.156	11.111	21.4	0.090	0.000	D	F	1401.3	87.625	0.206	-0.055	731.527	496.330	0.024	-	0.366	0.422	-	-	-	Ambient392	2.248	15.935	-	PAVEMENT_GENERAL	Urban	F	1011101000010101	0000000000000000	-	-	-	-	-	-	-	-	-	-	Terminate	
Unknown	167.98669	10/29/0116 10:23.00	00010079	7.642	Inter688t5-0	0.047	1	1	90.156	11.111	18.7	0.113	0.000	D	F	1512.9	90.366	0.208	-0.047	738.881	496.402	0.024	-	0.348	0.579	-	-	-	Ambient392	2.582	19.731	-	PAVEMENT_GENERAL	Urban	F	1011101000010101	0000000000000000	-	-	-	-	-	-	-	-	-	-	Terminate	
Unknown	168.98671	10/29/0116 10:23.01	00010139	8.178	Inter688t19-0	0.284	1	1	90.088	11.111	-7.1	0.108	0.000	D	F	1527.5	92.411	0.206	0.033	746.794	496.147	0.024	L	-0.159	0.478	-	-	-	Ambient392	2.800	22.902	-	PAVEMENT_GENERAL	Urban	F	1111101000110101	0000000000000000	-	-	-	-	-	-	-	-	-	-	Terminate	
Unknown	169.98674	10/29/0116 10:23.02	00010199	8.525	Inter688t19-0	0.274	1	1	90.043	11.111	-34.4	0.104	0.000	D	F	1542.6	87.812	0.204	0.115	755.148	496.141	0.025	L	-0.798	0.391	-	-	-	Ambient392	2.997	25.547	-	PAVEMENT_GENERAL	Urban	F	1011101000110101	0000000000000000	-	-	-	-	-	-	-	-	-	-	Terminate	
Unknown	170.98676	10/29/0116 10:23.03	00010259	8.918	Inter688t19-0	-0.462	1	1	90.017	11.111	-5.5	0.113	0.000	D	F	1603.1	84.190	0.205	0.009	763.834	496.870	0.024	-	-0.132	0.415	-	-	-	Ambient392	3.116	27.790	-	PAVEMENT_GENERAL	Urban	F	1011101000010101	0000000000000000	-	-	-	-	-	-	-	-	-	-	Terminate	
Unknown	171.98677	10/29/0116 10:23.04	00010319	9.428	Inter688t19-0	-1.488	1	1	90.003	11.111	18.4	0.139	0.000	D	F	1710.2	83.655	0.205	-0.056	772.928	497.892	0.023	-	0.451	0.582	-	-	-	Ambient392	3.136	29.568	-	PAVEMENT_GENERAL	Urban	F	1011101000010101	0000000000000000	-	-	-	-	-	-	-	-	-	-	Terminate	
Unknown	172.98679	10/29/0116 10:23.05	00010379	10.038	-	-	SH-	1	-	-	24.4	0.160	0.000	D	F	1812.6	87.899	0.204	-0.095	782.630	498.568	0.024	-	0.734	0.628	-	-	-	-	-	-	-	PAVEMENT_GENERAL	Urban	F	1011101000010101	0000000000000000	-	-	-	-	-	-	-	-	-	-	Terminate	
Unknown	173.98682	10/29/0116 10:23.06	00010439	10.735	-	-	CL	0	-	-	1.8	0.175	0.000	D	F	1919.5	91.226	0.206	-0.002	793.009	498.566	0.023	-	0.142	0.719	-	-	-	-	-	-	-	PAVEMENT_GENERAL	Urban	F	1011101000010101	0000000000000000	-	-	-	-	-	-	-	-	-	-	Terminate	
Unknown	174.98683	10/29/0116 10:23.07	00010499	11.476	-	-	CL	0	-	-	-9.5	0.187	0.000	D	F	2024.1	89.168	0.206	0.049	804.109	498.476	0.023	-	-0.443	0.746	-	-	-	-	-	-	-	PAVEMENT_GENERAL	Urban	F	1011101000010101	0000000000000000	-	-	-	-	-	-	-	-	-	-	Terminate	
Unknown	175.98685	10/29/0116 10:23.08	00010559	12.213	-	-	CL	0	-	-	3.6	0.190	0.000	D	F	2106.5	89.161	0.205	-0.019	815.955	498.694	0.023	-	0.143	0.716	-	-	-	-	-	-	-	PAVEMENT_GENERAL	Urban	F	1011101000010101	0000000000000000	-	-	-	-	-	-	-	-	-	-	Terminate	
Unknown	176.98688	10/29/0116 10:23.09	00010619	12.871	-	-	CL	0	-	-	2.8	0.198	0.000	D	F	1792.9	90.041	0.204	-0.015	828.514	498.786	0.024	-	0.155	0.615	-	-	-	-	-	-	-	PAVEMENT_GENERAL	Urban	F	1011101000010101	0000000000000000	-	-	-	-	-	-	-	-	-	-	Terminate	
Unknown	177.98689	10/29/0116 10:23.10	00010679	13.514	-	-	CL	0	-	-	1.8	0.203	0.000	D	F	1830.7	90.387	0.203	-0.012	841.707	498.733	0.023	-	0.080	0.623	-	-	-	-	-	-	-	PAVEMENT_GENERAL	Urban	F	1011101000010101	0000000000000000	-	-	-	-	-	-	-	-	-	-	Terminate	
Unknown	178.98691	10/29/0116 10:23.11	00010739	14.103	-	-	CL	0	-	-	-3.8	0.201	0.000	D	F	1852.6	90.481	0.201	0.016	855.521	498.610	0.024	-	-0.122	0.565	-	-	-	-	-	-	-	PAVEMENT_GENERAL	Urban	F	1011101000010101	0000000000000000	-	-	-	-	-	-	-	-	-	-	Terminate	
Unknown	179.98694	10/29/0116 10:23.12	00010799	14.651	-	-	CL	0	-	-	-4.7	0.205	0.000	D	F	1877.6	89.603	0.200	0.030	869.900	498.595	0.024	-	-0.230	0.533	-	-	-	-	-	-	-	PAVEMENT_GENERAL	Urban	F	1011101000010101	0000000000000000	-	-	-	-	-	-	-	-	-	-	Terminate	
Unknown	180.98695	10/29/0116 10:23.13	00010859	15.161	-	-	CL	0	-	-	-3.7	0.201	0.000	D	F	1897.9	88.803	0.199	0.025	884.808	498.802	0.024	-	-0.193	0.490	-	-	-	-	-	-	-	PAVEMENT_GENERAL	Urban	F	1011101000010101	0000000000000000	-	-	-	-	-	-	-	-	-	-	Terminate	
Unknown	181.98697	10/29/0116 10:23.14	00010919	15.637	-	-	CL	0	-	-	12.1	0.205	0.000	D	F	1921.6	88.834	0.198	-0.069	900.205	499.174	0.024	-	0.476	0.464	-	-	-	-	-	-	-	PAVEMENT_GENERAL	Urban	F	1011101000010101	0000000000000000	-	-	-	-	-	-	-	-	-	-	Terminate	
Unknown	182.98700	10/29/0116 10:23.15	00010979	16.078	-	-	CL	0	-	-	-0.8	0.201	0.000	D	F	1940.6	90.946	0.196	-0.014	916.064	499.180	0.025	-	0.161	0.428	-	-	-	-	-	-	-	PAVEMENT_GENERAL	Urban	F	1011101000010101	0000000000000000	-	-	-	-	-	-	-	-	-	-	Terminate	
Unknown	183.98701	10/29/0116 10:23.16	00011039	16.493	-	-	CL	0	-	-	-3.8	0.201	0.000	D	F	1958.4	90.640	0.197	0.024	932.351	498.945	0.025	-	-0.173	0.397	-	-	-	-	-	-	-	PAVEMENT_GENERAL	Urban	F	1011101000010101	0000000000000000	-	-	-	-	-	-	-	-	-	-	Terminate	
Unknown	184.98703	10/29/0116 10:23.17	00011099	16.871	-	-	CL	0	-	-	-2.8	0.198	0.000	D	F	1975.9	90.079	0.195	0.021	949.036	498.836	0.025	-	-0.157	0.361	-	-	-	-	-	-	-	PAVEMENT_GENERAL	Urban	F	1011101000010101	0000000000000000	-	-	-	-	-	-	-	-	-	-	Terminate	
Unknown	185.98706	10/29/0116 10:23.18	00011159	17.218	-	-	CL	0	-	-	-2.7	0.194	0.000	D	F	1997.9	89.509	0.195	0.022	966.082	498.888	0.025	-	-0.167	0.339	-	-	-	-	-	-	-	PAVEMENT_GENERAL	Urban	F	1011101000010101	0000000000000000	-	-	-	-	-	-	-	-	-	-	Terminate	
Unknown	186.98708	10/29/0116 10:23.19	00011219	17.550	-	-	CL	0	-	-	-2.4	0.196	0.000	D	F	2024.1	88.953	0.194	0.021	983.466	499.111	0.025	-	-0.162	0.326	-	-	-	-	-	-	-	PAVEMENT_GENERAL	Urban	F	1011101000010101	0000000000000000	-	-	-	-	-	-	-	-	-	-	Terminate	
Unknown	187.98709	10/29/0116 10:23.20	00011279	17.877	-	-	CL	0	-	-	8.8	0.199	0.000	D	F	2050.6	90.088	0.193	-0.080	1001.179	499.351	0.025	-	0.618	0.321	-	-	-	-	-	-	-	PAVEMENT_GENERAL	Urban	F	1111101000010101	0000000000000000	-	-	-	-	-	-	-	-	-	-	Terminate	
Unknown	188.98711	10/29/0116 10:23.21	00011339	18.197	-	-	CL	0	-	-	3.8	0.199	0.000	D	F	2075.1	91.117	0.193	-0.033	1019.215	499.162	0.025	-	0.249	0.320	-	-	-	-	-	-	-	PAVEMENT_GENERAL	Urban	F	1011101000010101	0000000000000000	-	-	-	-	-	-	-	-	-	-	Terminate	
Unknown	189.98714	10/29/0116 10:23.22	00011399	18.508	-	-	CL	0	-	-	-1.4	0.203	0.000	D	F	2097.5	91.391	0.193	0.005	1037.564	498.746	0.025	-	-0.034	0.304	-	-	-	-	-	-	-	PAVEMENT_GENERAL	Urban	F	1011101000010101	0000000000000000	-	-	-	-	-	-	-	-	-	-	Terminate	
Unknown	190.98715	10/29/0116 10:23.23	00011459	18.809	-	-	CL	0	-	-	-3.6	0.203	0.000	D	F	2119.2	90.894	0.192	0.026	1056.220	498.358	0.025	-	-0.206	0.296	-	-	-	-	-	-	-	PAVEMENT_GENERAL	Urban	F	1011101000010101	0000000000000000	-	-	-	-	-	-	-	-	-	-	Terminate	
Unknown	191.98717	10/29/0116 10:23.24	00011519	19.102	Inter684t1-0	-1.783	1	1	90.000	11.111	-1.2	0.203	0.000	D	F	2143.8	90.042	0.191	0.023	1075.175	498.179	0.025	-	-0.195	0.291	-	-	-	44	8.046	153.695	44.470	PAVEMENT_GENERAL	Urban	F	1011101000010101	0000000000000000	-	-	-	-	-	-	-	-	-	-	Terminate	
Unknown	192.98720	10/29/0116 10:23.25	00011579	19.392	-	-	CL	0	-	-	-1.8	0.205	0.000	D	F	2168.4	89.232	0.191	0.031	1094.422	498.256	0.025	-	-0.249	0.292	-	-	-	-	-	-	-	PAVEMENT_GENERAL	Urban	F	1011101000010101	0000000000000000	-	-	-	-	-	-	-	-	-	-	Terminate	
Unknown	193.98721	10/29/0116 10:23.26	00011639	19.690	-	-	CL	0	-	-	4.4	0.217	0.000	D	F	2205.8	89.573	0.192	-0.037	1113.960	498.495	0.025	-	0.270	0.328	-	-	-	-	-	-	-	PAVEMENT_GENERAL	Urban	F	1111101000010101	0000000000000000	-	-	-	-	-	-	-	-	-	-	Terminate	
Unknown	194.98723	10/29/0116 10:23.27	00011699	20.009	-	-	CL	0	-	-	-0.9	0.212	0.000	D	F	2228.5	90.008	0.190	-0.000	1133.811	498.560	0.025	-	0.016	0.315	-	-	-	-	-	-	-	PAVEMENT_GENERAL	Urban	F	1011101000010101	0000000000000000	-	-	-	-	-	-	-	-	-	-	Terminate	
Unknown	195.98726	10/29/0116 10:23.28	00011759	20.322	-	-	CL	0	-	-	4.6	0.215	0.000	D	F	2252.9	90.312	0.190	-0.033	1153.977	498.548	0.025	-	0.270	0.310	-	-	-	-	-	-	-	PAVEMENT_GENERAL	Urban	F	1011101000010101	0000000000000000	-	-	-	-	-	-	-	-	-	-	Terminate	
Unknown	196.98727	10/29/0116 10:23.29	00011819	20.623	-	-	CL	0	-	-	-3.9	0.215	0.000	D	F	2280.4	90.696	0.190	0.030	1174.450	498.314	0.025	-	-0.219	0.296	-	-	-	-	-	-	-	PAVEMENT_GENERAL	Urban	F	1111101000010101	0000000000000000	-	-	-	-	-	-	-	-	-	-	Terminate	
Unknown	197.98729	10/29/0116 10:23.30	00011879	20.910	Inter684t1-0	-1.788	1	1	90.000	11.111	-4.1	0.213	0.000	D	F	2305.1	89.880	0.188	0.038	1195.218	498.184	0.025	-	-0.296	0.280	-	-	-	44	6.098	127.519	24.224	PAVEMENT_GENERAL	Urban	F	1111101000010101	0000000000000000	-	-	-	-	-	-	-	-	-	-	Terminate	
Unknown	198.98732	10/29/0116 10:23.31	00011939	21.184	-	-	CL	0	-	-	-1.0	0.212	0.000	D	F	2329.7	88.716	0.187	0.036	1216.265	498.390	0.026	-	-0.300	0.269	-	-	-	-	-	-	-	PAVEMENT_GENERAL	Urban	F	1011101000010101	0000000000000000	-	-	-	-	-	-	-	-	-	-	Terminate	
Unknown	199.98734	10/29/0116 10:23.32	00011999	21.451	-	-	CL	0	-	-	1.9	0.212	0.000	D	F	2353.4	89.061	0.187	-0.019	1237.579	498.820	0.026	-	0.157	0.260	-	-	-	-	-	-	-	PAVEMENT_GENERAL	Urban	F	1011101000010101	0000000000000000	-	-	-	-	-	-	-	-	-	-	Terminate	
Unknown	200.98735	10/29/0116 10:23.33	00012059	21.702	-	-	CL	0	-	-	6.9	0.212	0.000	D	F	2375.6	89.654	0.186	-0.053	1259.155	499.111	0.026	-	0.404	0.248	-	-	-	-	-	-	-	PAVEMENT_GENERAL	Urban	F	1011101000010101	0000000000000000	-	-	-	-	-	-	-	-	-	-	Terminate	
Unknown	201.98737	10/29/0116 10:23.34	00012119	21.891	-	-	CL	0	-	-	-0.8	0.141	0.000	D	F	1903.0	90.865	0.177	-0.018	1280.972	499.036	0.026	-	0.191	-0.052	-	-	-	-	-	-	-	PAVEMENT_GENERAL	Urban	F	1011101000010101	0000000000000000	-	-	-	-	-	-	-	-	-	-	Terminate	
Unknown	202.98740	10/29/0116 10:23.35	00012179	21.612	-	-	CL	0	-	-	-3.4	0.014	0.000	D	F	1477.7	89.902	0.169	0.055	1302.773	498.839	0.029	-	-0.414	-0.626	-	-	-	-	-	-	-	PAVEMENT_GENERAL	Urban	F	1011101000010101	0000000000000000	-	-	-	-	-	-	-	-	-	-	Terminate	
Unknown	203.98741	10/29/0116 10:23.36	00012239	21.177	-	-	CL	0	-	-	6.7	0.060	0.000	D	F	1559.6	90.082	0.181	-0.065	1324.158	498.910	0.029	-	0.457	-0.394	-	-	-	-	-	-	-	PAVEMENT_GENERAL	Urban	F	1011101000010101	0000000000000000	-	-	-	-	-	-	-	-	-	-	Terminate	
Unknown	204.98743	10/29/0116 10:23.37	00012299	20.730	-	-	CL	0	-	-	-6.8	0.000	0.000	D	F	1413.2	90.411	0.180	0.068	1345.140	498.724	0.030	-	-0.466	-0.615	-	-	-	-	-	-	-	PAVEMENT_GENERAL	Urban	F	1011101000010101	0000000000000000	-	-	-	-	-	-	-	-	-	-	Terminate	
Unknown	205.98746	10/29/0116 10:23.38	00012359	20.118	-	-	CL	0	-	-	6.8	0.000	0.000	D	F	1371.6	89.254	0.180	-0.031	1365.562	498.806	0.029	-	0.149	-0.609	-	-	-	-	-	-	-	PAVEMENT_GENERAL	Urban	F	1011101000010101	0000000000000000	-	-	-	-	-	-	-	-	-	-	Terminate	
Unknown	206.98747	10/29/0116 10:23.39	00012419	19.510	-	-	CL	0	-	-	4.6	0.000	0.006	D	F	1329.9	91.436	0.178	-0.081	1385.376	498.749	0.030	-	0.635	-0.640	-	-	-	-	-	-	-	PAVEMENT_GENERAL	Urban	F	1011101000010101	0000000000000000	-	-	-	-	-	-	-	-	-	-	Terminate	
Unknown	207.98749	10/29/0116 10:23.40	00012479	18.277	-	-	CL	0	-	-	-9.9	0.000	0.084	D	F	1233.6	90.992	0.169	0.083	1404.390	498.257	0.032	-	-0.590	-1.602	-	-	-	-	-	-	-	PAVEMENT_GENERAL	Urban	F	1111101000010101	0000000000000000	-	-	-	-	-	-	-	-	-	-	Terminate	
Unknown	208.98752	10/29/0116 10:23.41	00012539	16.829	Inter625t21-0	-1.570	1	1	86.076	11.111	2.8	0.000	0.063	D	F	1138.1	89.089	0.173	0.007	1421.919	498.250	0.031	-	-0.094	-1.317	-	-	-	44	3.124	52.573	11.383	PAVEMENT_GENERAL	Urban	F	1111101000010101	0000000000000000	-	-	-	-	-	-	-	-	-	-	Terminate	
Unknown	209.98753	10/29/0116 10:23.42	00012599	15.506	Inter625t21-0	-0.604	1	1	84.953	11.111	-5.3	0.000	0.096	D	F	1043.6	90.013	0.168	0.010	1438.139	498.373	0.031	-	-0.042	-1.710	-	-	-	44	3.133	48.576	14.742	PAVEMENT_GENERAL	Urban	F	1011101000010101	0000000000000000	T1	-	-	-	-	-	-	-	-	-	Terminate	
Unknown	210.98755	10/29/0116 10:23.43	00012659	13.595	Inter625t21-0	0.614	1	1	86.896	11.111	-3.3	0.000	0.197	D	F	902.1	88.780	0.144	0.027	1452.738	498.520	0.032	-	-0.215	-2.771	-	-	-	44	3.396	46.170	33.361	PAVEMENT_GENERAL	Urban	F	1011101000010101	0000000000000000	-	-	-	-	-	-	-	-	-	-	Terminate	
