"Name"	"Project"	"Time"	ZoneName	Time	SystemTime	Frame	Velocity	LaneName	LanePos	LaneIndex	LaneCount	LaneHeading	SpeedLimit	Steer	Accel	Brake	Gear	Horn	SubjectEngineRPM	SubjectHeading	SubjectPitch	SubjectRoll	SubjectX	SubjectY	SubjectZ	Signal	LatAccel	LongAccel	Collision	CollisionAngle	CollisionVelocity	VehAhead	HeadwayTime	HeadwayDist	TTC	TerrainType	CultureType	Slip	DigitalInputs	DigitalInputs2	ActiveTrigger	EntityName	DistToEntity	TimeToEntity	EntityVelocity	EntityAccel	EntityHeading	EntityX	EntityY	EntityZ	GrabData	
"Student13Mode3"	"Tanvi_6"	"Dec 01, 2016 06:43:54 AM"	Unknown	0.98335	11/01/0116 06:43.59	00000059	0.003	Inter625t13-0	-0.089	1	2	0.000	11.111	-227.3	0.000	0.000	D	F	0.0	359.940	0.171	0.073	1503.499	523.205	0.020	-	0.005	0.004	-	-	-	-	-	-	-	PAVEMENT_GENERAL	Urban	F	1011101000011101	0000000000010000	-	car	928.855	707959.312	0.000	0.000	180.000	696.000	987.000	-0.000	Terminate	
"Student13Mode3"	"Tanvi_6"	"Dec 01, 2016 06:43:54 AM"	Unknown	1.98337	11/01/0116 06:44.00	00000119	0.001	Inter625t13-0	-0.087	1	2	0.000	11.111	-231.3	0.000	0.000	D	F	0.0	0.000	0.203	0.002	1503.501	523.206	0.026	-	-0.000	-0.001	-	-	-	-	-	-	-	PAVEMENT_GENERAL	Urban	F	1011101000011101	0000000000010000	-	car	928.856	2938901.250	0.000	0.000	180.000	696.000	987.000	-0.000	Terminate	
"Student13Mode3"	"Tanvi_6"	"Dec 01, 2016 06:43:54 AM"	Unknown	2.98339	11/01/0116 06:44.01	00000179	0.000	Inter625t13-0	-0.087	1	2	0.000	11.111	-231.3	0.000	0.000	D	F	77.8	0.000	0.210	0.004	1503.501	523.207	0.028	-	-0.001	0.001	-	-	-	-	-	-	-	PAVEMENT_GENERAL	Urban	F	1011101000011111	0000000000010000	-	car	928.856	6729880.500	0.000	0.000	180.000	696.000	987.000	-0.000	Terminate	
"Student13Mode3"	"Tanvi_6"	"Dec 01, 2016 06:43:54 AM"	Unknown	3.98341	11/01/0116 06:44.02	00000239	0.001	Inter625t13-0	-0.087	1	2	0.000	11.111	-231.3	0.000	0.000	D	F	411.1	0.000	0.210	0.002	1503.501	523.207	0.028	-	-0.001	0.004	-	-	-	-	-	-	-	PAVEMENT_GENERAL	Urban	F	1011101000011101	0000000000010000	-	car	928.856	2080845.750	0.000	0.000	180.000	696.000	987.000	-0.000	Terminate	
"Student13Mode3"	"Tanvi_6"	"Dec 01, 2016 06:43:54 AM"	Unknown	4.98343	11/01/0116 06:44.03	00000299	0.027	Inter625t13-0	-0.089	1	2	0.000	11.111	-231.3	0.000	0.000	D	F	477.5	359.892	0.199	-0.011	1503.499	523.217	0.025	-	-0.009	0.070	-	-	-	-	-	-	-	PAVEMENT_GENERAL	Urban	F	1011101000011101	0000000000010000	-	car	928.849	68144.383	0.000	0.000	180.000	696.000	987.000	-0.000	Terminate	
"Student13Mode3"	"Tanvi_6"	"Dec 01, 2016 06:43:54 AM"	Unknown	5.98345	11/01/0116 06:44.04	00000359	0.197	Inter625t13-0	-0.105	1	2	0.000	11.111	-230.0	0.000	0.000	D	F	477.5	359.359	0.205	0.005	1503.483	523.316	0.025	-	-0.032	0.218	-	-	-	-	-	-	-	PAVEMENT_GENERAL	Urban	F	1011101000011101	0000000000010000	-	car	928.786	9306.405	0.000	0.000	180.000	696.000	987.000	-0.000	Terminate	
"Student13Mode3"	"Tanvi_6"	"Dec 01, 2016 06:43:54 AM"	Unknown	6.98347	11/01/0116 06:44.05	00000419	1.687	Inter625t13-0	-0.196	1	2	0.000	11.111	-196.6	0.198	0.000	D	F	1510.5	356.692	0.128	0.013	1503.392	523.839	0.012	-	-0.513	3.898	-	-	-	-	-	-	-	PAVEMENT_GENERAL	Urban	F	1011101000011101	0000000000010000	-	car	928.447	1006.209	0.000	0.000	180.000	696.000	987.000	-0.000	Terminate	
"Student13Mode3"	"Tanvi_6"	"Dec 01, 2016 06:43:54 AM"	Unknown	7.98349	11/01/0116 06:44.06	00000479	3.719	Inter625t13-0	-0.825	1	2	0.000	11.111	-15.9	0.032	0.000	D	F	1124.6	349.278	0.200	-0.040	1502.763	526.922	0.023	-	0.217	0.191	-	-	-	-	-	-	-	PAVEMENT_GENERAL	Urban	F	1011101000011101	0000000000010000	-	car	926.369	384.164	0.000	0.000	180.000	696.000	987.000	-0.000	Terminate	
"Student13Mode3"	"Tanvi_6"	"Dec 01, 2016 06:43:54 AM"	Unknown	8.98351	11/01/0116 06:44.07	00000539	3.959	Inter625t13-0	-1.419	1	2	0.000	11.111	66.3	0.053	0.000	D	F	1259.5	351.989	0.208	-0.049	1502.169	530.687	0.025	-	0.384	0.420	-	-	-	-	-	-	-	PAVEMENT_GENERAL	Urban	F	1011101000011101	0000000000010000	-	car	923.994	383.210	0.000	0.000	180.000	696.000	987.000	-0.000	Terminate	
"Student13Mode3"	"Tanvi_6"	"Dec 01, 2016 06:43:54 AM"	Unknown	9.98353	11/01/0116 06:44.08	00000599	4.798	Inter625t49-0	-1.671	1	1	0.005	11.111	50.0	0.106	0.000	D	F	1560.9	357.540	0.214	-0.045	1501.918	535.010	0.022	-	0.347	1.004	-	-	-	-	-	-	-	PAVEMENT_GENERAL	Urban	F	1011101000011101	0000000000010000	-	car	921.653	365.128	0.000	0.000	180.000	696.000	987.000	-0.000	Terminate	
"Student13Mode3"	"Tanvi_6"	"Dec 01, 2016 06:43:54 AM"	Unknown	10.98355	11/01/0116 06:44.09	00000659	6.301	Inter625t49-0	-1.632	1	1	0.006	11.111	18.7	0.215	0.000	D	F	2083.2	0.997	0.221	-0.031	1501.957	540.449	0.017	-	0.239	2.046	-	-	-	-	-	-	-	PAVEMENT_GENERAL	Urban	F	1011101000011101	0000000000010000	-	car	919.039	310.770	0.000	0.000	180.000	696.000	987.000	-0.000	Terminate	
"Student13Mode3"	"Tanvi_6"	"Dec 01, 2016 06:43:54 AM"	Unknown	11.98357	11/01/0116 06:44.10	00000719	8.224	Inter625t49-0	-1.378	1	1	0.008	11.111	5.5	0.235	0.000	D	F	1898.6	2.264	0.215	-0.016	1502.211	547.753	0.018	-	0.121	1.610	-	-	-	-	-	-	-	PAVEMENT_GENERAL	Urban	F	1011101000011101	0000000000010000	-	car	915.744	251.163	0.000	0.000	180.000	696.000	987.000	-0.000	Terminate	
"Student13Mode3"	"Tanvi_6"	"Dec 01, 2016 06:43:54 AM"	Unknown	12.98359	11/01/0116 06:44.11	00000779	9.702	Inter625t49-0	-1.012	1	1	0.007	11.111	-1.5	0.259	0.000	D	F	1984.4	2.241	0.213	0.005	1502.579	556.723	0.020	-	-0.046	1.392	-	-	-	-	-	-	-	PAVEMENT_GENERAL	Urban	F	1011101000011101	0000000000010000	-	car	911.811	215.648	0.000	0.000	180.000	696.000	987.000	-0.000	Terminate	
"Student13Mode3"	"Tanvi_6"	"Dec 01, 2016 06:43:54 AM"	Unknown	13.98361	11/01/0116 06:44.12	00000839	11.011	Inter625t49-0	-0.626	1	1	0.005	11.111	-0.0	0.275	0.000	D	F	2095.5	2.115	0.211	0.000	1502.966	567.085	0.021	-	-0.002	1.244	-	-	-	-	-	-	-	PAVEMENT_GENERAL	Urban	F	1011101000011101	0000000000010000	-	car	907.323	192.275	0.000	0.000	180.000	696.000	987.000	-0.000	Terminate	
"Student13Mode3"	"Tanvi_6"	"Dec 01, 2016 06:43:54 AM"	Unknown	14.98363	11/01/0116 06:44.13	00000899	12.400	Inter625t49-0	-0.237	1	1	0.005	11.111	-5.5	0.386	0.000	D	F	2305.7	1.537	0.213	0.029	1503.356	578.771	0.020	-	-0.217	1.438	-	-	-	-	-	-	-	PAVEMENT_GENERAL	Urban	F	1011101000011101	0000000000010000	-	car	902.336	170.365	0.000	0.000	180.000	696.000	987.000	-0.000	Terminate	
"Student13Mode3"	"Tanvi_6"	"Dec 01, 2016 06:43:54 AM"	Unknown	15.98365	11/01/0116 06:44.14	00000959	13.842	Inter625t15-0	0.018	1	2	0.000	11.111	-0.3	0.429	0.000	D	F	2492.9	0.899	0.211	0.005	1503.611	591.891	0.020	-	-0.029	1.435	-	-	-	-	-	-	-	PAVEMENT_GENERAL	Urban	F	1011101000011101	0000000000010000	-	car	896.722	152.318	0.000	0.000	180.000	696.000	987.000	-0.000	Terminate	
"Student13Mode3"	"Tanvi_6"	"Dec 01, 2016 06:43:54 AM"	Unknown	16.98367	11/01/0116 06:44.15	00001019	15.262	Inter614t1-0	0.178	1	2	0.000	11.111	-3.9	0.439	0.000	D	F	2669.5	0.211	0.208	0.027	1503.771	606.445	0.020	-	-0.213	1.411	-	-	-	-	-	-	-	PAVEMENT_GENERAL	Urban	F	1011101000011101	0000000000010000	-	car	890.566	137.992	0.000	0.000	180.000	696.000	987.000	-0.000	Terminate	
"Student13Mode3"	"Tanvi_6"	"Dec 01, 2016 06:43:54 AM"	Unknown	17.98369	11/01/0116 06:44.16	00001079	16.658	Inter614t1-0	0.149	1	2	0.000	11.111	1.3	0.443	0.000	D	F	2875.6	359.707	0.206	-0.006	1503.743	622.407	0.020	-	0.020	1.382	-	-	-	-	-	-	-	PAVEMENT_GENERAL	Urban	F	1011101000011101	0000000000010000	-	car	883.855	127.528	0.000	0.000	180.000	696.000	987.000	-0.000	Terminate	
"Student13Mode3"	"Tanvi_6"	"Dec 01, 2016 06:43:54 AM"	Unknown	18.98371	11/01/0116 06:44.17	00001139	18.022	Inter614t1-0	0.096	1	2	0.000	11.111	-2.6	0.444	0.000	D	F	3073.7	359.879	0.204	0.013	1503.689	639.750	0.020	-	-0.071	1.348	-	-	-	-	-	-	-	PAVEMENT_GENERAL	Urban	F	1011101000011101	0000000000010000	-	car	876.813	122.575	0.000	0.000	180.000	696.000	987.000	-0.000	Terminate	
"Student13Mode3"	"Tanvi_6"	"Dec 01, 2016 06:43:54 AM"	Unknown	19.98373	11/01/0116 06:44.18	00001199	19.352	Inter614t1-0	-0.029	1	2	0.000	11.111	-2.6	0.448	0.000	D	F	3262.8	359.285	0.202	0.024	1503.564	658.439	0.021	-	-0.185	1.315	-	-	-	-	-	-	-	PAVEMENT_GENERAL	Urban	F	1011101000011101	0000000000010000	-	car	869.485	115.680	0.000	0.000	180.000	696.000	987.000	-0.000	Terminate	
"Student13Mode3"	"Tanvi_6"	"Dec 01, 2016 06:43:54 AM"	Unknown	20.98375	11/01/0116 06:44.19	00001259	20.602	Inter614t1-0	-0.285	1	2	0.000	11.111	0.4	0.339	0.000	D	F	3296.3	359.311	0.198	-0.005	1503.308	678.429	0.021	-	0.040	1.217	-	-	-	-	-	-	-	PAVEMENT_GENERAL	Urban	F	1011101000011101	0000000000010000	-	car	861.911	113.613	0.000	0.000	180.000	696.000	987.000	-0.000	Terminate	
"Student13Mode3"	"Tanvi_6"	"Dec 01, 2016 06:43:54 AM"	Unknown	21.98377	11/01/0116 06:44.20	00001319	21.365	Inter614t1-0	-0.493	1	2	0.000	11.111	3.6	0.328	0.000	D	F	2464.0	359.777	0.191	-0.035	1503.100	699.467	0.024	-	0.261	0.617	-	-	-	-	-	-	-	PAVEMENT_GENERAL	Urban	F	1011101000011101	0000000000010000	-	car	854.429	117.881	0.000	0.000	180.000	696.000	987.000	-0.000	Terminate	
"Student13Mode3"	"Tanvi_6"	"Dec 01, 2016 06:43:54 AM"	Unknown	22.98379	11/01/0116 06:44.21	00001379	21.988	Inter614t1-0	-0.516	1	2	0.000	11.111	1.2	0.369	0.000	D	F	2511.2	0.130	0.190	-0.008	1503.077	721.143	0.024	-	0.095	0.628	-	-	-	-	-	-	-	PAVEMENT_GENERAL	Urban	F	1011101000011101	0000000000010000	-	car	847.378	124.034	0.000	0.000	180.000	696.000	987.000	-0.000	Terminate	
"Student13Mode3"	"Tanvi_6"	"Dec 01, 2016 06:43:54 AM"	Unknown	23.98381	11/01/0116 06:44.22	00001439	22.618	Inter614t1-0	-0.469	1	2	0.000	11.111	-1.8	0.379	0.000	D	F	2562.2	0.049	0.189	0.012	1503.124	743.446	0.024	-	-0.093	0.626	-	-	-	-	-	-	-	PAVEMENT_GENERAL	Urban	F	1011101000011101	0000000000010000	-	car	840.711	129.034	0.000	0.000	180.000	696.000	987.000	-0.000	Terminate	
"Student13Mode3"	"Tanvi_6"	"Dec 01, 2016 06:43:54 AM"	Unknown	24.98383	11/01/0116 06:44.23	00001499	23.236	Inter614t1-0	-0.487	1	2	0.000	11.111	2.0	0.381	0.000	D	F	2610.2	0.028	0.188	-0.019	1503.106	766.375	0.024	-	0.154	0.613	-	-	-	-	-	-	-	PAVEMENT_GENERAL	Urban	F	1011101000011101	0000000000010000	-	car	834.358	136.420	0.000	0.000	180.000	696.000	987.000	-0.000	Terminate	
"Student13Mode3"	"Tanvi_6"	"Dec 01, 2016 06:43:54 AM"	Unknown	25.98385	11/01/0116 06:44.24	00001559	23.843	Inter614t1-0	-0.446	1	2	0.000	11.111	0.5	0.379	0.000	D	F	2660.1	0.089	0.186	0.002	1503.148	789.915	0.024	-	-0.019	0.601	-	-	-	-	-	-	-	PAVEMENT_GENERAL	Urban	F	1011101000011101	0000000000010000	-	car	828.501	147.425	0.000	0.000	180.000	696.000	987.000	-0.000	Terminate	
"Student13Mode3"	"Tanvi_6"	"Dec 01, 2016 06:43:54 AM"	Unknown	26.98387	11/01/0116 06:44.25	00001619	24.437	Inter612t1-0	-0.378	1	2	0.000	11.111	0.5	0.377	0.000	D	F	2716.8	0.251	0.185	-0.006	1503.216	814.057	0.024	-	0.050	0.588	-	-	-	-	-	-	-	PAVEMENT_GENERAL	Urban	F	1011101000011101	0000000000010000	-	car	823.175	164.149	0.000	0.000	180.000	696.000	987.000	-0.000	Terminate	
"Student13Mode3"	"Tanvi_6"	"Dec 01, 2016 06:43:54 AM"	Unknown	27.98389	11/01/0116 06:44.26	00001679	24.619	Inter612t1-0	-0.257	1	2	0.000	11.111	0.3	0.065	0.000	D	F	1850.8	0.325	0.166	-0.002	1503.336	838.674	0.028	-	0.016	-0.437	-	-	-	-	-	-	-	PAVEMENT_GENERAL	Urban	F	1011101000011101	0000000000010000	-	car	818.489	189.849	0.000	0.000	180.000	696.000	987.000	-0.000	Terminate	
"Student13Mode3"	"Tanvi_6"	"Dec 01, 2016 06:43:54 AM"	Unknown	28.98391	11/01/0116 06:44.27	00001739	24.518	Inter612t1-0	-0.115	1	2	0.000	11.111	2.9	0.212	0.000	D	F	2009.2	0.347	0.179	-0.013	1503.478	863.196	0.027	-	0.092	0.044	-	-	-	-	-	-	-	PAVEMENT_GENERAL	Urban	F	1011101000011101	0000000000010000	-	car	814.554	228.243	0.000	0.000	180.000	696.000	987.000	-0.000	Terminate	
"Student13Mode3"	"Tanvi_6"	"Dec 01, 2016 06:43:54 AM"	Unknown	29.98393	11/01/0116 06:44.28	00001799	24.549	Inter612t1-0	0.120	1	2	0.000	11.111	-4.4	0.183	0.000	D	F	1956.7	0.601	0.179	0.029	1503.713	887.743	0.027	-	-0.192	-0.060	-	-	-	-	-	-	-	PAVEMENT_GENERAL	Urban	F	1011101000011101	0000000000010000	-	car	811.430	296.320	0.000	0.000	180.000	696.000	987.000	-0.000	Terminate	
"Student13Mode3"	"Tanvi_6"	"Dec 01, 2016 06:43:54 AM"	Unknown	30.98395	11/01/0116 06:44.29	00001859	24.502	Inter612t1-0	0.249	1	2	0.000	11.111	-2.4	0.178	0.000	D	F	1945.1	0.135	0.178	0.012	1503.843	912.269	0.027	-	-0.059	-0.067	-	-	-	-	-	-	-	PAVEMENT_GENERAL	Urban	F	1011101000011101	0000000000010000	-	car	808.932	367.780	0.000	0.000	180.000	696.000	987.000	-0.000	Terminate	
"Student13Mode3"	"Tanvi_6"	"Dec 01, 2016 06:43:54 AM"	Unknown	31.98397	11/01/0116 06:44.30	00001919	24.411	Inter612t1-0	0.245	1	2	0.000	11.111	-0.3	0.171	0.000	D	F	1930.8	359.881	0.178	0.004	1503.838	936.726	0.027	-	-0.027	-0.090	-	-	-	-	-	-	-	PAVEMENT_GENERAL	Urban	F	1011101000011101	0000000000010000	-	car	807.042	515.104	0.000	0.000	180.000	696.000	987.000	-0.000	Terminate	
"Student13Mode3"	"Tanvi_6"	"Dec 01, 2016 06:43:54 AM"	Unknown	32.98399	11/01/0116 06:44.31	00001979	24.356	Inter612t1-0	0.150	1	2	0.000	11.111	-2.6	0.192	0.000	D	F	1964.4	359.383	0.179	0.040	1503.744	961.104	0.027	-	-0.301	-0.022	-	-	-	-	-	-	-	PAVEMENT_GENERAL	Urban	F	1011101000011101	0000000000010000	-	car	805.799	772.798	0.000	0.000	180.000	696.000	987.000	-0.000	Terminate	
"Student13Mode3"	"Tanvi_6"	"Dec 01, 2016 06:43:54 AM"	Unknown	33.98401	11/01/0116 06:44.32	00002039	24.347	Inter612t1-0	-0.101	1	2	0.000	11.111	1.2	0.192	0.000	D	F	1965.0	359.588	0.179	-0.021	1503.492	985.454	0.027	-	0.159	-0.018	-	-	-	-	-	-	-	PAVEMENT_GENERAL	Urban	F	1011101000011101	0000000000010000	-	car	805.134	3633.060	0.000	0.000	180.000	696.000	987.000	-0.000	Terminate	
"Student13Mode3"	"Tanvi_6"	"Dec 01, 2016 06:43:54 AM"	Unknown	34.98403	11/01/0116 06:44.33	00002099	24.329	Inter613t1-0	-0.240	1	2	0.000	11.111	1.4	0.169	0.000	D	F	1921.5	359.854	0.177	-0.015	1503.353	1009.796	0.027	-	0.116	-0.089	-	-	-	-	-	-	-	PAVEMENT_GENERAL	Urban	F	1011101000011101	0000000000010000	-	car	805.316	-1289.362	0.000	0.000	180.000	696.000	987.000	-0.000	Terminate	
"Student13Mode3"	"Tanvi_6"	"Dec 01, 2016 06:43:54 AM"	Unknown	35.98405	11/01/0116 06:44.34	00002159	24.258	Inter613t1-0	-0.266	1	2	0.000	11.111	-0.2	0.187	0.000	D	F	1945.1	0.065	0.179	-0.002	1503.328	1034.085	0.027	-	0.036	-0.052	-	-	-	-	-	-	-	PAVEMENT_GENERAL	Urban	F	1011101000011101	0000000000010000	-	car	806.340	-560.076	0.000	0.000	180.000	696.000	987.000	-0.000	Terminate	
"Student13Mode3"	"Tanvi_6"	"Dec 01, 2016 06:43:54 AM"	Unknown	36.98407	11/01/0116 06:44.35	00002219	24.238	Inter613t1-0	-0.258	1	2	0.000	11.111	0.7	0.201	0.000	D	F	1973.2	0.000	0.180	-0.004	1503.336	1058.328	0.027	-	0.023	0.011	-	-	-	-	-	-	-	PAVEMENT_GENERAL	Urban	F	1011101000011101	0000000000010000	-	car	808.121	-378.877	0.000	0.000	180.000	696.000	987.000	-0.000	Terminate	
"Student13Mode3"	"Tanvi_6"	"Dec 01, 2016 06:43:54 AM"	Unknown	37.98409	11/01/0116 06:44.36	00002279	24.275	Inter613t1-0	-0.233	1	2	0.000	11.111	0.5	0.201	0.000	D	F	1976.3	0.135	0.179	-0.006	1503.360	1082.583	0.027	-	0.044	0.025	-	-	-	-	-	-	-	PAVEMENT_GENERAL	Urban	F	1011101000011101	0000000000010000	-	car	810.639	-278.492	0.000	0.000	180.000	696.000	987.000	-0.000	Terminate	
"Student13Mode3"	"Tanvi_6"	"Dec 01, 2016 06:43:54 AM"	Unknown	38.98411	11/01/0116 06:44.37	00002339	24.275	Inter613t1-0	-0.171	1	2	0.000	11.111	-0.8	0.187	0.000	D	F	1951.0	0.113	0.179	0.009	1503.422	1106.865	0.027	-	-0.055	-0.040	-	-	-	-	-	-	-	PAVEMENT_GENERAL	Urban	F	1011101000011101	0000000000010000	-	car	813.912	-225.329	0.000	0.000	180.000	696.000	987.000	-0.000	Terminate	
"Student13Mode3"	"Tanvi_6"	"Dec 01, 2016 06:43:54 AM"	Unknown	39.98413	11/01/0116 06:44.38	00002399	24.234	Inter613t1-0	-0.149	1	2	0.000	11.111	1.6	0.185	0.000	D	F	1947.3	0.000	0.179	-0.006	1503.444	1131.120	0.027	-	0.028	-0.038	-	-	-	-	-	-	-	PAVEMENT_GENERAL	Urban	F	1011101000011101	0000000000010000	-	car	817.846	-192.419	0.000	0.000	180.000	696.000	987.000	-0.000	Terminate	
"Student13Mode3"	"Tanvi_6"	"Dec 01, 2016 06:43:54 AM"	Unknown	40.98415	11/01/0116 06:44.39	00002459	23.773	Inter613t1-0	-0.111	1	2	0.000	11.111	-0.5	0.000	0.000	D	F	1620.4	0.181	0.173	-0.003	1503.483	1155.192	0.030	-	0.005	-0.667	-	-	-	-	-	-	-	PAVEMENT_GENERAL	Urban	F	1111101000011101	0000000000010000	-	car	822.454	-167.130	0.000	0.000	180.000	696.000	987.000	-0.000	Terminate	
"Student13Mode3"	"Tanvi_6"	"Dec 01, 2016 06:43:54 AM"	Unknown	41.98417	11/01/0116 06:44.40	00002519	22.170	Inter613t1-0	-0.084	1	2	0.000	11.111	-4.0	0.000	0.158	D	F	1478.9	359.720	0.137	0.037	1503.510	1178.407	0.034	-	-0.284	-2.652	-	-	-	-	-	-	-	PAVEMENT_GENERAL	Urban	F	1011101000011101	0000000000010000	-	car	827.525	-165.242	0.000	0.000	180.000	696.000	987.000	-0.000	Terminate	
"Student13Mode3"	"Tanvi_6"	"Dec 01, 2016 06:43:54 AM"	Unknown	42.98419	11/01/0116 06:44.41	00002579	20.068	Inter613t1-0	-0.287	1	2	0.000	11.111	-9.1	0.000	0.087	D	F	1353.8	358.881	0.158	0.059	1503.306	1199.391	0.031	L	-0.468	-1.589	-	-	-	-	-	-	-	PAVEMENT_GENERAL	Urban	F	1011101000111101	0000000000010000	-	car	832.417	-176.137	0.000	0.000	180.000	696.000	987.000	-0.000	Terminate	
"Student13Mode3"	"Tanvi_6"	"Dec 01, 2016 06:43:54 AM"	Unknown	43.98421	11/01/0116 06:44.42	00002639	17.443	Inter615t31-0	-0.939	1	1	356.658	11.111	-14.9	0.000	0.272	D	F	1146.7	355.715	0.107	0.144	1502.571	1218.315	0.036	L	-1.103	-3.839	-	-	-	22	3.224	56.234	3.224	PAVEMENT_GENERAL	Urban	F	1011101000111101	0000000000010000	-	car	836.725	-236.192	0.000	0.000	180.000	696.000	987.000	-0.000	Terminate	
"Student13Mode3"	"Tanvi_6"	"Dec 01, 2016 06:43:54 AM"	Unknown	44.98423	11/01/0116 06:44.43	00002699	12.822	Inter615t31-0	-1.535	1	1	354.277	11.111	7.4	0.000	0.382	D	F	965.6	353.422	0.059	-0.007	1501.154	1233.488	0.039	L	-0.050	-5.002	-	-	-	22	3.198	41.007	3.198	PAVEMENT_GENERAL	Urban	F	1011101000111101	0000000000010000	-	car	839.679	-361.280	0.000	0.000	180.000	696.000	987.000	-0.000	Terminate	
"Student13Mode3"	"Tanvi_6"	"Dec 01, 2016 06:43:54 AM"	Unknown	45.98425	11/01/0116 06:44.44	00002759	10.222	Inter615t31-0	-1.473	1	1	355.985	11.111	20.7	0.000	0.116	D	F	987.3	356.052	0.166	-0.080	1500.101	1244.613	0.031	L	0.632	-1.789	-	-	-	22	2.917	29.820	2.917	PAVEMENT_GENERAL	Urban	F	1011101000111101	0000000000010000	-	car	842.000	-344.932	0.000	0.000	180.000	696.000	987.000	-0.000	Terminate	
"Student13Mode3"	"Tanvi_6"	"Dec 01, 2016 06:43:54 AM"	Unknown	46.98427	11/01/0116 06:44.45	00002819	8.459	Inter615t31-0	-0.998	1	1	356.903	11.111	12.3	0.000	0.107	D	F	820.4	359.625	0.176	-0.028	1499.800	1253.905	0.031	L	0.297	-1.644	-	-	-	22	2.434	20.587	2.434	PAVEMENT_GENERAL	Urban	F	1011101000111101	0000000000010000	-	car	844.596	-323.234	0.000	0.000	180.000	696.000	987.000	-0.000	Terminate	
"Student13Mode3"	"Tanvi_6"	"Dec 01, 2016 06:43:54 AM"	Unknown	47.98429	11/01/0116 06:44.46	00002879	5.582	Inter615t31-0	-0.587	1	1	356.903	11.111	-2.2	0.000	0.161	D	F	537.3	0.395	0.173	0.006	1499.831	1260.950	0.033	L	-0.037	-2.418	-	-	-	22	2.428	13.555	2.428	PAVEMENT_GENERAL	Urban	F	1011101000111101	0000000000010000	-	car	846.871	-460.961	0.000	0.000	180.000	696.000	987.000	-0.000	Terminate	
"Student13Mode3"	"Tanvi_6"	"Dec 01, 2016 06:43:54 AM"	Unknown	48.98431	11/01/0116 06:44.47	00002939	3.007	Inter615t31-0	-0.330	1	1	356.903	11.111	2.0	0.000	0.137	D	F	477.5	0.432	0.174	0.005	1499.859	1265.200	0.033	L	-0.005	-2.208	-	-	-	22	2.314	6.960	2.314	PAVEMENT_GENERAL	Urban	F	1011101000111101	0000000000010000	-	car	848.278	-844.076	0.000	0.000	180.000	696.000	987.000	-0.000	Terminate	
"Student13Mode3"	"Tanvi_6"	"Dec 01, 2016 06:43:54 AM"	Unknown	49.98433	11/01/0116 06:44.48	00002999	2.000	Inter615t11-0	-0.180	LT1	2	0.000	11.111	2.2	0.000	0.018	D	F	503.9	0.542	0.209	0.000	1499.882	1267.652	0.029	L	0.003	-0.613	-	-	-	22	3.436	6.871	3.436	PAVEMENT_GENERAL	Urban	F	1011101000111101	0000000000010000	-	car	849.105	-1254.254	0.000	0.000	180.000	696.000	987.000	-0.000	Terminate	
"Student13Mode3"	"Tanvi_6"	"Dec 01, 2016 06:43:54 AM"	Unknown	50.98435	11/01/0116 06:44.49	00003059	1.541	Inter615t11-0	-0.160	LT1	2	0.000	11.111	1.8	0.000	0.006	D	F	477.5	0.621	0.202	-0.000	1499.902	1269.395	0.028	L	-0.001	-0.329	-	-	-	22	3.331	5.132	3.331	PAVEMENT_GENERAL	Urban	F	1011101000111101	0000000000010000	-	car	849.700	-1614.168	0.000	0.000	180.000	696.000	987.000	-0.000	Terminate	
"Student13Mode3"	"Tanvi_6"	"Dec 01, 2016 06:43:54 AM"	Unknown	51.98437	11/01/0116 06:44.50	00003119	1.103	Inter615t11-0	-0.145	LT1	2	0.000	11.111	-2.4	0.000	0.128	D	F	477.5	0.620	0.156	0.002	1499.917	1270.780	0.028	L	-0.009	-1.523	-	-	-	22	3.397	3.747	3.397	PAVEMENT_GENERAL	Urban	F	1011101000111101	0000000000010000	-	car	850.174	-2246.587	0.000	0.000	180.000	696.000	987.000	-0.000	Terminate	
"Student13Mode3"	"Tanvi_6"	"Dec 01, 2016 06:43:54 AM"	Unknown	52.98439	11/01/0116 06:44.51	00003179	0.025	Inter615t11-0	-0.141	LT1	2	0.000	11.111	-2.3	0.000	0.140	D	F	477.5	0.597	0.221	0.000	1499.921	1271.182	0.029	L	0.000	-0.161	-	-	-	22	132.095	3.345	132.095	PAVEMENT_GENERAL	Urban	F	1011101000111101	0000000000010000	-	car	850.312	-97869.102	0.000	0.000	180.000	696.000	987.000	-0.000	Terminate	
"Student13Mode3"	"Tanvi_6"	"Dec 01, 2016 06:43:54 AM"	Unknown	53.98441	11/01/0116 06:44.52	00003239	-0.000	Inter615t11-0	-0.141	LT1	2	0.000	11.111	-2.2	0.000	0.113	D	F	477.5	0.597	0.213	0.000	1499.921	1271.186	0.028	L	0.000	-0.001	-	-	-	22	-	3.341	-	PAVEMENT_GENERAL	Urban	F	1011101000111101	0000000000010000	-	car	850.313	126184288.000	0.000	0.000	180.000	696.000	987.000	-0.000	Terminate	
"Student13Mode3"	"Tanvi_6"	"Dec 01, 2016 06:43:54 AM"	Unknown	54.98443	11/01/0116 06:44.53	00003299	-0.000	Inter615t11-0	-0.141	LT1	2	0.000	11.111	-2.2	0.000	0.090	D	F	477.5	0.597	0.210	0.000	1499.921	1271.186	0.028	L	0.000	0.000	-	-	-	22	-	3.341	-	PAVEMENT_GENERAL	Urban	F	1011101000111101	0000000000010000	-	car	850.313	53596912.000	0.000	0.000	180.000	696.000	987.000	-0.000	Terminate	
"Student13Mode3"	"Tanvi_6"	"Dec 01, 2016 06:43:54 AM"	Unknown	55.98445	11/01/0116 06:44.54	00003359	0.000	Inter615t11-0	-0.141	LT1	2	0.000	11.111	-2.2	0.000	0.045	D	F	477.5	0.597	0.209	0.000	1499.921	1271.186	0.028	L	-0.000	0.000	-	-	-	22	-	3.341	-	PAVEMENT_GENERAL	Urban	F	1011101000111101	0000000000010000	-	car	850.313	-34517704.000	0.000	0.000	180.000	696.000	987.000	-0.000	Terminate	
"Student13Mode3"	"Tanvi_6"	"Dec 01, 2016 06:43:54 AM"	Unknown	56.98447	11/01/0116 06:44.55	00003419	0.002	Inter615t11-0	-0.141	LT1	2	0.000	11.111	-11.3	0.000	0.042	D	F	477.5	0.597	0.207	0.000	1499.921	1271.186	0.027	L	-0.000	0.004	-	-	-	22	-	3.481	-	PAVEMENT_GENERAL	Urban	F	1011101000111101	0000000000010000	-	car	850.313	-1233554.500	0.000	0.000	180.000	696.000	987.000	-0.000	Terminate	
"Student13Mode3"	"Tanvi_6"	"Dec 01, 2016 06:43:54 AM"	Unknown	57.98449	11/01/0116 06:44.56	00003479	0.011	Inter615t11-0	-0.142	LT1	2	0.000	11.111	-10.6	0.067	0.000	D	F	707.7	0.592	0.197	0.000	1499.921	1271.193	0.024	-	0.000	0.018	-	-	-	22	471.607	5.224	-	PAVEMENT_GENERAL	Urban	F	1011101000011101	0000000000010000	-	car	850.315	-223803.641	0.000	0.000	180.000	696.000	987.000	-0.000	Terminate	
"Student13Mode3"	"Tanvi_6"	"Dec 01, 2016 06:43:54 AM"	Unknown	58.98451	11/01/0116 06:44.57	00003539	2.890	Inter615t11-0	-0.128	LT1	2	0.000	11.111	2.4	0.268	0.000	D	F	1708.3	0.647	0.226	-0.002	1499.934	1272.273	0.008	-	0.011	4.118	-	-	-	22	2.742	7.924	-	PAVEMENT_GENERAL	Urban	F	1011101000011101	0000000000010000	-	car	850.688	-853.266	0.000	0.000	180.000	696.000	987.000	-0.000	Terminate	
"Student13Mode3"	"Tanvi_6"	"Dec 01, 2016 06:43:54 AM"	Unknown	59.98453	11/01/0116 06:44.58	00003599	6.349	Inter615t11-0	-0.082	LT1	2	0.000	11.111	-16.3	0.337	0.000	D	F	2228.2	0.369	0.226	0.037	1499.980	1276.979	0.012	-	-0.266	2.969	-	-	-	22	1.413	8.974	-	PAVEMENT_GENERAL	Urban	F	1011101000011101	0000000000010000	-	car	852.317	-388.752	0.000	0.000	180.000	696.000	987.000	-0.000	Terminate	
"Student13Mode3"	"Tanvi_6"	"Dec 01, 2016 06:43:54 AM"	Unknown	60.98455	11/01/0116 06:44.59	00003659	8.968	Inter615t65-0	-0.115	1	1	349.100	11.111	-59.9	0.319	0.000	D	F	2825.8	355.619	0.227	0.185	1499.682	1284.669	0.015	-	-1.400	2.518	-	-	-	22	1.003	8.999	44.650	PAVEMENT_GENERAL	Urban	F	1011101000011101	0000000000010000	-	car	854.677	-346.955	0.000	0.000	180.000	696.000	987.000	-0.000	Terminate	
"Student13Mode3"	"Tanvi_6"	"Dec 01, 2016 06:43:54 AM"	Unknown	61.98457	11/01/0116 06:45.00	00003719	10.682	Inter615t65-0	1.512	1	1	327.075	11.111	-146.6	0.286	0.000	D	F	2096.2	339.697	0.219	0.598	1497.548	1294.379	0.024	-	-4.443	1.023	-	-	-	22	0.848	9.060	14.728	PAVEMENT_GENERAL	Urban	F	1011101000011101	0000000000010000	-	car	856.105	-6769.608	0.000	0.000	180.000	696.000	987.000	-0.000	Terminate	
"Student13Mode3"	"Tanvi_6"	"Dec 01, 2016 06:43:54 AM"	Unknown	62.98459	11/01/0116 06:45.01	00003779	11.710	Inter615t75-0	-0.111	1	1	269.734	11.111	-175.8	0.302	0.000	D	F	2204.1	311.380	0.246	0.762	1491.157	1303.465	0.032	-	-5.915	0.910	-	-	-	22	0.921	10.781	61.247	PAVEMENT_GENERAL	Urban	F	1011101000011101	0000000000010000	-	car	853.459	161.000	0.000	0.000	180.000	696.000	987.000	-0.000	Terminate	
"Student13Mode3"	"Tanvi_6"	"Dec 01, 2016 06:43:54 AM"	Unknown	63.98461	11/01/0116 06:45.02	00003839	12.124	Inter615t3-4	1.506	2	2	270.000	11.111	-196.1	0.217	0.000	D	F	2163.8	279.794	0.175	0.956	1480.516	1308.636	0.039	-	-6.732	0.381	-	-	-	-	-	-	-	PAVEMENT_GENERAL	Urban	F	1011101000011101	0000000000010000	-	car	845.530	82.312	0.000	0.000	180.000	696.000	987.000	-0.000	Terminate	
"Student13Mode3"	"Tanvi_6"	"Dec 01, 2016 06:43:54 AM"	Unknown	64.98463	11/01/0116 06:45.03	00003899	12.779	Inter615t3-4	0.675	2	2	270.000	11.111	11.9	0.305	0.000	D	F	2313.3	255.815	0.149	0.019	1468.290	1307.805	0.022	-	-1.007	1.169	-	-	-	-	-	-	-	PAVEMENT_GENERAL	Urban	F	1011101000011101	0000000000010000	-	car	833.910	65.958	0.000	0.000	180.000	696.000	987.000	-0.000	Terminate	
"Student13Mode3"	"Tanvi_6"	"Dec 01, 2016 06:43:54 AM"	Unknown	65.98465	11/01/0116 06:45.04	00003959	14.091	Inter615t19-0	1.654	1	1	270.099	11.111	40.7	0.353	0.000	D	F	2500.1	262.662	0.205	-0.268	1455.121	1305.198	0.021	-	2.051	1.320	-	-	-	22	1.339	18.863	-	PAVEMENT_GENERAL	Urban	F	1011101000011101	0000000000010000	-	car	820.753	60.418	0.000	0.000	180.000	696.000	987.000	-0.000	Terminate	
"Student13Mode3"	"Tanvi_6"	"Dec 01, 2016 06:43:54 AM"	Unknown	66.98467	11/01/0116 06:45.05	00004019	15.425	Inter615t19-0	0.607	1	1	270.082	11.111	9.2	0.397	0.000	D	F	2683.9	268.471	0.205	-0.094	1440.409	1304.176	0.020	-	0.688	1.353	-	-	-	22	1.454	22.431	-	PAVEMENT_GENERAL	Urban	F	1011101000011101	0000000000010000	-	car	806.804	56.236	0.000	0.000	180.000	696.000	987.000	-0.000	Terminate	
"Student13Mode3"	"Tanvi_6"	"Dec 01, 2016 06:43:54 AM"	Unknown	67.98470	11/01/0116 06:45.06	00004079	16.788	Inter615t19-0	0.277	1	1	270.061	11.111	7.4	0.471	0.000	D	F	2897.1	269.380	0.207	-0.050	1424.310	1303.870	0.020	-	0.361	1.394	-	-	-	22	1.521	25.533	-	PAVEMENT_GENERAL	Urban	F	1011101000011101	0000000000010000	-	car	791.896	51.203	0.000	0.000	180.000	696.000	987.000	-0.000	Terminate	
"Student13Mode3"	"Tanvi_6"	"Dec 01, 2016 06:43:54 AM"	Unknown	68.98471	11/01/0116 06:45.07	00004139	18.202	Inter615t1-2	0.213	1	2	270.000	11.111	0.2	0.538	0.000	D	F	3110.7	270.029	0.205	-0.006	1406.817	1303.813	0.020	-	0.025	1.408	-	-	-	22	1.526	27.768	-	PAVEMENT_GENERAL	Urban	F	1011101000011101	0000000000010000	-	car	775.863	46.678	0.000	0.000	180.000	696.000	987.000	-0.000	Terminate	
"Student13Mode3"	"Tanvi_6"	"Dec 01, 2016 06:43:54 AM"	Unknown	69.98473	11/01/0116 06:45.08	00004199	19.515	Inter616t1-2	0.236	1	2	270.000	11.111	1.1	0.406	0.000	D	F	3272.8	270.262	0.200	-0.020	1387.943	1303.843	0.021	-	0.113	1.241	-	-	-	22	1.485	28.985	-	PAVEMENT_GENERAL	Urban	F	1011101000011101	0000000000010000	-	car	758.676	42.850	0.000	0.000	180.000	696.000	987.000	-0.000	Terminate	
"Student13Mode3"	"Tanvi_6"	"Dec 01, 2016 06:43:54 AM"	Unknown	70.98476	11/01/0116 06:45.09	00004259	20.575	Inter616t1-2	0.319	1	2	270.000	11.111	-0.9	0.275	0.000	D	F	2456.5	270.169	0.188	0.008	1367.838	1303.926	0.023	-	-0.061	0.596	-	-	-	22	1.409	28.999	63.191	PAVEMENT_GENERAL	Urban	F	1011101000011101	0000000000010000	-	car	740.478	39.848	0.000	0.000	180.000	696.000	987.000	-0.000	Terminate	
"Student13Mode3"	"Tanvi_6"	"Dec 01, 2016 06:43:54 AM"	Unknown	71.98477	11/01/0116 06:45.10	00004319	20.940	Inter616t1-2	0.342	1	2	270.000	11.111	-1.8	0.120	0.000	D	F	2093.9	269.828	0.184	0.021	1347.050	1303.949	0.025	-	-0.154	0.112	-	-	-	22	1.353	28.332	34.382	PAVEMENT_GENERAL	Urban	F	1011101000011101	0000000000010000	-	car	721.742	38.279	0.000	0.000	180.000	696.000	987.000	-0.000	Terminate	
"Student13Mode3"	"Tanvi_6"	"Dec 01, 2016 06:43:54 AM"	Unknown	72.98479	11/01/0116 06:45.11	00004379	20.570	Inter616t1-2	0.237	1	2	270.000	11.111	-0.3	0.141	0.000	D	F	1696.4	269.588	0.189	0.005	1326.281	1303.844	0.028	-	-0.033	-0.147	-	-	-	22	1.346	27.682	60.965	PAVEMENT_GENERAL	Urban	F	1011101000011101	0000000000010000	-	car	703.080	38.119	0.000	0.000	180.000	696.000	987.000	-0.000	Terminate	
"Student13Mode3"	"Tanvi_6"	"Dec 01, 2016 06:43:54 AM"	Unknown	73.98481	11/01/0116 06:45.12	00004439	20.584	Inter616t1-2	0.081	1	2	270.000	11.111	2.1	0.113	0.000	D	F	1633.7	269.528	0.180	-0.005	1305.697	1303.687	0.027	-	0.042	-0.177	-	-	-	22	1.322	27.217	58.164	PAVEMENT_GENERAL	Urban	F	1011101000011101	0000000000010000	-	car	684.678	37.324	0.000	0.000	180.000	696.000	987.000	-0.000	Terminate	
"Student13Mode3"	"Tanvi_6"	"Dec 01, 2016 06:43:54 AM"	Unknown	74.98483	11/01/0116 06:45.13	00004499	20.385	Inter616t1-2	-0.036	1	2	270.000	11.111	1.2	0.111	0.000	D	F	1623.3	269.830	0.185	-0.011	1285.214	1303.571	0.028	-	0.083	-0.177	-	-	-	22	1.317	26.855	99.928	PAVEMENT_GENERAL	Urban	F	1011101000011101	0000000000010000	-	car	666.513	37.058	0.000	0.000	180.000	696.000	987.000	-0.000	Terminate	
"Student13Mode3"	"Tanvi_6"	"Dec 01, 2016 06:43:54 AM"	Unknown	75.98486	11/01/0116 06:45.14	00004559	20.246	Inter616t1-2	-0.064	1	2	270.000	11.111	1.2	0.134	0.000	D	F	1661.1	270.062	0.186	-0.011	1264.906	1303.543	0.027	-	0.082	-0.102	-	-	-	22	1.317	26.665	204.769	PAVEMENT_GENERAL	Urban	F	1011101000011101	0000000000010000	-	car	648.681	36.687	0.000	0.000	180.000	696.000	987.000	-0.000	Terminate	
"Student13Mode3"	"Tanvi_6"	"Dec 01, 2016 06:43:54 AM"	Unknown	76.98487	11/01/0116 06:45.15	00004619	20.155	Inter616t1-2	-0.018	1	2	270.000	11.111	-2.1	0.139	0.000	D	F	1677.6	270.100	0.186	0.015	1244.708	1303.588	0.027	-	-0.109	-0.075	-	-	-	22	1.319	26.587	689.382	PAVEMENT_GENERAL	Urban	F	1011101000011101	0000000000010000	-	car	631.130	36.190	0.000	0.000	180.000	696.000	987.000	-0.000	Terminate	
"Student13Mode3"	"Tanvi_6"	"Dec 01, 2016 06:43:54 AM"	Unknown	77.98489	11/01/0116 06:45.16	00004679	20.085	Inter616t1-2	-0.006	1	2	270.000	11.111	-0.1	0.143	0.000	D	F	1682.7	270.056	0.187	-0.004	1224.589	1303.600	0.027	-	0.025	-0.060	-	-	-	22	1.324	26.588	-	PAVEMENT_GENERAL	Urban	F	1011101000011101	0000000000010000	-	car	613.792	35.642	0.000	0.000	180.000	696.000	987.000	-0.000	Terminate	
"Student13Mode3"	"Tanvi_6"	"Dec 01, 2016 06:43:54 AM"	Unknown	78.98492	11/01/0116 06:45.17	00004739	20.048	Inter616t1-2	0.005	1	2	270.000	11.111	0.1	0.152	0.000	D	F	1710.9	270.007	0.187	0.001	1204.527	1303.612	0.027	-	-0.006	-0.013	-	-	-	22	1.329	26.646	-	PAVEMENT_GENERAL	Urban	F	1011101000011101	0000000000010000	-	car	596.676	35.063	0.000	0.000	180.000	696.000	987.000	-0.000	Terminate	
"Student13Mode3"	"Tanvi_6"	"Dec 01, 2016 06:43:54 AM"	Unknown	79.98493	11/01/0116 06:45.18	00004799	20.032	Inter617t1-2	0.013	1	2	270.000	11.111	0.1	0.155	0.000	D	F	1711.6	270.053	0.187	-0.003	1184.487	1303.620	0.027	-	0.016	-0.013	-	-	-	22	1.334	26.725	-	PAVEMENT_GENERAL	Urban	F	1011101000011101	0000000000010000	-	car	579.764	34.510	0.000	0.000	180.000	696.000	987.000	-0.000	Terminate	
"Student13Mode3"	"Tanvi_6"	"Dec 01, 2016 06:43:54 AM"	Unknown	80.98495	11/01/0116 06:45.19	00004859	20.032	Inter617t1-2	0.034	1	2	270.000	11.111	-0.4	0.169	0.000	D	F	1746.8	270.049	0.188	0.003	1164.458	1303.640	0.027	-	-0.018	0.026	-	-	-	22	1.339	26.816	-	PAVEMENT_GENERAL	Urban	F	1011101000011101	0000000000010000	-	car	563.073	33.946	0.000	0.000	180.000	696.000	987.000	-0.000	Terminate	
"Student13Mode3"	"Tanvi_6"	"Dec 01, 2016 06:43:54 AM"	Unknown	81.98497	11/01/0116 06:45.20	00004919	20.109	Inter617t1-2	0.040	1	2	270.000	11.111	-0.3	0.175	0.000	D	F	1774.9	269.977	0.188	0.003	1144.390	1303.646	0.026	-	-0.021	0.080	-	-	-	22	1.336	26.867	-	PAVEMENT_GENERAL	Urban	F	1011101000011101	0000000000010000	-	car	546.565	33.265	0.000	0.000	180.000	696.000	987.000	-0.000	Terminate	
"Student13Mode3"	"Tanvi_6"	"Dec 01, 2016 06:43:54 AM"	Unknown	82.98499	11/01/0116 06:45.21	00004979	20.183	Inter617t1-2	0.028	1	2	270.000	11.111	0.2	0.176	0.000	D	F	1773.6	269.961	0.188	-0.001	1124.243	1303.634	0.026	-	0.005	0.067	-	-	-	22	1.327	26.782	86.861	PAVEMENT_GENERAL	Urban	F	1011101000011101	0000000000010000	-	car	530.228	32.656	0.000	0.000	180.000	696.000	987.000	-0.000	Terminate	
"Student13Mode3"	"Tanvi_6"	"Dec 01, 2016 06:43:54 AM"	Unknown	83.98502	11/01/0116 06:45.22	00005039	20.239	Inter617t1-2	0.034	1	2	270.000	11.111	-0.6	0.000	0.000	D	F	1354.0	270.080	0.185	0.002	1104.027	1303.641	0.026	-	-0.002	-0.094	-	-	-	22	1.288	26.075	22.548	PAVEMENT_GENERAL	Urban	F	1011101000011101	0000000000010000	-	car	514.117	32.189	0.000	0.000	180.000	696.000	987.000	-0.000	Terminate	
"Student13Mode3"	"Tanvi_6"	"Dec 01, 2016 06:43:54 AM"	Unknown	84.98503	11/01/0116 06:45.23	00005099	19.413	Inter617t1-2	0.044	1	2	270.000	11.111	0.1	0.000	0.119	D	F	1302.3	269.980	0.134	0.001	1084.107	1303.651	0.031	-	-0.008	-1.960	-	-	-	22	1.280	24.850	33.258	PAVEMENT_GENERAL	Urban	F	1011101000011101	0000000000010000	-	car	498.534	33.135	0.000	0.000	180.000	696.000	987.000	-0.000	Terminate	
"Student13Mode3"	"Tanvi_6"	"Dec 01, 2016 06:43:54 AM"	Unknown	85.98505	11/01/0116 06:45.24	00005159	17.411	Inter617t1-2	0.044	1	2	270.000	11.111	0.3	0.000	0.107	D	F	1169.6	270.037	0.163	-0.003	1065.741	1303.651	0.032	-	0.021	-1.930	-	-	-	22	1.469	25.572	-	PAVEMENT_GENERAL	Urban	F	1011101000011101	0000000000010000	-	car	484.442	36.653	0.000	0.000	180.000	696.000	987.000	-0.000	Terminate	
"Student13Mode3"	"Tanvi_6"	"Dec 01, 2016 06:43:54 AM"	Unknown	86.98507	11/01/0116 06:45.25	00005219	16.755	Inter617t1-2	0.063	1	2	270.000	11.111	0.2	0.000	0.000	D	F	1142.5	270.098	0.187	-0.002	1048.703	1303.670	0.029	-	0.015	-0.555	-	-	-	22	1.682	28.179	-	PAVEMENT_GENERAL	Urban	F	1011101000011101	0000000000010000	-	car	471.644	37.890	0.000	0.000	180.000	696.000	987.000	-0.000	Terminate	
"Student13Mode3"	"Tanvi_6"	"Dec 01, 2016 06:43:54 AM"	Unknown	87.98509	11/01/0116 06:45.26	00005279	16.918	Inter617t1-2	0.098	1	2	270.000	11.111	0.1	0.205	0.000	D	F	2010.4	270.141	0.199	-0.001	1031.973	1303.704	0.024	-	0.010	0.534	-	-	-	-	-	-	-	PAVEMENT_GENERAL	Urban	F	1011101000011101	0000000000010000	-	car	459.354	37.401	0.000	0.000	180.000	696.000	987.000	-0.000	Terminate	
"Student13Mode3"	"Tanvi_6"	"Dec 01, 2016 06:43:54 AM"	Unknown	88.98512	11/01/0116 06:45.27	00005339	15.153	Inter617t1-2	0.141	1	2	270.000	11.111	0.2	0.000	0.382	D	F	1409.7	270.164	0.079	-0.001	1015.511	1303.748	0.037	-	0.007	-4.830	-	-	-	-	-	-	-	PAVEMENT_GENERAL	Urban	F	1011101000011101	0000000000010000	-	car	447.548	41.706	0.000	0.000	180.000	696.000	987.000	-0.000	Terminate	
"Student13Mode3"	"Tanvi_6"	"Dec 01, 2016 06:43:54 AM"	Unknown	89.98513	11/01/0116 06:45.28	00005399	7.906	Inter617t1-2	0.179	1	2	270.000	11.111	2.4	0.000	0.669	D	F	705.1	270.218	-0.253	-0.007	1003.694	1303.785	0.043	-	0.040	-7.870	-	-	-	-	-	-	-	PAVEMENT_GENERAL	Urban	F	1011101000011101	0000000000010000	-	car	439.261	80.058	0.000	0.000	180.000	696.000	987.000	-0.000	Terminate	
"Student13Mode3"	"Tanvi_6"	"Dec 01, 2016 06:43:54 AM"	Unknown	90.98515	11/01/0116 06:45.29	00005459	4.202	Inter618t1-0	-0.478	1	2	270.000	24.444	1.1	0.000	0.000	D	F	529.7	270.467	0.194	-0.002	998.417	1303.822	0.029	-	0.004	-0.479	-	-	-	-	-	-	-	FREEWAY_SMOOTH	Urban	F	1011101000011101	0000000000010000	-	car	435.627	151.457	0.000	0.000	180.000	696.000	987.000	-0.000	Terminate	
"Student13Mode3"	"Tanvi_6"	"Dec 01, 2016 06:43:54 AM"	Unknown	91.98518	11/01/0116 06:45.30	00005519	5.993	Inter618t1-0	-0.437	1	2	269.999	24.444	0.1	0.305	0.000	D	F	2096.8	270.485	0.277	-0.025	993.645	1303.863	0.015	-	0.001	2.706	-	-	-	32	2.126	12.741	-	FREEWAY_SMOOTH	Urban	F	1011101000011101	0000000000010000	-	car	432.376	106.338	0.000	0.000	180.000	696.000	987.000	-0.000	Terminate	
"Student13Mode3"	"Tanvi_6"	"Dec 01, 2016 06:43:54 AM"	Unknown	92.98519	11/01/0116 06:45.31	00005579	8.727	Inter618t1-0	-0.379	1	2	269.920	24.444	-1.7	0.354	0.000	D	F	2778.2	270.343	0.280	-0.119	986.279	1303.917	0.022	-	-0.047	2.690	-	-	-	32	1.774	15.479	-	FREEWAY_SMOOTH	Urban	F	1011101000011101	0000000000010000	-	car	427.406	72.991	0.000	0.000	180.000	696.000	987.000	-0.000	Terminate	
"Student13Mode3"	"Tanvi_6"	"Dec 01, 2016 06:43:54 AM"	Unknown	93.98521	11/01/0116 06:45.32	00005639	11.302	Inter618t1-0	-0.325	1	2	269.638	24.444	-5.4	0.400	0.000	D	F	2377.9	269.852	0.259	-0.243	976.206	1303.935	0.034	-	-0.188	1.862	-	-	-	32	1.549	17.508	-	FREEWAY_SMOOTH	Urban	F	1011101000011101	0000000000010000	-	car	420.681	56.031	0.000	0.000	180.000	696.000	987.000	-0.000	Terminate	
"Student13Mode3"	"Tanvi_6"	"Dec 01, 2016 06:43:54 AM"	Unknown	94.98523	11/01/0116 06:45.33	00005699	12.875	Inter618t1-0	-0.389	1	2	269.024	24.444	-3.4	0.443	0.000	D	F	2377.0	268.394	0.260	-0.418	964.094	1303.737	0.048	-	-0.211	1.481	-	-	-	32	1.508	19.411	-	FREEWAY_SMOOTH	Urban	F	1011101000011101	0000000000010000	-	car	412.606	48.031	0.000	0.000	180.000	696.000	987.000	-0.000	Terminate	
"Student13Mode3"	"Tanvi_6"	"Dec 01, 2016 06:43:54 AM"	Unknown	95.98525	11/01/0116 06:45.34	00005759	14.380	Inter618t1-0	-0.536	1	2	267.998	24.444	-4.1	0.545	0.000	D	F	2577.0	267.504	0.257	-0.593	950.476	1303.248	0.059	-	-0.253	1.509	-	-	-	32	1.520	21.854	-	FREEWAY_SMOOTH	Urban	F	1011101000011101	0000000000010000	-	car	403.561	42.505	0.000	0.000	180.000	696.000	987.000	-0.000	Terminate	
"Student13Mode3"	"Tanvi_6"	"Dec 01, 2016 06:43:54 AM"	Unknown	96.98528	11/01/0116 06:45.35	00005819	15.903	Inter618t1-0	-0.633	1	2	266.426	24.444	-9.4	0.638	0.000	D	F	2782.1	266.222	0.258	-0.764	935.360	1302.433	0.071	-	-0.522	1.536	-	-	-	32	1.550	24.656	-	FREEWAY_SMOOTH	Urban	F	1011101000011101	0000000000010000	-	car	393.609	37.748	0.000	0.000	180.000	696.000	987.000	-0.000	Terminate	
"Student13Mode3"	"Tanvi_6"	"Dec 01, 2016 06:43:54 AM"	Unknown	97.98529	11/01/0116 06:45.36	00005879	17.444	Inter618t1-0	-0.711	1	2	264.186	24.444	-9.8	0.670	0.000	D	F	3015.6	263.985	0.250	-0.983	918.747	1301.014	0.085	-	-0.665	1.537	-	-	-	32	1.547	26.982	-	FREEWAY_SMOOTH	Urban	F	1011101000011101	0000000000010000	-	car	382.635	33.191	0.000	0.000	180.000	696.000	987.000	-0.000	Terminate	
"Student13Mode3"	"Tanvi_6"	"Dec 01, 2016 06:43:54 AM"	Unknown	98.98531	11/01/0116 06:45.37	00005939	18.966	Inter618t1-0	-0.729	1	2	261.114	24.444	-14.4	0.688	0.000	D	F	3237.6	261.083	0.247	-1.186	900.689	1298.698	0.100	-	-1.051	1.513	-	-	-	32	1.495	28.352	-	FREEWAY_SMOOTH	Urban	F	1011101000011101	0000000000010000	-	car	370.539	29.079	0.000	0.000	180.000	696.000	987.000	-0.000	Terminate	
"Student13Mode3"	"Tanvi_6"	"Dec 01, 2016 06:43:54 AM"	Unknown	99.98534	11/01/0116 06:45.38	00005999	20.460	Inter618t1-0	-0.671	1	2	257.068	24.444	-20.7	0.695	0.000	D	F	3449.1	257.053	0.248	-1.387	881.313	1295.066	0.119	-	-1.591	1.483	-	-	-	32	1.387	28.376	82.558	FREEWAY_SMOOTH	Urban	F	1011101000011101	0000000000010000	-	car	357.147	25.140	0.000	0.000	180.000	696.000	987.000	-0.000	Terminate	
"Student13Mode3"	"Tanvi_6"	"Dec 01, 2016 06:43:54 AM"	Unknown	100.98535	11/01/0116 06:45.39	00006059	21.875	Inter618t1-0	-0.573	1	2	252.006	24.444	-25.2	0.552	0.000	D	F	3617.7	251.871	0.187	-1.481	860.866	1289.551	0.133	-	-2.087	1.321	-	-	-	32	1.251	27.356	15.551	FREEWAY_SMOOTH	Urban	F	1011101000011101	0000000000010000	-	car	342.195	21.489	0.000	0.000	180.000	696.000	987.000	-0.000	Terminate	
"Student13Mode3"	"Tanvi_6"	"Dec 01, 2016 06:43:54 AM"	Unknown	101.98537	11/01/0116 06:45.40	00006119	22.816	Inter618t1-0	-0.529	1	2	246.492	24.444	-25.6	0.220	0.000	D	F	2564.2	245.721	0.142	-1.424	839.859	1281.668	0.138	-	-2.552	0.329	-	-	-	32	1.100	25.102	9.298	FREEWAY_SMOOTH	Urban	F	1011101000011101	0000000000010000	-	car	325.550	18.545	0.000	0.000	180.000	696.000	987.000	-0.000	Terminate	
"Student13Mode3"	"Tanvi_6"	"Dec 01, 2016 06:43:54 AM"	Unknown	102.98539	11/01/0116 06:45.41	00006179	23.107	Inter618t1-0	-0.762	1	2	240.878	24.444	-20.0	0.233	0.000	D	F	2517.1	239.445	0.127	-1.468	819.382	1271.312	0.132	-	-2.270	0.297	-	-	-	32	0.967	22.341	7.469	FREEWAY_SMOOTH	Urban	F	1011101000011101	0000000000010000	-	car	307.570	16.450	0.000	0.000	180.000	696.000	987.000	-0.000	Terminate	
"Student13Mode3"	"Tanvi_6"	"Dec 01, 2016 06:43:54 AM"	Unknown	103.98541	11/01/0116 06:45.42	00006239	23.222	Inter618t1-0	-0.957	1	2	235.176	24.444	-15.1	0.153	0.000	D	F	1859.5	235.000	0.160	-1.544	799.799	1258.889	0.127	-	-1.640	-0.077	-	-	-	32	0.831	19.307	6.216	FREEWAY_SMOOTH	Urban	F	1011101000011101	0000000000010000	-	car	288.670	15.013	0.000	0.000	180.000	696.000	987.000	-0.000	Terminate	
"Student13Mode3"	"Tanvi_6"	"Dec 01, 2016 06:43:54 AM"	Unknown	104.98544	11/01/0116 06:45.43	00006299	22.688	Inter618t1-0	-0.801	1	2	229.536	24.444	-24.0	0.148	0.000	D	F	1801.4	228.789	0.145	-1.391	781.505	1245.009	0.135	-	-2.778	-0.187	-	-	-	32	0.715	16.230	6.309	FREEWAY_SMOOTH	Urban	F	1011101000011101	0000000000010000	-	car	269.449	13.777	0.000	0.000	180.000	696.000	987.000	-0.000	Terminate	
"Student13Mode3"	"Tanvi_6"	"Dec 01, 2016 06:43:54 AM"	Unknown	105.98545	11/01/0116 06:45.44	00006359	22.411	Inter618t1-0	-0.901	1	2	223.959	24.444	-19.3	0.000	0.000	D	F	1527.4	223.360	0.144	-1.486	765.084	1229.469	0.132	-	-2.055	-0.650	-	-	-	32	0.610	13.680	5.960	FREEWAY_SMOOTH	Urban	F	1011101000011101	0000000000010000	-	car	249.759	12.559	0.000	0.000	180.000	696.000	987.000	-0.000	Terminate	
"Student13Mode3"	"Tanvi_6"	"Dec 01, 2016 06:43:54 AM"	Unknown	106.98547	11/01/0116 06:45.45	00006419	21.743	Inter618t1-0	-0.981	1	2	218.562	24.444	-12.7	0.000	0.000	D	F	1482.3	217.978	0.144	-1.536	750.566	1212.847	0.130	-	-1.762	-0.634	-	-	-	32	0.545	11.842	7.281	FREEWAY_SMOOTH	Urban	F	1011101000011101	0000000000010000	-	car	229.986	11.615	0.000	0.000	180.000	696.000	987.000	-0.000	Terminate	
"Student13Mode3"	"Tanvi_6"	"Dec 01, 2016 06:43:54 AM"	Unknown	107.98550	11/01/0116 06:45.46	00006479	21.095	Inter618t1-0	-0.862	1	2	213.303	24.444	-17.2	0.000	0.000	D	F	1438.0	213.617	0.174	-1.517	737.881	1195.593	0.133	-	-1.816	-0.634	-	-	-	32	0.501	10.566	10.792	FREEWAY_SMOOTH	Urban	F	1011101000011101	0000000000010000	-	car	210.396	10.777	0.000	0.000	180.000	696.000	987.000	-0.000	Terminate	
"Student13Mode3"	"Tanvi_6"	"Dec 01, 2016 06:43:54 AM"	Unknown	108.98551	11/01/0116 06:45.47	00006539	20.451	Inter618t1-0	-0.609	1	2	208.197	24.444	-21.0	0.000	0.000	D	F	1394.0	208.533	0.176	-1.501	727.023	1177.890	0.141	-	-1.950	-0.628	-	-	-	32	0.485	9.911	29.546	FREEWAY_SMOOTH	Urban	F	1011101000011101	0000000000010000	-	car	191.035	9.897	0.000	0.000	180.000	696.000	987.000	-0.000	Terminate	
"Student13Mode3"	"Tanvi_6"	"Dec 01, 2016 06:43:54 AM"	Unknown	109.98553	11/01/0116 06:45.48	00006599	19.807	Inter618t1-0	-0.612	1	2	203.271	24.444	-19.1	0.000	0.000	D	F	1350.3	201.925	0.123	-1.472	718.265	1159.777	0.141	-	-2.178	-0.605	-	-	-	32	0.490	9.699	-	FREEWAY_SMOOTH	Urban	F	1011101000011101	0000000000010000	-	car	171.846	8.965	0.000	0.000	180.000	696.000	987.000	-0.000	Terminate	
"Student13Mode3"	"Tanvi_6"	"Dec 01, 2016 06:43:54 AM"	Unknown	110.98555	11/01/0116 06:45.49	00006659	19.211	Inter618t1-0	-0.859	1	2	198.500	24.444	-17.3	0.072	0.000	D	F	1451.7	198.194	0.170	-1.571	711.523	1141.479	0.133	-	-1.385	-0.475	-	-	-	32	0.538	10.337	-	FREEWAY_SMOOTH	Urban	F	1011101000011101	0000000000010000	-	car	152.898	8.151	0.000	0.000	180.000	696.000	987.000	-0.000	Terminate	
"Student13Mode3"	"Tanvi_6"	"Dec 01, 2016 06:43:54 AM"	Unknown	111.98557	11/01/0116 06:45.50	00006719	19.449	Inter618t1-0	-0.894	1	2	193.815	24.444	-16.8	0.323	0.000	D	F	2115.0	193.733	0.135	-1.478	706.180	1122.963	0.122	-	-1.368	0.449	-	-	-	32	0.575	11.184	-	FREEWAY_SMOOTH	Urban	F	1011101000011101	0000000000010000	-	car	133.984	6.984	0.000	0.000	180.000	696.000	987.000	-0.000	Terminate	
"Student13Mode3"	"Tanvi_6"	"Dec 01, 2016 06:43:54 AM"	Unknown	112.98560	11/01/0116 06:45.51	00006779	20.087	Inter618t1-0	-0.882	1	2	189.618	24.444	-15.7	0.427	0.000	D	F	2359.0	189.157	0.128	-1.199	702.160	1103.624	0.105	-	-1.472	0.685	-	-	-	32	0.575	11.544	-	FREEWAY_SMOOTH	Urban	F	1011101000011101	0000000000010000	-	car	114.427	5.729	0.000	0.000	180.000	696.000	987.000	-0.000	Terminate	
"Student13Mode3"	"Tanvi_6"	"Dec 01, 2016 06:43:54 AM"	Unknown	113.98561	11/01/0116 06:45.52	00006839	20.446	Inter618t1-0	-0.976	1	2	186.061	24.444	-12.5	0.000	0.000	D	F	1574.4	185.286	0.102	-0.920	699.477	1083.410	0.092	-	-1.387	-0.588	-	-	-	-	-	-	-	FREEWAY_SMOOTH	Urban	F	1011101000011101	0000000000010000	-	car	94.113	4.610	0.000	0.000	180.000	696.000	987.000	-0.000	Terminate	
"Student13Mode3"	"Tanvi_6"	"Dec 01, 2016 06:43:54 AM"	Unknown	114.98563	11/01/0116 06:45.53	00006899	19.830	Inter618t1-0	-1.142	1	2	183.365	24.444	-2.7	0.000	0.015	D	F	1354.9	183.271	0.136	-0.775	697.998	1063.327	0.074	-	-0.344	-0.633	-	-	-	-	-	-	-	FREEWAY_SMOOTH	Urban	F	1011101000011101	0000000000010000	-	car	73.993	3.733	0.000	0.000	180.000	696.000	987.000	-0.000	Terminate	
"Student13Mode3"	"Tanvi_6"	"Dec 01, 2016 06:43:54 AM"	Unknown	115.98566	11/01/0116 06:45.54	00006959	19.028	Inter618t1-0	-1.068	1	2	181.501	24.444	-3.4	0.000	0.015	D	F	1296.4	181.552	0.136	-0.483	697.114	1043.921	0.061	-	-0.544	-0.713	-	-	-	-	-	-	-	FREEWAY_SMOOTH	Urban	F	1011101000011101	0000000000010000	-	car	54.573	2.868	0.000	0.000	180.000	696.000	987.000	-0.000	Terminate	
"Student13Mode3"	"Tanvi_6"	"Dec 01, 2016 06:43:54 AM"	Unknown	116.98567	11/01/0116 06:45.55	00007019	16.491	Inter618t1-0	-0.984	1	2	180.431	24.444	-2.5	0.000	0.209	D	F	1092.7	180.710	0.100	-0.269	696.739	1025.969	0.052	-	-0.215	-3.140	-	-	-	-	-	-	-	FREEWAY_SMOOTH	Urban	F	1011101000011101	0000000000010000	-	car	36.618	2.234	0.100	2.000	180.000	696.000	986.998	-0.000	Terminate	
"Student13Mode3"	"Tanvi_6"	"Dec 01, 2016 06:43:54 AM"	Unknown	117.98569	11/01/0116 06:45.56	00007079	12.412	Inter618t1-0	-0.869	1	2	180.018	24.444	-1.0	0.000	0.299	D	F	1043.9	180.771	0.089	-0.094	696.571	1011.446	0.043	-	0.027	-4.099	-	-	-	-	-	-	-	FREEWAY_SMOOTH	Urban	F	1011101000011101	0000000000010000	-	car	23.175	2.246	2.100	2.000	176.998	696.054	985.916	-0.000	Terminate	
"Student13Mode3"	"Tanvi_6"	"Dec 01, 2016 06:43:54 AM"	Unknown	118.98571	11/01/0116 06:45.57	00007139	10.108	Inter618t1-0	-0.758	1	2	180.000	24.444	-2.6	0.000	0.152	D	F	970.6	180.380	0.141	0.010	696.458	1000.486	0.030	-	-0.083	-2.199	-	-	-	car	1.046	10.574	1.760	PAVEMENT_GENERAL	Urban	F	1011101000011101	0000000000010000	-	car	15.290	2.541	4.100	2.000	176.941	696.230	982.838	-0.000	Terminate	
"Student13Mode3"	"Tanvi_6"	"Dec 01, 2016 06:43:54 AM"	Unknown	119.98573	11/01/0116 06:45.58	00007199	7.031	Inter686t1-0	-0.036	1	1	180.000	11.111	1.8	0.000	0.000	D	F	692.5	180.096	0.253	-0.014	696.432	992.093	0.031	-	0.034	-0.456	-	-	-	car	1.368	9.618	10.332	PAVEMENT_GENERAL	Urban	F	1111101000011101	0000000000010000	-	car	11.978	12.845	6.100	2.000	178.936	696.372	977.756	-0.000	Terminate	
"Student13Mode3"	"Tanvi_6"	"Dec 01, 2016 06:43:54 AM"	Unknown	120.98576	11/01/0116 06:45.59	00007259	7.067	Inter686t1-0	-0.029	1	1	180.000	11.111	-2.6	0.300	0.000	D	F	1772.0	179.917	0.227	0.005	696.425	985.227	0.021	-	-0.038	1.663	-	-	-	car	1.392	9.835	-	PAVEMENT_GENERAL	Urban	F	1011101000011101	0000000000010000	-	car	12.195	-11.806	8.100	2.000	179.986	696.400	970.673	-0.000	Terminate	
"Student13Mode3"	"Tanvi_6"	"Dec 01, 2016 06:43:54 AM"	Unknown	121.98577	11/01/0116 06:46.00	00007319	8.649	Inter686t1-0	-0.076	1	1	180.000	11.111	-1.4	0.005	0.000	D	F	1199.1	179.516	0.176	0.005	696.472	977.297	0.020	-	-0.037	0.189	-	-	-	car	1.270	10.989	-	PAVEMENT_GENERAL	Urban	F	1011101000011101	0000000000010000	-	car	13.349	-9.197	10.100	2.000	180.009	696.397	961.589	-0.000	Terminate	
"Student13Mode3"	"Tanvi_6"	"Dec 01, 2016 06:43:54 AM"	Unknown	122.98579	11/01/0116 06:46.01	00007379	9.643	Inter686t1-0	-0.159	1	1	180.000	11.111	-0.3	0.393	0.000	D	F	2054.5	179.456	0.218	0.001	696.555	968.377	0.018	-	-0.008	1.732	-	-	-	car	1.364	13.153	-	PAVEMENT_GENERAL	Urban	F	1011101000011101	0000000000010000	-	car	15.513	-6.311	12.100	2.000	180.003	696.397	950.505	-0.000	Terminate	
"Student13Mode3"	"Tanvi_6"	"Dec 01, 2016 06:43:54 AM"	Unknown	123.98581	11/01/0116 06:46.02	00007439	11.291	Inter686t1-0	-0.245	1	1	180.000	11.111	1.8	0.422	0.000	D	F	2218.8	179.682	0.214	-0.010	696.641	957.895	0.019	-	0.071	1.583	-	-	-	car	1.395	15.754	-	PAVEMENT_GENERAL	Urban	F	1011101000011101	0000000000010000	-	car	18.115	-6.447	14.100	2.000	180.003	696.397	937.422	-0.000	Terminate	
"Student13Mode3"	"Tanvi_6"	"Dec 01, 2016 06:43:54 AM"	Unknown	124.98583	11/01/0116 06:46.03	00007499	12.908	Inter686t1-0	-0.320	1	1	180.000	11.111	-0.5	0.513	0.000	D	F	2386.0	179.567	0.212	0.002	696.716	945.786	0.019	-	-0.028	1.536	-	-	-	car	1.451	18.730	-	PAVEMENT_GENERAL	Urban	F	1011101000011101	0000000000010000	-	car	21.091	-6.605	16.100	2.000	180.002	696.397	922.338	-0.000	Terminate	
"Student13Mode3"	"Tanvi_6"	"Dec 01, 2016 06:43:54 AM"	Unknown	125.98586	11/01/0116 06:46.04	00007559	14.397	Inter686t1-0	-0.419	1	1	180.000	11.111	2.4	0.577	0.000	D	F	2584.7	179.721	0.211	-0.014	696.815	932.131	0.020	-	0.114	1.506	-	-	-	car	1.539	22.159	-	PAVEMENT_GENERAL	Urban	F	1011101000011101	0000000000010000	-	car	24.521	-6.621	18.100	2.000	180.002	696.397	905.254	-0.000	Terminate	
"Student13Mode3"	"Tanvi_6"	"Dec 01, 2016 06:43:54 AM"	Unknown	126.98587	11/01/0116 06:46.05	00007619	15.923	Inter686t1-0	-0.461	1	1	180.000	11.111	-2.3	0.600	0.000	D	F	2781.5	179.766	0.208	0.020	696.858	916.968	0.020	-	-0.122	1.500	-	-	-	car	1.608	25.604	-	PAVEMENT_GENERAL	Urban	F	1011101000011101	0000000000010000	-	car	27.967	-8.753	19.117	1.000	180.002	696.397	886.645	-0.000	Terminate	
"Student13Mode3"	"Tanvi_6"	"Dec 01, 2016 06:43:54 AM"	Unknown	127.98589	11/01/0116 06:46.06	00007679	17.443	Inter686t1-0	-0.511	1	1	180.000	11.111	-0.8	0.665	0.000	D	F	3016.0	180.048	0.206	-0.006	696.907	900.289	0.019	-	0.054	1.526	-	-	-	car	1.622	28.289	-	PAVEMENT_GENERAL	Urban	F	1011101000011101	0000000000010000	-	car	30.652	-14.100	19.617	0.500	180.002	696.397	867.282	-0.000	Terminate	
"Student13Mode3"	"Tanvi_6"	"Dec 01, 2016 06:43:54 AM"	Unknown	128.98592	11/01/0116 06:46.07	00007739	18.917	Inter686t1-0	-0.518	1	1	180.000	11.111	-0.6	0.556	0.000	D	F	3216.2	179.895	0.202	0.006	696.914	882.098	0.020	-	-0.046	1.407	-	-	-	car	1.584	29.961	-	PAVEMENT_GENERAL	Urban	F	1011101000011101	0000000000010000	-	car	32.324	-26.950	20.116	0.000	180.002	696.397	847.419	-0.000	Terminate	
"Student13Mode3"	"Tanvi_6"	"Dec 01, 2016 06:43:54 AM"	Unknown	129.98593	11/01/0116 06:46.08	00007799	20.245	Inter686t1-0	-0.537	1	1	180.000	11.111	1.5	0.369	0.000	D	F	3363.6	180.116	0.198	-0.016	696.933	862.497	0.021	-	0.122	1.194	-	-	-	car	1.505	30.475	236.777	PAVEMENT_GENERAL	Urban	F	1011101000011101	0000000000010000	-	car	32.839	254.044	20.116	0.000	180.002	696.397	827.303	-0.000	Terminate	
"Student13Mode3"	"Tanvi_6"	"Dec 01, 2016 06:43:54 AM"	Unknown	130.98595	11/01/0116 06:46.09	00007859	20.906	Inter686t1-0	-0.459	1	1	180.000	11.111	-0.9	0.169	0.000	D	F	2020.1	180.330	0.187	0.002	696.855	841.798	0.026	-	-0.002	0.123	-	-	-	car	1.430	29.892	37.822	PAVEMENT_GENERAL	Urban	F	1011101000011101	0000000000010000	-	car	32.255	40.744	20.116	0.000	179.971	696.399	807.187	-0.000	Terminate	
"Student13Mode3"	"Tanvi_6"	"Dec 01, 2016 06:43:54 AM"	Unknown	131.98598	11/01/0116 06:46.10	00007919	20.931	Inter686t1-0	-0.373	1	1	180.000	11.111	-0.6	0.138	0.000	D	F	1704.1	180.106	0.183	0.009	696.769	820.863	0.027	-	-0.065	-0.086	-	-	-	car	1.389	29.073	35.670	PAVEMENT_GENERAL	Urban	F	1011101000011101	0000000000010000	-	car	31.435	38.551	20.116	0.000	179.996	696.403	787.071	-0.000	Terminate	
"Student13Mode3"	"Tanvi_6"	"Dec 01, 2016 06:43:54 AM"	Unknown	132.98599	11/01/0116 06:46.11	00007979	20.577	Inter686t1-0	-0.342	1	1	180.000	11.111	0.5	0.000	0.000	D	F	1402.8	180.047	0.176	0.000	696.739	800.064	0.029	-	0.004	-0.612	-	-	-	car	1.265	26.032	56.492	PAVEMENT_GENERAL	Urban	F	1011101000011101	0000000000010000	-	car	30.752	66.713	20.116	0.000	179.996	696.403	766.955	-0.000	Terminate	
"Student13Mode3"	"Tanvi_6"	"Dec 01, 2016 06:43:54 AM"	Unknown	133.98601	11/01/0116 06:46.12	00008039	20.278	Inter682t1-1	-0.289	1	1	180.000	11.111	-0.8	0.185	0.000	D	F	1841.5	180.219	0.186	0.003	696.693	779.727	0.026	-	-0.002	0.214	-	-	-	car	1.389	28.169	173.481	PAVEMENT_GENERAL	Urban	F	1011101000011101	0000000000010000	-	car	30.530	187.394	20.116	0.000	179.996	696.403	746.839	-0.000	Terminate	
"Student13Mode3"	"Tanvi_6"	"Dec 01, 2016 06:43:54 AM"	Unknown	134.98604	11/01/0116 06:46.13	00008099	20.069	Inter682t1-1	-0.236	1	1	180.000	11.111	-0.4	0.129	0.000	D	F	1686.5	180.071	0.186	0.005	696.640	759.584	0.025	-	-0.038	0.111	-	-	-	car	1.402	28.143	-	PAVEMENT_GENERAL	Urban	F	1011101000011101	0000000000010000	-	car	30.503	-644.881	20.116	0.000	179.996	696.403	726.723	-0.000	Terminate	
"Student13Mode3"	"Tanvi_6"	"Dec 01, 2016 06:43:54 AM"	Unknown	135.98605	11/01/0116 06:46.14	00008159	19.530	Inter682t1-1	-0.222	1	1	180.000	11.111	0.8	0.000	0.000	D	F	1331.8	180.040	0.182	-0.006	696.625	739.758	0.029	-	0.038	-0.596	-	-	-	car	1.456	28.432	-	PAVEMENT_GENERAL	Urban	F	1011101000011101	0000000000010000	-	car	30.792	-52.598	20.116	0.000	179.996	696.403	706.607	-0.000	Terminate	
"Student13Mode3"	"Tanvi_6"	"Dec 01, 2016 06:43:54 AM"	Unknown	136.98607	11/01/0116 06:46.15	00008219	19.255	Inter682t1-1	-0.190	1	1	180.000	11.111	-3.2	0.192	0.000	D	F	1800.6	179.972	0.196	0.026	696.594	720.433	0.027	-	-0.185	0.164	-	-	-	car	1.518	29.223	-	PAVEMENT_GENERAL	Urban	F	1011101000011101	0000000000010000	-	car	31.583	-36.687	20.116	0.000	179.996	696.403	686.491	-0.000	Terminate	
"Student13Mode3"	"Tanvi_6"	"Dec 01, 2016 06:43:54 AM"	Unknown	137.98610	11/01/0116 06:46.16	00008279	19.575	Inter682t1-1	-0.245	1	1	180.000	11.111	-1.8	0.257	0.000	D	F	1905.6	179.695	0.191	0.016	696.649	701.030	0.025	-	-0.109	0.359	-	-	-	car	1.529	29.937	-	PAVEMENT_GENERAL	Urban	F	1111101000011101	0000000000010000	-	car	32.297	-59.624	20.116	0.000	179.996	696.403	666.375	-0.000	Terminate	
"Student13Mode3"	"Tanvi_6"	"Dec 01, 2016 06:43:54 AM"	Unknown	138.98611	11/01/0116 06:46.17	00008339	19.837	Inter682t1-1	-0.361	1	1	180.000	11.111	1.2	0.152	0.000	D	F	1695.2	179.725	0.183	-0.010	696.765	681.299	0.026	-	0.075	0.011	-	-	-	car	1.528	30.321	-	PAVEMENT_GENERAL	Urban	F	1011101000011101	0000000000010000	-	car	32.682	-116.818	20.116	0.000	179.996	696.403	646.259	-0.000	Terminate	
"Student13Mode3"	"Tanvi_6"	"Dec 01, 2016 06:43:54 AM"	Unknown	139.98613	11/01/0116 06:46.18	00008399	19.433	Inter682t1-1	-0.404	1	1	180.000	11.111	3.2	0.000	0.000	D	F	1325.1	180.258	0.181	-0.038	696.808	661.602	0.029	-	0.287	-0.595	-	-	-	car	1.582	30.740	-	PAVEMENT_GENERAL	Urban	F	1011101000011101	0000000000010000	-	car	33.102	-48.525	20.116	0.000	179.996	696.403	626.143	-0.000	Terminate	
"Student13Mode3"	"Tanvi_6"	"Dec 01, 2016 06:43:54 AM"	Unknown	140.98616	11/01/0116 06:46.19	00008459	18.843	Inter682t1-1	-0.236	1	1	180.000	11.111	-3.7	0.000	0.000	D	F	1284.9	180.521	0.183	0.031	696.640	642.466	0.029	-	-0.208	-0.586	-	-	-	car	1.683	31.720	-	PAVEMENT_GENERAL	Urban	F	1011101000011101	0000000000010000	-	car	34.080	-26.771	20.116	0.000	180.027	696.401	606.027	-0.000	Terminate	
"Student13Mode3"	"Tanvi_6"	"Dec 01, 2016 06:43:54 AM"	Unknown	141.98618	11/01/0116 06:46.20	00008519	18.261	Inter682t1-1	-0.193	1	1	180.000	11.111	0.4	0.000	0.000	D	F	1245.3	179.726	0.184	0.008	696.597	623.914	0.029	-	-0.099	-0.577	-	-	-	car	1.819	33.210	-	PAVEMENT_GENERAL	Urban	F	1011101000011101	0000000000010000	-	car	35.569	-34.360	19.316	-4.000	177.406	696.589	585.986	-0.000	Terminate	
"Student13Mode3"	"Tanvi_6"	"Dec 01, 2016 06:43:54 AM"	Unknown	142.98619	11/01/0116 06:46.21	00008579	17.688	Inter682t1-1	-0.247	1	1	180.000	11.111	1.2	0.000	0.000	D	F	1206.2	180.006	0.185	-0.018	696.651	605.940	0.029	-	0.117	-0.569	-	-	-	car	1.842	32.581	13.733	PAVEMENT_GENERAL	Urban	F	1011101000011101	0000000000010000	-	car	34.919	14.528	15.316	-4.000	174.198	697.764	568.679	-0.000	Terminate	
"Student13Mode3"	"Tanvi_6"	"Dec 01, 2016 06:43:54 AM"	Unknown	143.98621	11/01/0116 06:46.22	00008639	17.122	Inter688t25-1	-0.305	1	1	180.000	11.111	-17.1	0.000	0.000	D	F	1167.4	178.975	0.184	0.137	696.701	588.535	0.029	L	-0.974	-0.567	-	-	-	car	1.691	28.947	6.801	PAVEMENT_GENERAL	Urban	F	1011101000111101	0000000000010000	-	car	31.256	7.381	12.866	-1.000	175.428	699.022	555.000	-0.000	Terminate	
"Student13Mode3"	"Tanvi_6"	"Dec 01, 2016 06:43:54 AM"	Unknown	144.98624	11/01/0116 06:46.23	00008699	14.820	Inter688t33-0	-0.423	1	1	173.330	11.111	-19.2	0.000	0.301	D	F	970.2	174.128	0.103	0.163	697.570	572.238	0.036	L	-1.251	-4.071	-	-	-	car	1.689	25.038	9.287	PAVEMENT_GENERAL	Urban	F	1011101000111101	0000000000010000	-	car	27.375	10.131	12.124	-0.500	178.431	699.740	542.583	-0.000	Terminate	
"Student13Mode3"	"Tanvi_6"	"Dec 01, 2016 06:43:54 AM"	Unknown	145.98625	11/01/0116 06:46.24	00008759	10.694	Inter688t33-0	-0.415	1	1	175.247	11.111	11.5	0.000	0.218	D	F	1002.2	173.355	0.151	-0.046	699.030	559.628	0.037	L	0.347	-3.440	-	-	-	car	2.189	23.404	15.780	PAVEMENT_GENERAL	Urban	F	1011101000111101	0000000000010000	-	car	25.772	17.806	9.211	-4.035	179.480	699.919	531.510	-0.000	Terminate	
"Student13Mode3"	"Tanvi_6"	"Dec 01, 2016 06:43:54 AM"	Unknown	146.98627	11/01/0116 06:46.25	00008819	7.863	Inter688t33-0	-0.461	1	1	176.027	11.111	28.2	0.000	0.170	D	F	755.7	176.062	0.159	-0.084	699.901	550.411	0.034	L	0.601	-2.653	-	-	-	car	2.720	21.391	7.930	PAVEMENT_GENERAL	Urban	F	1011101000111101	0000000000010000	-	car	23.765	8.867	5.166	-4.058	179.691	699.968	524.286	-0.000	Terminate	
"Student13Mode3"	"Tanvi_6"	"Dec 01, 2016 06:43:54 AM"	Unknown	147.98630	11/01/0116 06:46.26	00008879	5.628	Inter688t33-0	-0.250	1	1	176.027	11.111	14.5	0.000	0.134	D	F	543.5	178.560	0.171	-0.017	700.153	543.721	0.032	L	0.154	-2.078	-	-	-	car	2.752	15.485	3.370	PAVEMENT_GENERAL	Urban	F	1011101000111101	0000000000010000	-	car	20.223	4.403	1.032	-4.000	179.348	699.989	521.139	-0.000	Terminate	
"Student13Mode3"	"Tanvi_6"	"Dec 01, 2016 06:43:54 AM"	Unknown	148.98631	11/01/0116 06:46.27	00008939	3.615	Inter688t27-1	-0.243	LT1	1	179.909	11.111	10.9	0.000	0.125	D	F	510.3	179.630	0.173	-0.004	700.201	539.101	0.032	L	0.024	-2.016	-	-	-	car	3.703	13.385	3.703	PAVEMENT_GENERAL	Urban	F	1011101000111101	0000000000010000	-	car	15.746	4.357	0.000	0.000	179.133	699.991	520.997	-0.000	Terminate	
"Student13Mode3"	"Tanvi_6"	"Dec 01, 2016 06:43:54 AM"	Unknown	149.98633	11/01/0116 06:46.28	00008999	1.813	Inter688t27-1	-0.232	LT1	1	179.909	11.111	8.3	0.000	0.087	D	F	477.5	180.105	0.191	0.001	700.195	536.431	0.031	L	0.003	-1.456	-	-	-	car	5.911	10.715	5.911	PAVEMENT_GENERAL	Urban	F	1011101000111101	0000000000010000	-	car	13.076	7.214	0.000	0.000	179.133	699.991	520.997	-0.000	Terminate	
"Student13Mode3"	"Tanvi_6"	"Dec 01, 2016 06:43:54 AM"	Unknown	150.98636	11/01/0116 06:46.29	00009059	1.290	Inter688t27-1	-0.217	LT1	1	179.909	11.111	8.1	0.000	0.000	D	F	477.5	180.355	0.203	-0.000	700.182	534.981	0.028	L	0.004	-0.224	-	-	-	car	7.184	9.265	7.184	PAVEMENT_GENERAL	Urban	F	1011101000111101	0000000000010000	-	car	11.626	9.016	0.000	0.000	179.133	699.991	520.997	-0.000	Terminate	
"Student13Mode3"	"Tanvi_6"	"Dec 01, 2016 06:43:54 AM"	Unknown	151.98637	11/01/0116 06:46.30	00009119	1.103	Inter688t27-1	-0.202	LT1	1	179.909	11.111	4.6	0.000	0.000	D	F	477.5	180.511	0.203	0.001	700.169	533.790	0.027	L	0.000	-0.158	-	-	-	car	7.319	8.074	7.319	PAVEMENT_GENERAL	Urban	F	1011101000111101	0000000000010000	-	car	10.435	9.459	0.000	0.000	179.133	699.991	520.997	-0.000	Terminate	
"Student13Mode3"	"Tanvi_6"	"Dec 01, 2016 06:43:54 AM"	Unknown	152.98639	11/01/0116 06:46.31	00009179	0.971	Inter688t27-1	-0.187	LT1	1	179.909	11.111	4.7	0.000	0.000	D	F	477.5	180.612	0.203	-0.000	700.156	532.757	0.027	L	0.001	-0.111	-	-	-	car	7.744	7.519	-	PAVEMENT_GENERAL	Urban	F	1011101000111101	0000000000010000	-	car	9.880	-23.072	1.400	2.000	178.684	700.002	520.518	-0.000	Terminate	
