"Name"	"Project"	"Time"	ZoneName	Time	SystemTime	Frame	Velocity	LaneName	LanePos	LaneIndex	LaneCount	LaneHeading	SpeedLimit	Steer	Accel	Brake	Gear	Horn	SubjectEngineRPM	SubjectHeading	SubjectPitch	SubjectRoll	SubjectX	SubjectY	SubjectZ	Signal	LatAccel	LongAccel	Collision	CollisionAngle	CollisionVelocity	VehAhead	HeadwayTime	HeadwayDist	TTC	TerrainType	CultureType	Slip	DigitalInputs	DigitalInputs2	ActiveTrigger	EntityName	DistToEntity	TimeToEntity	EntityVelocity	EntityAccel	EntityHeading	EntityX	EntityY	EntityZ	GrabData	
"Student17Mode3"	"Tanvi_6"	"Dec 01, 2016 11:05:38 AM"	Unknown	0.98335	11/01/0116 11:05.43	00000059	0.002	Inter625t13-0	-0.088	1	2	0.000	11.111	-0.4	0.000	0.000	D	F	0.0	0.000	0.153	0.000	1503.500	523.206	0.019	-	0.000	0.000	-	-	-	-	-	-	-	PAVEMENT_GENERAL	Urban	F	1011101000011101	0000000000000000	-	car	928.855	774727.812	0.000	0.000	180.000	696.000	987.000	-0.000	Terminate	
"Student17Mode3"	"Tanvi_6"	"Dec 01, 2016 11:05:38 AM"	Unknown	1.98337	11/01/0116 11:05.44	00000119	0.000	Inter625t13-0	-0.088	1	2	0.000	11.111	-0.4	0.000	0.000	D	F	0.0	0.000	0.197	0.000	1503.500	523.208	0.026	-	-0.000	-0.001	-	-	-	-	-	-	-	PAVEMENT_GENERAL	Urban	F	1011101000011101	0000000000000000	-	car	928.855	4213861.500	0.000	0.000	180.000	696.000	987.000	-0.000	Terminate	
"Student17Mode3"	"Tanvi_6"	"Dec 01, 2016 11:05:38 AM"	Unknown	2.98339	11/01/0116 11:05.45	00000179	-0.000	Inter625t13-0	-0.088	1	2	0.000	11.111	-0.4	0.000	0.000	D	F	0.0	0.000	0.207	0.000	1503.500	523.208	0.028	-	-0.000	-0.000	-	-	-	-	-	-	-	PAVEMENT_GENERAL	Urban	F	1011101000011101	0000000000000000	-	car	928.854	-115944568.000	0.000	0.000	180.000	696.000	987.000	-0.000	Terminate	
"Student17Mode3"	"Tanvi_6"	"Dec 01, 2016 11:05:38 AM"	Unknown	3.98341	11/01/0116 11:05.46	00000239	-0.000	Inter625t13-0	-0.088	1	2	0.000	11.111	-0.4	0.000	0.000	D	F	0.0	0.000	0.210	0.000	1503.500	523.208	0.028	-	-0.000	-0.000	-	-	-	-	-	-	-	PAVEMENT_GENERAL	Urban	F	1011101000011101	0000000000000000	-	car	928.854	-22304328.000	0.000	0.000	180.000	696.000	987.000	-0.000	Terminate	
"Student17Mode3"	"Tanvi_6"	"Dec 01, 2016 11:05:38 AM"	Unknown	4.98343	11/01/0116 11:05.47	00000299	-0.000	Inter625t13-0	-0.088	1	2	0.000	11.111	-0.4	0.000	0.000	D	F	0.0	0.000	0.210	0.000	1503.500	523.208	0.028	-	-0.000	0.000	-	-	-	-	-	-	-	PAVEMENT_GENERAL	Urban	F	1011101000011101	0000000000000000	-	car	928.854	-24857462.000	0.000	0.000	180.000	696.000	987.000	-0.000	Terminate	
"Student17Mode3"	"Tanvi_6"	"Dec 01, 2016 11:05:38 AM"	Unknown	5.98345	11/01/0116 11:05.48	00000359	-0.000	Inter625t13-0	-0.088	1	2	0.000	11.111	-0.4	0.000	0.000	D	F	0.0	0.000	0.209	0.000	1503.500	523.208	0.028	-	-0.000	0.000	-	-	-	-	-	-	-	PAVEMENT_GENERAL	Urban	F	1011101000011101	0000000000000000	-	car	928.855	-34381896.000	0.000	0.000	180.000	696.000	987.000	-0.000	Terminate	
"Student17Mode3"	"Tanvi_6"	"Dec 01, 2016 11:05:38 AM"	Unknown	6.98347	11/01/0116 11:05.49	00000419	-0.000	Inter625t13-0	-0.088	1	2	0.000	11.111	-0.4	0.000	0.000	D	F	0.0	0.000	0.209	0.000	1503.500	523.208	0.028	-	-0.000	0.000	-	-	-	-	-	-	-	PAVEMENT_GENERAL	Urban	F	1011101000011101	0000000000000000	-	car	928.855	-48192476.000	0.000	0.000	180.000	696.000	987.000	-0.000	Terminate	
"Student17Mode3"	"Tanvi_6"	"Dec 01, 2016 11:05:38 AM"	Unknown	7.98349	11/01/0116 11:05.50	00000479	-0.000	Inter625t13-0	-0.088	1	2	0.000	11.111	-0.4	0.000	0.000	D	F	0.0	0.000	0.209	-0.000	1503.500	523.208	0.028	-	-0.000	0.000	-	-	-	-	-	-	-	PAVEMENT_GENERAL	Urban	F	1011101000011101	0000000000000000	-	car	928.855	-64935924.000	0.000	0.000	180.000	696.000	987.000	-0.000	Terminate	
"Student17Mode3"	"Tanvi_6"	"Dec 01, 2016 11:05:38 AM"	Unknown	8.98351	11/01/0116 11:05.51	00000539	-0.000	Inter625t13-0	-0.088	1	2	0.000	11.111	-0.4	0.000	0.000	D	F	0.0	0.000	0.209	-0.000	1503.500	523.208	0.028	-	-0.000	0.000	-	-	-	-	-	-	-	PAVEMENT_GENERAL	Urban	F	1011101000011101	0000000000000000	-	car	928.855	-83365024.000	0.000	0.000	180.000	696.000	987.000	-0.000	Terminate	
"Student17Mode3"	"Tanvi_6"	"Dec 01, 2016 11:05:38 AM"	Unknown	9.98353	11/01/0116 11:05.52	00000599	-0.000	Inter625t13-0	-0.088	1	2	0.000	11.111	-0.4	0.000	0.000	D	F	0.0	0.000	0.209	-0.000	1503.500	523.208	0.028	-	-0.000	0.000	-	-	-	-	-	-	-	PAVEMENT_GENERAL	Urban	F	1011101000011101	0000000000000000	-	car	928.855	-102678288.000	0.000	0.000	180.000	696.000	987.000	-0.000	Terminate	
"Student17Mode3"	"Tanvi_6"	"Dec 01, 2016 11:05:38 AM"	Unknown	10.98355	11/01/0116 11:05.53	00000659	-0.000	Inter625t13-0	-0.088	1	2	0.000	11.111	-0.4	0.000	0.000	D	F	0.0	0.000	0.209	-0.000	1503.500	523.208	0.028	-	-0.000	0.000	-	-	-	-	-	-	-	PAVEMENT_GENERAL	Urban	F	1111101000011101	0000000000000000	-	car	928.855	-122574632.000	0.000	0.000	180.000	696.000	987.000	-0.000	Terminate	
"Student17Mode3"	"Tanvi_6"	"Dec 01, 2016 11:05:38 AM"	Unknown	11.98357	11/01/0116 11:05.54	00000719	-0.000	Inter625t13-0	-0.088	1	2	0.000	11.111	-0.4	0.000	0.000	D	F	0.0	0.000	0.209	-0.000	1503.500	523.207	0.028	-	-0.000	0.000	-	-	-	-	-	-	-	PAVEMENT_GENERAL	Urban	F	1011101000011101	0000000000000000	-	car	928.855	-143055760.000	0.000	0.000	180.000	696.000	987.000	-0.000	Terminate	
"Student17Mode3"	"Tanvi_6"	"Dec 01, 2016 11:05:38 AM"	Unknown	12.98359	11/01/0116 11:05.55	00000779	-0.000	Inter625t13-0	-0.088	1	2	0.000	11.111	-0.4	0.000	0.000	D	F	0.0	0.000	0.209	-0.000	1503.500	523.207	0.028	-	-0.000	0.000	-	-	-	-	-	-	-	PAVEMENT_GENERAL	Urban	F	1011101000011101	0000000000000000	-	car	928.855	-164240544.000	0.000	0.000	180.000	696.000	987.000	-0.000	Terminate	
"Student17Mode3"	"Tanvi_6"	"Dec 01, 2016 11:05:38 AM"	Unknown	13.98361	11/01/0116 11:05.56	00000839	-0.000	Inter625t13-0	-0.088	1	2	0.000	11.111	-0.4	0.000	0.000	D	F	0.0	0.000	0.209	-0.000	1503.500	523.207	0.028	-	-0.000	0.000	-	-	-	-	-	-	-	PAVEMENT_GENERAL	Urban	F	1011101000011101	0000000000000000	-	car	928.855	-186270528.000	0.000	0.000	180.000	696.000	987.000	-0.000	Terminate	
"Student17Mode3"	"Tanvi_6"	"Dec 01, 2016 11:05:38 AM"	Unknown	14.98363	11/01/0116 11:05.57	00000899	-0.000	Inter625t13-0	-0.088	1	2	0.000	11.111	-0.4	0.000	0.000	D	F	0.0	0.000	0.209	-0.000	1503.500	523.207	0.028	-	-0.000	0.000	-	-	-	-	-	-	-	PAVEMENT_GENERAL	Urban	F	1011101000011101	0000000000000000	-	car	928.855	-209279200.000	0.000	0.000	180.000	696.000	987.000	-0.000	Terminate	
"Student17Mode3"	"Tanvi_6"	"Dec 01, 2016 11:05:38 AM"	Unknown	15.98365	11/01/0116 11:05.58	00000959	-0.000	Inter625t13-0	-0.088	1	2	0.000	11.111	-0.4	0.000	0.000	D	F	0.0	0.000	0.209	-0.000	1503.500	523.207	0.028	-	-0.000	0.000	-	-	-	-	-	-	-	PAVEMENT_GENERAL	Urban	F	1011101000011101	0000000000000000	-	car	928.855	-233388448.000	0.000	0.000	180.000	696.000	987.000	-0.000	Terminate	
"Student17Mode3"	"Tanvi_6"	"Dec 01, 2016 11:05:38 AM"	Unknown	16.98367	11/01/0116 11:05.59	00001019	-0.000	Inter625t13-0	-0.088	1	2	0.000	11.111	-0.5	0.000	0.000	D	F	0.0	0.000	0.209	-0.000	1503.500	523.207	0.028	-	0.000	0.000	-	-	-	-	-	-	-	PAVEMENT_GENERAL	Urban	F	1011101000011101	0000000000000000	-	car	928.855	-258713360.000	0.000	0.000	180.000	696.000	987.000	-0.000	Terminate	
"Student17Mode3"	"Tanvi_6"	"Dec 01, 2016 11:05:38 AM"	Unknown	17.98369	11/01/0116 11:06.00	00001079	-0.000	Inter625t13-0	-0.088	1	2	0.000	11.111	-0.4	0.000	0.194	D	F	0.0	0.000	0.209	0.000	1503.500	523.207	0.028	-	-0.000	-0.000	-	-	-	-	-	-	-	PAVEMENT_GENERAL	Urban	F	1011101000011101	0000000000000000	-	car	928.855	-	0.000	0.000	180.000	696.000	987.000	-0.000	Terminate	
"Student17Mode3"	"Tanvi_6"	"Dec 01, 2016 11:05:38 AM"	Unknown	18.98371	11/01/0116 11:06.01	00001139	-0.000	Inter625t13-0	-0.088	1	2	0.000	11.111	-0.4	0.000	0.501	D	F	0.0	0.000	0.209	0.000	1503.500	523.207	0.028	-	-0.000	0.000	-	-	-	-	-	-	-	PAVEMENT_GENERAL	Urban	F	1011101000011101	0000000000000000	-	car	928.855	-498767936.000	0.000	0.000	180.000	696.000	987.000	-0.000	Terminate	
"Student17Mode3"	"Tanvi_6"	"Dec 01, 2016 11:05:38 AM"	Unknown	19.98373	11/01/0116 11:06.02	00001199	-0.000	Inter625t13-0	-0.088	1	2	0.000	11.111	-0.5	0.000	0.421	D	F	144.4	0.000	0.209	0.000	1503.500	523.207	0.028	-	-0.000	0.000	-	-	-	-	-	-	-	PAVEMENT_GENERAL	Urban	F	1011101000011111	0000000000000000	-	car	928.855	-	0.000	0.000	180.000	696.000	987.000	-0.000	Terminate	
"Student17Mode3"	"Tanvi_6"	"Dec 01, 2016 11:05:38 AM"	Unknown	20.98375	11/01/0116 11:06.03	00001259	-0.000	Inter625t13-0	-0.088	1	2	0.000	11.111	-0.5	0.000	0.367	D	F	477.8	0.000	0.209	0.000	1503.500	523.207	0.028	-	0.000	0.000	-	-	-	-	-	-	-	PAVEMENT_GENERAL	Urban	F	1111101000011101	0000000000000000	-	car	928.855	-	0.000	0.000	180.000	696.000	987.000	-0.000	Terminate	
"Student17Mode3"	"Tanvi_6"	"Dec 01, 2016 11:05:38 AM"	Unknown	21.98377	11/01/0116 11:06.04	00001319	-0.000	Inter625t13-0	-0.088	1	2	0.000	11.111	-0.4	0.000	0.104	D	F	477.5	0.000	0.209	0.000	1503.500	523.207	0.028	-	0.000	0.000	-	-	-	-	-	-	-	PAVEMENT_GENERAL	Urban	F	1011101000011101	0000000000000000	-	car	928.855	-	0.000	0.000	180.000	696.000	987.000	-0.000	Terminate	
"Student17Mode3"	"Tanvi_6"	"Dec 01, 2016 11:05:38 AM"	Unknown	22.98379	11/01/0116 11:06.05	00001379	0.005	Inter625t13-0	-0.088	1	2	0.000	11.111	0.9	0.000	0.000	D	F	477.5	0.000	0.207	-0.000	1503.500	523.208	0.027	-	0.000	0.018	-	-	-	-	-	-	-	PAVEMENT_GENERAL	Urban	F	1011101000011101	0000000000000000	-	car	928.854	382582.125	0.000	0.000	180.000	696.000	987.000	-0.000	Terminate	
"Student17Mode3"	"Tanvi_6"	"Dec 01, 2016 11:05:38 AM"	Unknown	23.98381	11/01/0116 11:06.06	00001439	0.021	Inter625t13-0	-0.088	1	2	0.000	11.111	0.4	0.000	0.000	D	F	477.5	0.000	0.197	0.000	1503.500	523.219	0.024	-	0.000	0.052	-	-	-	-	-	-	-	PAVEMENT_GENERAL	Urban	F	1011101000011101	0000000000000000	-	car	928.849	88413.148	0.000	0.000	180.000	696.000	987.000	-0.000	Terminate	
"Student17Mode3"	"Tanvi_6"	"Dec 01, 2016 11:05:38 AM"	Unknown	24.98383	11/01/0116 11:06.07	00001499	0.175	Inter625t13-0	-0.088	1	2	0.000	11.111	0.7	0.000	0.000	D	F	477.5	0.002	0.206	-0.000	1503.500	523.302	0.025	-	0.000	0.218	-	-	-	-	-	-	-	PAVEMENT_GENERAL	Urban	F	1011101000011101	0000000000000000	-	car	928.807	10674.457	0.000	0.000	180.000	696.000	987.000	-0.000	Terminate	
"Student17Mode3"	"Tanvi_6"	"Dec 01, 2016 11:05:38 AM"	Unknown	25.98385	11/01/0116 11:06.08	00001559	0.376	Inter625t13-0	-0.088	1	2	0.000	11.111	0.5	0.044	0.000	D	F	698.1	0.005	0.209	-0.000	1503.500	523.579	0.025	-	0.000	0.351	-	-	-	-	-	-	-	PAVEMENT_GENERAL	Urban	F	1011101000011101	0000000000000000	-	car	928.670	4960.657	0.000	0.000	180.000	696.000	987.000	-0.000	Terminate	
"Student17Mode3"	"Tanvi_6"	"Dec 01, 2016 11:05:38 AM"	Unknown	26.98387	11/01/0116 11:06.09	00001619	2.417	Inter625t13-0	-0.088	1	2	0.000	11.111	-0.2	0.118	0.000	D	F	1341.6	0.007	0.214	0.000	1503.500	524.845	0.016	-	-0.001	2.315	-	-	-	-	-	-	-	PAVEMENT_GENERAL	Urban	F	1011101000011101	0000000000000000	-	car	928.041	773.195	0.000	0.000	180.000	696.000	987.000	-0.000	Terminate	
"Student17Mode3"	"Tanvi_6"	"Dec 01, 2016 11:05:38 AM"	Unknown	27.98389	11/01/0116 11:06.10	00001679	4.898	Inter625t13-0	-0.090	1	2	0.000	11.111	-0.4	0.203	0.000	D	F	1837.1	0.000	0.226	0.000	1503.498	528.491	0.015	-	-0.003	2.431	-	-	-	-	-	-	-	PAVEMENT_GENERAL	Urban	F	1111101000011101	0000000000000000	-	car	926.233	382.544	0.000	0.000	180.000	696.000	987.000	-0.000	Terminate	
"Student17Mode3"	"Tanvi_6"	"Dec 01, 2016 11:05:38 AM"	Unknown	28.98391	11/01/0116 11:06.11	00001739	7.002	Inter625t49-0	-0.096	1	1	0.005	11.111	-1.1	0.224	0.000	D	F	2237.4	359.920	0.222	0.002	1503.493	534.468	0.017	-	-0.018	2.016	-	-	-	-	-	-	-	PAVEMENT_GENERAL	Urban	F	1011101000011101	0000000000000000	-	car	923.291	269.058	0.000	0.000	180.000	696.000	987.000	-0.000	Terminate	
"Student17Mode3"	"Tanvi_6"	"Dec 01, 2016 11:05:38 AM"	Unknown	29.98393	11/01/0116 11:06.12	00001799	8.787	Inter625t49-0	-0.123	1	1	0.007	11.111	-0.6	0.235	0.000	D	F	1911.1	359.747	0.213	0.001	1503.466	542.429	0.019	-	-0.015	1.465	-	-	-	-	-	-	-	PAVEMENT_GENERAL	Urban	F	1011101000011101	0000000000000000	-	car	919.403	215.224	0.000	0.000	180.000	696.000	987.000	-0.000	Terminate	
"Student17Mode3"	"Tanvi_6"	"Dec 01, 2016 11:05:38 AM"	Unknown	30.98395	11/01/0116 11:06.13	00001859	10.140	Inter625t49-0	-0.174	1	1	0.008	11.111	0.3	0.247	0.000	D	F	2001.3	359.662	0.212	-0.002	1503.416	551.907	0.020	-	0.004	1.279	-	-	-	-	-	-	-	PAVEMENT_GENERAL	Urban	F	1011101000011101	0000000000000000	-	car	914.824	188.120	0.000	0.000	180.000	696.000	987.000	-0.000	Terminate	
"Student17Mode3"	"Tanvi_6"	"Dec 01, 2016 11:05:38 AM"	Unknown	31.98397	11/01/0116 11:06.14	00001919	11.364	Inter625t49-0	-0.233	1	1	0.005	11.111	0.6	0.256	0.000	D	F	2106.4	359.736	0.210	-0.003	1503.358	562.668	0.021	-	0.022	1.163	-	-	-	-	-	-	-	PAVEMENT_GENERAL	Urban	F	1011101000011101	0000000000000000	-	car	909.717	170.580	0.000	0.000	180.000	696.000	987.000	-0.000	Terminate	
"Student17Mode3"	"Tanvi_6"	"Dec 01, 2016 11:05:38 AM"	Unknown	32.98399	11/01/0116 11:06.15	00001979	12.460	Inter625t49-0	-0.277	1	1	0.005	11.111	0.9	0.249	0.000	D	F	2220.0	359.874	0.207	-0.005	1503.316	574.595	0.022	-	0.038	1.012	-	-	-	-	-	-	-	PAVEMENT_GENERAL	Urban	F	1011101000011101	0000000000000000	-	car	904.192	158.836	0.000	0.000	180.000	696.000	987.000	-0.000	Terminate	
"Student17Mode3"	"Tanvi_6"	"Dec 01, 2016 11:05:38 AM"	Unknown	33.98401	11/01/0116 11:06.16	00002039	13.476	Inter625t15-0	-0.290	1	2	0.000	11.111	0.1	0.250	0.000	D	F	2343.5	0.000	0.206	-0.001	1503.303	587.566	0.022	-	0.012	1.000	-	-	-	-	-	-	-	PAVEMENT_GENERAL	Urban	F	1011101000011101	0000000000000000	-	car	898.354	150.317	0.000	0.000	180.000	696.000	987.000	-0.000	Terminate	
"Student17Mode3"	"Tanvi_6"	"Dec 01, 2016 11:05:38 AM"	Unknown	34.98403	11/01/0116 11:06.17	00002099	14.453	Inter614t1-0	-0.291	1	2	0.000	11.111	0.1	0.254	0.000	D	F	2482.6	0.000	0.204	-0.001	1503.302	601.534	0.022	-	0.004	0.966	-	-	-	-	-	-	-	PAVEMENT_GENERAL	Urban	F	1011101000011101	0000000000000000	-	car	892.247	143.241	0.000	0.000	180.000	696.000	987.000	-0.000	Terminate	
"Student17Mode3"	"Tanvi_6"	"Dec 01, 2016 11:05:38 AM"	Unknown	35.98405	11/01/0116 11:06.18	00002159	15.398	Inter614t1-0	-0.291	1	2	0.000	11.111	0.3	0.250	0.000	D	F	2611.8	0.015	0.204	-0.002	1503.302	616.465	0.022	-	0.014	0.920	-	-	-	-	-	-	-	PAVEMENT_GENERAL	Urban	F	1011101000011101	0000000000000000	-	car	885.916	138.005	0.000	0.000	180.000	696.000	987.000	-0.000	Terminate	
"Student17Mode3"	"Tanvi_6"	"Dec 01, 2016 11:05:38 AM"	Unknown	36.98407	11/01/0116 11:06.19	00002219	16.175	Inter614t1-0	-0.278	1	2	0.000	11.111	-0.2	0.243	0.000	D	F	2036.8	0.077	0.198	-0.000	1503.315	632.289	0.024	-	0.003	0.610	-	-	-	-	-	-	-	PAVEMENT_GENERAL	Urban	F	1111101000011101	0000000000000000	-	car	879.444	135.580	0.000	0.000	180.000	696.000	987.000	-0.000	Terminate	
"Student17Mode3"	"Tanvi_6"	"Dec 01, 2016 11:05:38 AM"	Unknown	37.98409	11/01/0116 11:06.20	00002279	16.753	Inter614t1-0	-0.258	1	2	0.000	11.111	-0.4	0.245	0.000	D	F	2049.5	0.061	0.198	0.003	1503.335	648.757	0.024	-	-0.015	0.561	-	-	-	-	-	-	-	PAVEMENT_GENERAL	Urban	F	1011101000011101	0000000000000000	-	car	872.968	135.194	0.000	0.000	180.000	696.000	987.000	-0.000	Terminate	
"Student17Mode3"	"Tanvi_6"	"Dec 01, 2016 11:05:38 AM"	Unknown	38.98411	11/01/0116 11:06.21	00002339	17.297	Inter614t1-0	-0.247	1	2	0.000	11.111	-0.1	0.245	0.000	D	F	2076.9	0.007	0.197	0.002	1503.346	665.784	0.024	-	-0.015	0.530	-	-	-	-	-	-	-	PAVEMENT_GENERAL	Urban	F	1011101000011101	0000000000000000	-	car	866.541	135.554	0.000	0.000	180.000	696.000	987.000	-0.000	Terminate	
"Student17Mode3"	"Tanvi_6"	"Dec 01, 2016 11:05:38 AM"	Unknown	39.98413	11/01/0116 11:06.22	00002399	17.812	Inter614t1-0	-0.250	1	2	0.000	11.111	-0.1	0.247	0.000	D	F	2102.7	0.000	0.196	0.001	1503.343	683.341	0.024	-	-0.006	0.501	-	-	-	-	-	-	-	PAVEMENT_GENERAL	Urban	F	1011101000011101	0000000000000000	-	car	860.202	136.976	0.000	0.000	180.000	696.000	987.000	-0.000	Terminate	
"Student17Mode3"	"Tanvi_6"	"Dec 01, 2016 11:05:38 AM"	Unknown	40.98415	11/01/0116 11:06.23	00002459	18.300	Inter614t1-0	-0.264	1	2	0.000	11.111	-0.2	0.247	0.000	D	F	2138.5	359.929	0.195	0.002	1503.329	701.400	0.024	-	-0.015	0.477	-	-	-	-	-	-	-	PAVEMENT_GENERAL	Urban	F	1011101000011101	0000000000000000	-	car	853.998	139.438	0.000	0.000	180.000	696.000	987.000	-0.000	Terminate	
"Student17Mode3"	"Tanvi_6"	"Dec 01, 2016 11:05:38 AM"	Unknown	41.98417	11/01/0116 11:06.24	00002519	18.767	Inter614t1-0	-0.290	1	2	0.000	11.111	0.0	0.249	0.000	D	F	2173.9	359.912	0.194	0.000	1503.304	719.935	0.025	-	-0.001	0.459	-	-	-	-	-	-	-	PAVEMENT_GENERAL	Urban	F	1011101000011101	0000000000000000	-	car	847.972	143.200	0.000	0.000	180.000	696.000	987.000	-0.000	Terminate	
"Student17Mode3"	"Tanvi_6"	"Dec 01, 2016 11:05:38 AM"	Unknown	42.98419	11/01/0116 11:06.25	00002579	19.219	Inter614t1-0	-0.316	1	2	0.000	11.111	0.3	0.236	0.000	D	F	2201.0	359.942	0.193	-0.002	1503.277	738.929	0.025	-	0.018	0.439	-	-	-	-	-	-	-	PAVEMENT_GENERAL	Urban	F	1011101000011101	0000000000000000	-	car	842.173	148.697	0.000	0.000	180.000	696.000	987.000	-0.000	Terminate	
"Student17Mode3"	"Tanvi_6"	"Dec 01, 2016 11:05:38 AM"	Unknown	43.98421	11/01/0116 11:06.26	00002639	19.642	Inter614t1-0	-0.322	1	2	0.000	11.111	1.3	0.245	0.000	D	F	2239.1	0.087	0.192	-0.012	1503.271	758.358	0.025	-	0.084	0.427	-	-	-	-	-	-	-	PAVEMENT_GENERAL	Urban	F	1011101000011101	0000000000000000	-	car	836.666	157.156	0.000	0.000	180.000	696.000	987.000	-0.000	Terminate	
"Student17Mode3"	"Tanvi_6"	"Dec 01, 2016 11:05:38 AM"	Unknown	44.98423	11/01/0116 11:06.27	00002699	20.071	Inter614t1-0	-0.274	1	2	0.000	11.111	-0.1	0.249	0.000	D	F	2275.4	0.149	0.192	0.001	1503.319	778.215	0.025	-	-0.012	0.426	-	-	-	-	-	-	-	PAVEMENT_GENERAL	Urban	F	1011101000011101	0000000000000000	-	car	831.521	167.142	0.000	0.000	180.000	696.000	987.000	-0.000	Terminate	
"Student17Mode3"	"Tanvi_6"	"Dec 01, 2016 11:05:38 AM"	Unknown	45.98425	11/01/0116 11:06.28	00002759	20.490	Inter614t1-0	-0.224	1	2	0.000	11.111	-0.1	0.250	0.000	D	F	2306.7	0.129	0.191	0.001	1503.369	798.497	0.025	-	-0.006	0.413	-	-	-	-	-	-	-	PAVEMENT_GENERAL	Urban	F	1011101000011101	0000000000000000	-	car	826.723	179.179	0.000	0.000	180.000	696.000	987.000	-0.000	Terminate	
"Student17Mode3"	"Tanvi_6"	"Dec 01, 2016 11:05:38 AM"	Unknown	46.98427	11/01/0116 11:06.29	00002819	20.892	Inter612t1-0	-0.177	1	2	0.000	11.111	-0.1	0.245	0.000	D	F	2332.7	0.136	0.190	0.000	1503.416	819.190	0.025	-	0.000	0.394	-	-	-	-	-	-	-	PAVEMENT_GENERAL	Urban	F	1011101000011101	0000000000000000	-	car	822.311	195.666	0.000	0.000	180.000	696.000	987.000	-0.000	Terminate	
"Student17Mode3"	"Tanvi_6"	"Dec 01, 2016 11:05:38 AM"	Unknown	47.98429	11/01/0116 11:06.30	00002879	21.279	Inter612t1-0	-0.140	1	2	0.000	11.111	-0.5	0.247	0.000	D	F	2362.6	0.037	0.189	0.005	1503.453	840.277	0.025	-	-0.039	0.379	-	-	-	-	-	-	-	PAVEMENT_GENERAL	Urban	F	1011101000011101	0000000000000000	-	car	818.316	215.858	0.000	0.000	180.000	696.000	987.000	-0.000	Terminate	
"Student17Mode3"	"Tanvi_6"	"Dec 01, 2016 11:05:38 AM"	Unknown	48.98431	11/01/0116 11:06.31	00002939	21.657	Inter612t1-0	-0.136	1	2	0.000	11.111	-0.3	0.247	0.000	D	F	2399.0	0.000	0.188	0.004	1503.457	861.746	0.025	-	-0.026	0.374	-	-	-	-	-	-	-	PAVEMENT_GENERAL	Urban	F	1011101000011101	0000000000000000	-	car	814.754	244.479	0.000	0.000	180.000	696.000	987.000	-0.000	Terminate	
"Student17Mode3"	"Tanvi_6"	"Dec 01, 2016 11:05:38 AM"	Unknown	49.98433	11/01/0116 11:06.32	00002999	22.013	Inter612t1-0	-0.159	1	2	0.000	11.111	-0.3	0.245	0.000	D	F	2430.6	359.897	0.187	0.003	1503.434	883.582	0.025	-	-0.024	0.356	-	-	-	-	-	-	-	PAVEMENT_GENERAL	Urban	F	1011101000011101	0000000000000000	-	car	811.670	286.219	0.000	0.000	180.000	696.000	987.000	-0.000	Terminate	
"Student17Mode3"	"Tanvi_6"	"Dec 01, 2016 11:05:38 AM"	Unknown	50.98435	11/01/0116 11:06.33	00003059	22.361	Inter612t1-0	-0.207	1	2	0.000	11.111	-0.2	0.243	0.000	D	F	2462.5	359.839	0.187	0.003	1503.386	905.771	0.025	-	-0.020	0.347	-	-	-	-	-	-	-	PAVEMENT_GENERAL	Urban	F	1011101000011101	0000000000000000	-	car	809.102	351.639	0.000	0.000	180.000	696.000	987.000	-0.000	Terminate	
"Student17Mode3"	"Tanvi_6"	"Dec 01, 2016 11:05:38 AM"	Unknown	51.98437	11/01/0116 11:06.34	00003119	22.697	Inter612t1-0	-0.274	1	2	0.000	11.111	0.1	0.242	0.000	D	F	2491.3	359.817	0.186	-0.000	1503.319	928.302	0.025	-	-0.001	0.328	-	-	-	-	-	-	-	PAVEMENT_GENERAL	Urban	F	1011101000011101	0000000000000000	-	car	807.091	469.787	0.000	0.000	180.000	696.000	987.000	-0.000	Terminate	
"Student17Mode3"	"Tanvi_6"	"Dec 01, 2016 11:05:38 AM"	Unknown	52.98439	11/01/0116 11:06.35	00003179	23.001	Inter612t1-0	-0.343	1	2	0.000	11.111	0.3	0.226	0.000	D	F	2509.1	359.850	0.184	-0.003	1503.250	951.155	0.026	-	0.021	0.275	-	-	-	-	-	-	-	PAVEMENT_GENERAL	Urban	F	1011101000011101	0000000000000000	-	car	805.686	745.723	0.000	0.000	180.000	696.000	987.000	-0.000	Terminate	
"Student17Mode3"	"Tanvi_6"	"Dec 01, 2016 11:05:38 AM"	Unknown	53.98441	11/01/0116 11:06.36	00003239	23.270	Inter612t1-0	-0.385	1	2	0.000	11.111	0.6	0.213	0.000	D	F	2272.5	0.000	0.186	-0.008	1503.208	974.290	0.026	-	0.061	0.304	-	-	-	-	-	-	-	PAVEMENT_GENERAL	Urban	F	1111101000011101	0000000000000000	-	car	804.949	2182.227	0.000	0.000	180.000	696.000	987.000	-0.000	Terminate	
"Student17Mode3"	"Tanvi_6"	"Dec 01, 2016 11:05:38 AM"	Unknown	54.98443	11/01/0116 11:06.37	00003299	23.404	Inter612t1-0	-0.381	1	2	0.000	11.111	-1.3	0.226	0.000	D	F	2008.4	0.026	0.184	0.008	1503.213	997.634	0.026	-	-0.041	0.155	-	-	-	-	-	-	-	PAVEMENT_GENERAL	Urban	F	1011101000011101	0000000000000000	-	car	804.923	-2523.212	0.000	0.000	180.000	696.000	987.000	-0.000	Terminate	
"Student17Mode3"	"Tanvi_6"	"Dec 01, 2016 11:05:38 AM"	Unknown	55.98445	11/01/0116 11:06.38	00003359	23.539	Inter613t1-0	-0.409	1	2	0.000	11.111	-0.5	0.231	0.000	D	F	2008.5	359.832	0.182	0.006	1503.185	1021.105	0.026	-	-0.047	0.137	-	-	-	-	-	-	-	PAVEMENT_GENERAL	Urban	F	1011101000011101	0000000000000000	-	car	805.545	-871.082	0.000	0.000	180.000	696.000	987.000	-0.000	Terminate	
"Student17Mode3"	"Tanvi_6"	"Dec 01, 2016 11:05:38 AM"	Unknown	56.98447	11/01/0116 11:06.39	00003419	23.684	Inter613t1-0	-0.471	1	2	0.000	11.111	0.5	0.245	0.000	D	F	2029.0	359.897	0.182	-0.005	1503.122	1044.715	0.026	-	0.040	0.158	-	-	-	-	-	-	-	PAVEMENT_GENERAL	Urban	F	1011101000011101	0000000000000000	-	car	806.823	-489.932	0.000	0.000	180.000	696.000	987.000	-0.000	Terminate	
"Student17Mode3"	"Tanvi_6"	"Dec 01, 2016 11:05:38 AM"	Unknown	57.98449	11/01/0116 11:06.40	00003479	23.848	Inter613t1-0	-0.501	1	2	0.000	11.111	0.1	0.254	0.000	D	F	2042.0	0.000	0.182	-0.002	1503.092	1068.480	0.026	-	0.021	0.164	-	-	-	-	-	-	-	PAVEMENT_GENERAL	Urban	F	1011101000011101	0000000000000000	-	car	808.835	-338.727	0.000	0.000	180.000	696.000	987.000	-0.000	Terminate	
"Student17Mode3"	"Tanvi_6"	"Dec 01, 2016 11:05:38 AM"	Unknown	58.98451	11/01/0116 11:06.41	00003539	24.013	Inter613t1-0	-0.507	1	2	0.000	11.111	0.2	0.250	0.000	D	F	2044.4	0.012	0.181	-0.003	1503.086	1092.411	0.026	-	0.018	0.160	-	-	-	-	-	-	-	PAVEMENT_GENERAL	Urban	F	1111101000011101	0000000000000000	-	car	811.581	-260.552	0.000	0.000	180.000	696.000	987.000	-0.000	Terminate	
"Student17Mode3"	"Tanvi_6"	"Dec 01, 2016 11:05:38 AM"	Unknown	59.98453	11/01/0116 11:06.42	00003599	24.146	Inter613t1-0	-0.506	1	2	0.000	11.111	0.2	0.224	0.000	D	F	2024.7	0.001	0.181	-0.002	1503.087	1116.496	0.026	-	0.010	0.104	-	-	-	-	-	-	-	PAVEMENT_GENERAL	Urban	F	1011101000011101	0000000000000000	-	car	815.050	-213.045	0.000	0.000	180.000	696.000	987.000	-0.000	Terminate	
"Student17Mode3"	"Tanvi_6"	"Dec 01, 2016 11:05:38 AM"	Unknown	60.98455	11/01/0116 11:06.43	00003659	24.267	Inter613t1-0	-0.496	1	2	0.000	11.111	0.7	0.226	0.000	D	F	2029.7	0.094	0.180	-0.008	1503.097	1140.702	0.026	-	0.059	0.106	-	-	-	-	-	-	-	PAVEMENT_GENERAL	Urban	F	1011101000011101	0000000000000000	-	car	819.243	-178.915	0.000	0.000	180.000	696.000	987.000	-0.000	Terminate	
"Student17Mode3"	"Tanvi_6"	"Dec 01, 2016 11:05:38 AM"	Unknown	61.98457	11/01/0116 11:06.44	00003719	24.169	Inter613t1-0	-0.456	1	2	0.000	11.111	-0.4	0.106	0.000	D	F	1814.2	0.057	0.174	0.005	1503.137	1164.955	0.028	-	-0.039	-0.286	-	-	-	-	-	-	-	PAVEMENT_GENERAL	Urban	F	1011101000011101	0000000000000000	-	car	824.163	-157.672	0.000	0.000	180.000	696.000	987.000	-0.000	Terminate	
"Student17Mode3"	"Tanvi_6"	"Dec 01, 2016 11:05:38 AM"	Unknown	62.98459	11/01/0116 11:06.45	00003779	23.578	Inter613t1-0	-0.455	1	2	0.000	11.111	-4.5	0.000	0.000	D	F	1607.5	359.764	0.174	0.047	1503.138	1188.858	0.030	-	-0.314	-0.664	-	-	-	-	-	-	-	PAVEMENT_GENERAL	Urban	F	1011101000011101	0000000000000000	-	car	829.638	-147.454	0.000	0.000	180.000	696.000	987.000	-0.000	Terminate	
"Student17Mode3"	"Tanvi_6"	"Dec 01, 2016 11:05:38 AM"	Unknown	63.98461	11/01/0116 11:06.46	00003839	22.832	Inter615t9-0	-0.725	1	2	0.000	11.111	-15.7	0.000	0.107	D	F	1540.4	358.358	0.146	0.144	1502.868	1212.099	0.030	L	-1.013	-1.486	-	-	-	-	-	-	-	PAVEMENT_GENERAL	Urban	F	1011101000111101	0000000000000000	-	car	835.319	-151.799	0.000	0.000	180.000	696.000	987.000	-0.000	Terminate	
"Student17Mode3"	"Tanvi_6"	"Dec 01, 2016 11:05:38 AM"	Unknown	64.98463	11/01/0116 11:06.47	00003899	19.327	Inter615t31-0	-0.963	1	1	354.317	11.111	-6.2	0.000	0.278	D	F	1269.2	354.535	0.108	0.126	1501.738	1233.262	0.038	L	-1.007	-3.941	-	-	-	22	2.135	41.264	2.135	PAVEMENT_GENERAL	Urban	F	1011101000111101	0000000000000000	-	car	840.172	-217.489	0.000	0.000	180.000	696.000	987.000	-0.000	Terminate	
"Student17Mode3"	"Tanvi_6"	"Dec 01, 2016 11:05:38 AM"	Unknown	65.98465	11/01/0116 11:06.48	00003959	14.596	Inter615t31-0	-0.832	1	1	356.863	11.111	24.3	0.000	0.442	D	F	935.9	355.741	0.025	-0.182	1500.176	1250.277	0.040	L	1.005	-5.507	-	-	-	22	1.657	24.193	1.657	PAVEMENT_GENERAL	Urban	F	1011101000111101	0000000000000000	-	car	843.816	-241.180	0.000	0.000	180.000	696.000	987.000	-0.000	Terminate	
"Student17Mode3"	"Tanvi_6"	"Dec 01, 2016 11:05:38 AM"	Unknown	66.98467	11/01/0116 11:06.49	00004019	7.813	Inter615t31-0	-0.659	1	1	356.903	11.111	17.6	0.000	0.704	D	F	689.1	0.304	-0.247	-0.070	1499.719	1261.686	0.043	L	0.508	-8.157	-	-	-	22	1.640	12.814	1.640	PAVEMENT_GENERAL	Urban	F	1011101000111101	0000000000000000	-	car	847.003	-330.098	0.000	0.000	180.000	696.000	987.000	-0.000	Terminate	
"Student17Mode3"	"Tanvi_6"	"Dec 01, 2016 11:05:38 AM"	Unknown	67.98470	11/01/0116 11:06.50	00004079	0.113	Inter615t31-0	-0.405	1	1	356.903	11.111	-7.5	0.000	0.663	D	F	477.5	1.003	-0.081	-0.008	1499.773	1265.393	0.043	L	0.021	-3.827	-	-	-	22	59.894	6.783	59.894	PAVEMENT_GENERAL	Urban	F	1011101000111101	0000000000000000	-	car	848.260	-21789.012	0.000	0.000	180.000	696.000	987.000	-0.000	Terminate	
"Student17Mode3"	"Tanvi_6"	"Dec 01, 2016 11:05:38 AM"	Unknown	68.98471	11/01/0116 11:06.51	00004139	-0.001	Inter615t31-0	-0.404	1	1	356.903	11.111	-5.6	0.000	0.719	D	F	477.5	1.003	0.200	0.001	1499.773	1265.397	0.034	L	-0.000	-0.002	-	-	-	22	-	6.783	-	PAVEMENT_GENERAL	Urban	F	1011101000111101	0000000000000000	-	car	848.261	1923801.000	0.000	0.000	180.000	696.000	987.000	-0.000	Terminate	
"Student17Mode3"	"Tanvi_6"	"Dec 01, 2016 11:05:38 AM"	Unknown	69.98473	11/01/0116 11:06.52	00004199	-0.001	Inter615t31-0	-0.405	1	1	356.903	11.111	-4.0	0.000	0.564	D	F	477.5	1.003	0.212	0.000	1499.773	1265.396	0.030	L	0.000	0.001	-	-	-	22	-	6.784	-	PAVEMENT_GENERAL	Urban	F	1011101000111101	0000000000000000	-	car	848.261	4145087.000	0.000	0.000	180.000	696.000	987.000	-0.000	Terminate	
"Student17Mode3"	"Tanvi_6"	"Dec 01, 2016 11:05:38 AM"	Unknown	70.98476	11/01/0116 11:06.53	00004259	-0.000	Inter615t31-0	-0.405	1	1	356.903	11.111	-4.6	0.000	0.463	D	F	477.5	1.003	0.211	0.000	1499.773	1265.395	0.028	L	-0.000	0.000	-	-	-	22	-	6.785	-	PAVEMENT_GENERAL	Urban	F	1011101000111101	0000000000000000	-	car	848.261	10716958.000	0.000	0.000	180.000	696.000	987.000	-0.000	Terminate	
"Student17Mode3"	"Tanvi_6"	"Dec 01, 2016 11:05:38 AM"	Unknown	71.98477	11/01/0116 11:06.54	00004319	-0.000	Inter615t31-0	-0.405	1	1	356.903	11.111	-4.9	0.000	0.000	D	F	477.5	1.003	0.210	0.000	1499.773	1265.395	0.028	L	-0.000	0.000	-	-	-	22	-	6.785	-	PAVEMENT_GENERAL	Urban	F	1011101000111101	0000000000000000	-	car	848.261	39630024.000	0.000	0.000	180.000	696.000	987.000	-0.000	Terminate	
"Student17Mode3"	"Tanvi_6"	"Dec 01, 2016 11:05:38 AM"	Unknown	72.98479	11/01/0116 11:06.55	00004379	0.000	Inter615t31-0	-0.405	1	1	356.903	11.111	-5.0	0.000	0.081	D	F	477.5	1.003	0.208	-0.000	1499.773	1265.396	0.028	L	0.000	-0.000	-	-	-	22	-	6.785	-	PAVEMENT_GENERAL	Urban	F	1011101000111101	0000000000000000	-	car	848.261	-5576155.000	0.000	0.000	180.000	696.000	987.000	-0.000	Terminate	
"Student17Mode3"	"Tanvi_6"	"Dec 01, 2016 11:05:38 AM"	Unknown	73.98481	11/01/0116 11:06.56	00004439	0.000	Inter615t31-0	-0.405	1	1	356.903	11.111	-5.1	0.000	0.087	D	F	477.5	1.003	0.208	-0.000	1499.773	1265.396	0.027	L	0.000	-0.000	-	-	-	22	-	6.784	-	PAVEMENT_GENERAL	Urban	F	1011101000111101	0000000000000000	-	car	848.261	-10994336.000	0.000	0.000	180.000	696.000	987.000	-0.000	Terminate	
"Student17Mode3"	"Tanvi_6"	"Dec 01, 2016 11:05:38 AM"	Unknown	74.98483	11/01/0116 11:06.57	00004499	0.000	Inter615t31-0	-0.405	1	1	356.903	11.111	-5.1	0.000	0.093	D	F	477.5	1.003	0.208	-0.000	1499.773	1265.396	0.028	L	0.000	-0.000	-	-	-	22	-	6.784	-	PAVEMENT_GENERAL	Urban	F	1011101000111101	0000000000000000	-	car	848.261	-39389180.000	0.000	0.000	180.000	696.000	987.000	-0.000	Terminate	
"Student17Mode3"	"Tanvi_6"	"Dec 01, 2016 11:05:38 AM"	Unknown	75.98486	11/01/0116 11:06.58	00004559	0.000	Inter615t31-0	-0.405	1	1	356.903	11.111	-5.1	0.000	0.096	D	F	477.5	1.003	0.208	-0.000	1499.773	1265.396	0.028	L	0.000	-0.000	-	-	-	22	-	6.784	-	PAVEMENT_GENERAL	Urban	F	1011101000111101	0000000000000000	-	car	848.261	-216463984.000	0.000	0.000	180.000	696.000	987.000	-0.000	Terminate	
"Student17Mode3"	"Tanvi_6"	"Dec 01, 2016 11:05:38 AM"	Unknown	76.98487	11/01/0116 11:06.59	00004619	0.000	Inter615t31-0	-0.405	1	1	356.903	11.111	-5.1	0.000	0.096	D	F	477.5	1.003	0.208	-0.000	1499.773	1265.396	0.028	L	0.000	-0.000	-	-	-	22	-	6.784	-	PAVEMENT_GENERAL	Urban	F	1011101000111101	0000000000000000	-	car	848.261	-545299520.000	0.000	0.000	180.000	696.000	987.000	-0.000	Terminate	
"Student17Mode3"	"Tanvi_6"	"Dec 01, 2016 11:05:38 AM"	Unknown	77.98489	11/01/0116 11:07.00	00004679	0.000	Inter615t31-0	-0.405	1	1	356.903	11.111	-5.3	0.000	0.093	D	F	477.5	1.003	0.208	-0.000	1499.773	1265.396	0.028	L	0.000	-0.000	-	-	-	22	-	6.784	-	PAVEMENT_GENERAL	Urban	F	1011101000111101	0000000000000000	-	car	848.261	-	0.000	0.000	180.000	696.000	987.000	-0.000	Terminate	
"Student17Mode3"	"Tanvi_6"	"Dec 01, 2016 11:05:38 AM"	Unknown	78.98492	11/01/0116 11:07.01	00004739	0.000	Inter615t31-0	-0.405	1	1	356.903	11.111	-4.6	0.000	0.099	D	F	477.5	1.003	0.209	-0.000	1499.773	1265.396	0.028	L	0.000	-0.000	-	-	-	22	-	6.784	-	PAVEMENT_GENERAL	Urban	F	1011101000111101	0000000000000000	-	car	848.261	-	0.000	0.000	180.000	696.000	987.000	-0.000	Terminate	
"Student17Mode3"	"Tanvi_6"	"Dec 01, 2016 11:05:38 AM"	Unknown	79.98493	11/01/0116 11:07.02	00004799	0.000	Inter615t31-0	-0.405	1	1	356.903	11.111	-4.9	0.000	0.096	D	F	477.5	1.003	0.209	-0.000	1499.773	1265.396	0.028	L	0.000	-0.000	-	-	-	22	-	6.784	-	PAVEMENT_GENERAL	Urban	F	1011101000111101	0000000000000000	-	car	848.261	-	0.000	0.000	180.000	696.000	987.000	-0.000	Terminate	
"Student17Mode3"	"Tanvi_6"	"Dec 01, 2016 11:05:38 AM"	Unknown	80.98495	11/01/0116 11:07.03	00004859	0.000	Inter615t31-0	-0.405	1	1	356.903	11.111	-4.9	0.000	0.101	D	F	477.5	1.003	0.209	-0.000	1499.773	1265.396	0.028	L	-0.000	-0.000	-	-	-	22	-	6.784	-	PAVEMENT_GENERAL	Urban	F	1011101000111101	0000000000000000	-	car	848.261	-	0.000	0.000	180.000	696.000	987.000	-0.000	Terminate	
"Student17Mode3"	"Tanvi_6"	"Dec 01, 2016 11:05:38 AM"	Unknown	81.98497	11/01/0116 11:07.04	00004919	0.000	Inter615t31-0	-0.405	1	1	356.903	11.111	-4.3	0.000	0.104	D	F	477.5	1.003	0.209	-0.000	1499.773	1265.396	0.028	L	0.000	0.000	-	-	-	22	-	6.784	-	PAVEMENT_GENERAL	Urban	F	1011101000111101	0000000000000000	-	car	848.261	-	0.000	0.000	180.000	696.000	987.000	-0.000	Terminate	
"Student17Mode3"	"Tanvi_6"	"Dec 01, 2016 11:05:38 AM"	Unknown	82.98499	11/01/0116 11:07.05	00004979	0.000	Inter615t31-0	-0.405	1	1	356.903	11.111	-4.0	0.000	0.110	D	F	477.5	1.003	0.209	-0.000	1499.773	1265.396	0.028	L	0.000	-0.000	-	-	-	22	-	6.784	-	PAVEMENT_GENERAL	Urban	F	1011101000111101	0000000000000000	-	car	848.261	-	0.000	0.000	180.000	696.000	987.000	-0.000	Terminate	
"Student17Mode3"	"Tanvi_6"	"Dec 01, 2016 11:05:38 AM"	Unknown	83.98502	11/01/0116 11:07.06	00005039	0.000	Inter615t31-0	-0.405	1	1	356.903	11.111	-4.4	0.000	0.110	D	F	477.5	1.003	0.209	-0.000	1499.773	1265.396	0.028	L	-0.000	-0.000	-	-	-	22	-	6.784	-	PAVEMENT_GENERAL	Urban	F	1011101000111101	0000000000000000	-	car	848.261	-	0.000	0.000	180.000	696.000	987.000	-0.000	Terminate	
"Student17Mode3"	"Tanvi_6"	"Dec 01, 2016 11:05:38 AM"	Unknown	84.98503	11/01/0116 11:07.07	00005099	0.000	Inter615t31-0	-0.405	1	1	356.903	11.111	-3.9	0.000	0.107	D	F	477.5	1.003	0.209	-0.000	1499.773	1265.396	0.028	L	0.000	-0.000	-	-	-	22	-	6.784	-	PAVEMENT_GENERAL	Urban	F	1011101000111101	0000000000000000	-	car	848.261	-	0.000	0.000	180.000	696.000	987.000	-0.000	Terminate	
"Student17Mode3"	"Tanvi_6"	"Dec 01, 2016 11:05:38 AM"	Unknown	85.98505	11/01/0116 11:07.08	00005159	0.000	Inter615t31-0	-0.405	1	1	356.903	11.111	-3.9	0.000	0.110	D	F	477.5	1.003	0.209	-0.000	1499.773	1265.396	0.028	L	-0.000	0.000	-	-	-	22	-	6.784	-	PAVEMENT_GENERAL	Urban	F	1111101000111101	0000000000000000	-	car	848.261	-	0.000	0.000	180.000	696.000	987.000	-0.000	Terminate	
"Student17Mode3"	"Tanvi_6"	"Dec 01, 2016 11:05:38 AM"	Unknown	86.98507	11/01/0116 11:07.09	00005219	0.000	Inter615t31-0	-0.405	1	1	356.903	11.111	-3.9	0.000	0.063	D	F	477.5	1.003	0.209	0.000	1499.773	1265.396	0.028	L	-0.000	0.000	-	-	-	22	-	6.784	-	PAVEMENT_GENERAL	Urban	F	1011101000111101	0000000000000000	-	car	848.261	-	0.000	0.000	180.000	696.000	987.000	-0.000	Terminate	
"Student17Mode3"	"Tanvi_6"	"Dec 01, 2016 11:05:38 AM"	Unknown	87.98509	11/01/0116 11:07.10	00005279	0.003	Inter615t31-0	-0.404	1	1	356.903	11.111	-3.9	0.000	0.000	D	F	477.5	1.003	0.208	0.000	1499.773	1265.396	0.027	L	-0.000	0.013	-	-	-	22	-	6.784	-	PAVEMENT_GENERAL	Urban	F	1011101000111101	0000000000000000	-	car	848.261	-948249.438	0.000	0.000	180.000	696.000	987.000	-0.000	Terminate	
"Student17Mode3"	"Tanvi_6"	"Dec 01, 2016 11:05:38 AM"	Unknown	88.98512	11/01/0116 11:07.11	00005339	0.015	Inter615t31-0	-0.404	1	1	356.903	11.111	-3.9	0.000	0.000	D	F	477.5	1.001	0.196	-0.000	1499.773	1265.405	0.024	L	-0.000	0.027	-	-	-	22	452.586	6.775	452.586	PAVEMENT_GENERAL	Urban	F	1011101000111101	0000000000000000	-	car	848.264	-164835.156	0.000	0.000	180.000	696.000	987.000	-0.000	Terminate	
"Student17Mode3"	"Tanvi_6"	"Dec 01, 2016 11:05:38 AM"	Unknown	89.98513	11/01/0116 11:07.12	00005399	0.144	Inter615t31-0	-0.400	1	1	356.903	11.111	-3.9	0.000	0.000	D	F	477.5	0.995	0.206	0.000	1499.774	1265.468	0.025	L	-0.000	0.211	-	-	-	22	46.685	6.712	46.685	PAVEMENT_GENERAL	Urban	F	1011101000111101	0000000000000000	-	car	848.286	-17164.797	0.000	0.000	180.000	696.000	987.000	-0.000	Terminate	
"Student17Mode3"	"Tanvi_6"	"Dec 01, 2016 11:05:38 AM"	Unknown	90.98515	11/01/0116 11:07.13	00005459	0.194	Inter615t31-0	-0.384	1	1	356.903	11.111	-3.9	0.000	0.113	D	F	477.5	0.976	0.180	-0.000	1499.778	1265.697	0.026	L	0.001	-0.506	-	-	-	22	35.244	6.834	-	PAVEMENT_GENERAL	Urban	F	1011101000111101	0000000000000000	-	car	848.364	-12732.377	0.000	0.000	180.000	696.000	987.000	-0.000	Terminate	
"Student17Mode3"	"Tanvi_6"	"Dec 01, 2016 11:05:38 AM"	Unknown	91.98518	11/01/0116 11:07.14	00005519	0.000	Inter615t31-0	-0.381	1	1	356.903	11.111	-3.8	0.000	0.000	D	F	477.5	0.973	0.211	0.000	1499.778	1265.736	0.028	L	-0.000	0.000	-	-	-	22	-	8.976	-	PAVEMENT_GENERAL	Urban	F	1011101000111101	0000000000000000	-	car	848.377	-17996924.000	0.000	0.000	180.000	696.000	987.000	-0.000	Terminate	
"Student17Mode3"	"Tanvi_6"	"Dec 01, 2016 11:05:38 AM"	Unknown	92.98519	11/01/0116 11:07.15	00005579	0.084	Inter615t31-0	-0.380	1	1	356.903	11.111	-3.8	0.099	0.000	D	F	1165.3	0.972	0.210	-0.000	1499.778	1265.746	0.022	L	-0.002	0.517	-	-	-	22	156.817	13.199	-	PAVEMENT_GENERAL	Urban	F	1011101000111101	0000000000000000	-	car	848.381	-29332.090	0.000	0.000	180.000	696.000	987.000	-0.000	Terminate	
"Student17Mode3"	"Tanvi_6"	"Dec 01, 2016 11:05:38 AM"	Unknown	93.98521	11/01/0116 11:07.16	00005639	2.728	Inter615t31-0	-0.288	1	1	356.903	11.111	-1.6	0.143	0.000	D	F	1431.1	0.881	0.220	0.000	1499.798	1267.105	0.014	L	-0.000	2.502	-	-	-	22	6.608	18.029	-	PAVEMENT_GENERAL	Urban	F	1011101000111101	0000000000000000	-	car	848.845	-905.637	0.000	0.000	180.000	696.000	987.000	-0.000	Terminate	
"Student17Mode3"	"Tanvi_6"	"Dec 01, 2016 11:05:38 AM"	Unknown	94.98523	11/01/0116 11:07.17	00005699	4.802	Inter615t11-0	-0.209	LT1	2	0.000	11.111	-2.9	0.146	0.000	D	F	1673.5	0.810	0.213	0.005	1499.853	1270.940	0.018	L	-0.033	1.629	-	-	-	22	5.148	24.724	-	PAVEMENT_GENERAL	Urban	F	1011101000111101	0000000000000000	-	car	850.167	-511.143	0.000	0.000	180.000	696.000	987.000	-0.000	Terminate	
"Student17Mode3"	"Tanvi_6"	"Dec 01, 2016 11:05:38 AM"	Unknown	95.98525	11/01/0116 11:07.18	00005759	6.298	Inter615t11-0	-0.182	LT1	2	0.000	11.111	-27.0	0.153	0.000	D	F	1610.2	359.867	0.212	0.058	1499.881	1276.527	0.020	L	-0.423	1.247	-	-	-	22	4.586	28.883	-	PAVEMENT_GENERAL	Urban	F	1011101000111101	0000000000000000	-	car	852.070	-401.882	0.000	0.000	180.000	696.000	987.000	-0.000	Terminate	
"Student17Mode3"	"Tanvi_6"	"Dec 01, 2016 11:05:38 AM"	Unknown	96.98528	11/01/0116 11:07.19	00005819	7.378	Inter615t65-0	-0.658	1	1	352.966	11.111	-111.4	0.155	0.000	D	F	1609.4	351.758	0.205	0.286	1499.316	1283.351	0.022	L	-2.094	0.902	-	-	-	22	4.464	32.936	-	PAVEMENT_GENERAL	Urban	F	1011101000111101	0000000000000000	-	car	853.877	-556.273	0.000	0.000	180.000	696.000	987.000	-0.000	Terminate	
"Student17Mode3"	"Tanvi_6"	"Dec 01, 2016 11:05:38 AM"	Unknown	97.98529	11/01/0116 11:07.20	00005879	8.265	Inter615t65-0	-1.115	1	1	332.752	11.111	-123.3	0.178	0.000	D	F	1729.0	332.474	0.192	0.343	1496.628	1290.660	0.023	L	-2.704	0.863	-	-	-	22	4.652	38.450	-	PAVEMENT_GENERAL	Urban	F	1011101000111101	0000000000000000	-	car	853.920	878.360	0.000	0.000	180.000	696.000	987.000	-0.000	Terminate	
"Student17Mode3"	"Tanvi_6"	"Dec 01, 2016 11:05:38 AM"	Unknown	98.98531	11/01/0116 11:07.21	00005939	9.218	Inter615t65-0	-1.634	1	1	312.973	11.111	-118.7	0.185	0.000	D	F	1817.9	313.073	0.192	0.408	1491.100	1297.400	0.024	L	-3.141	0.827	-	-	-	22	4.793	44.183	-	PAVEMENT_GENERAL	Urban	F	1011101000111101	0000000000000000	-	car	851.181	213.696	0.000	0.000	180.000	696.000	987.000	-0.000	Terminate	
"Student17Mode3"	"Tanvi_6"	"Dec 01, 2016 11:05:38 AM"	Unknown	99.98534	11/01/0116 11:07.22	00005999	9.968	Inter615t65-0	-1.216	1	1	275.112	11.111	-144.1	0.180	0.000	D	F	1858.2	290.319	0.179	0.565	1482.853	1302.237	0.027	L	-4.321	0.576	-	-	-	22	4.855	48.396	-	PAVEMENT_GENERAL	Urban	F	1011101000111101	0000000000000000	-	car	845.291	114.381	0.000	0.000	180.000	696.000	987.000	-0.000	Terminate	
"Student17Mode3"	"Tanvi_6"	"Dec 01, 2016 11:05:38 AM"	Unknown	100.98535	11/01/0116 11:07.23	00006059	10.662	Inter615t3-3	-0.038	1	2	270.000	11.111	-44.4	0.192	0.000	D	F	1935.8	268.420	0.176	0.214	1472.690	1303.493	0.024	L	-1.917	0.817	-	-	-	22	5.506	58.704	-	PAVEMENT_GENERAL	Urban	F	1111101000111101	0000000000000000	-	car	836.339	83.796	0.000	0.000	180.000	696.000	987.000	-0.000	Terminate	
"Student17Mode3"	"Tanvi_6"	"Dec 01, 2016 11:05:38 AM"	Unknown	101.98537	11/01/0116 11:07.24	00006119	11.529	Inter615t19-0	-0.546	1	1	270.079	11.111	22.5	0.208	0.000	D	F	2071.4	268.750	0.207	-0.109	1461.609	1302.991	0.022	-	0.845	0.899	-	-	-	22	5.807	66.951	-	PAVEMENT_GENERAL	Urban	F	1011101000011101	0000000000000000	-	car	825.896	76.823	0.000	0.000	180.000	696.000	987.000	-0.000	Terminate	
"Student17Mode3"	"Tanvi_6"	"Dec 01, 2016 11:05:38 AM"	Unknown	102.98539	11/01/0116 11:07.25	00006179	12.470	Inter615t19-0	-0.467	1	1	270.111	11.111	0.7	0.222	0.000	D	F	2200.6	271.289	0.206	-0.007	1449.615	1303.083	0.022	-	0.098	0.940	-	-	-	22	5.998	74.794	-	PAVEMENT_GENERAL	Urban	F	1011101000011101	0000000000000000	-	car	814.858	71.553	0.000	0.000	180.000	696.000	987.000	-0.000	Terminate	
"Student17Mode3"	"Tanvi_6"	"Dec 01, 2016 11:05:38 AM"	Unknown	103.98541	11/01/0116 11:07.26	00006239	13.403	Inter615t19-0	-0.225	1	1	270.070	11.111	-2.5	0.233	0.000	D	F	2317.7	271.075	0.206	0.003	1436.678	1303.351	0.022	-	-0.065	0.930	-	-	-	22	6.116	81.975	-	PAVEMENT_GENERAL	Urban	F	1011101000011101	0000000000000000	-	car	803.049	65.690	0.000	0.000	180.000	696.000	987.000	-0.000	Terminate	
"Student17Mode3"	"Tanvi_6"	"Dec 01, 2016 11:05:38 AM"	Unknown	104.98544	11/01/0116 11:07.27	00006299	14.316	Inter615t19-0	-0.097	1	1	270.061	11.111	-3.0	0.235	0.000	D	F	2447.5	270.063	0.204	0.020	1422.816	1303.497	0.022	-	-0.190	0.898	-	-	-	22	6.163	88.232	-	PAVEMENT_GENERAL	Urban	F	1011101000011101	0000000000000000	-	car	790.378	60.248	0.000	0.000	180.000	696.000	987.000	-0.000	Terminate	
"Student17Mode3"	"Tanvi_6"	"Dec 01, 2016 11:05:38 AM"	Unknown	105.98545	11/01/0116 11:07.28	00006359	15.141	Inter615t1-2	-0.165	1	2	270.000	11.111	-4.3	0.222	0.000	D	F	1989.0	269.408	0.199	0.026	1408.064	1303.435	0.023	-	-0.200	0.629	-	-	-	22	6.182	93.600	-	PAVEMENT_GENERAL	Urban	F	1111101000011101	0000000000000000	-	car	776.849	55.892	0.000	0.000	180.000	696.000	987.000	-0.000	Terminate	
"Student17Mode3"	"Tanvi_6"	"Dec 01, 2016 11:05:38 AM"	Unknown	106.98547	11/01/0116 11:07.29	00006419	15.744	Inter616t1-2	-0.417	1	2	270.000	11.111	1.4	0.226	0.000	D	F	1982.0	268.978	0.200	-0.008	1392.620	1303.189	0.024	-	0.054	0.582	-	-	-	22	6.242	98.268	-	PAVEMENT_GENERAL	Urban	F	1011101000011101	0000000000000000	-	car	762.660	52.780	0.000	0.000	180.000	696.000	987.000	-0.000	Terminate	
"Student17Mode3"	"Tanvi_6"	"Dec 01, 2016 11:05:38 AM"	Unknown	107.98550	11/01/0116 11:07.30	00006479	16.312	Inter616t1-2	-0.655	1	2	270.000	11.111	3.0	0.235	0.000	D	F	2017.4	269.403	0.199	-0.021	1376.592	1302.952	0.024	-	0.160	0.567	-	-	-	22	6.275	102.360	-	PAVEMENT_GENERAL	Urban	F	1011101000011101	0000000000000000	-	car	747.994	50.314	0.000	0.000	180.000	696.000	987.000	-0.000	Terminate	
"Student17Mode3"	"Tanvi_6"	"Dec 01, 2016 11:05:38 AM"	Unknown	108.98551	11/01/0116 11:07.31	00006539	16.859	Inter616t1-2	-0.741	1	2	270.000	11.111	3.1	0.235	0.000	D	F	2041.9	270.070	0.197	-0.024	1360.003	1302.866	0.024	-	0.187	0.528	-	-	-	22	6.281	105.891	-	PAVEMENT_GENERAL	Urban	F	1011101000011101	0000000000000000	-	car	732.944	48.173	0.000	0.000	180.000	696.000	987.000	-0.000	Terminate	
"Student17Mode3"	"Tanvi_6"	"Dec 01, 2016 11:05:38 AM"	Unknown	109.98553	11/01/0116 11:07.32	00006599	17.371	Inter616t1-2	-0.653	1	2	270.000	11.111	1.8	0.236	0.000	D	F	2069.9	270.546	0.196	-0.014	1342.886	1302.954	0.024	-	0.116	0.501	-	-	-	22	6.269	108.894	-	PAVEMENT_GENERAL	Urban	F	1011101000011101	0000000000000000	-	car	717.563	46.188	0.000	0.000	180.000	696.000	987.000	-0.000	Terminate	
"Student17Mode3"	"Tanvi_6"	"Dec 01, 2016 11:05:38 AM"	Unknown	110.98555	11/01/0116 11:07.33	00006659	17.852	Inter616t1-2	-0.482	1	2	270.000	11.111	-1.6	0.226	0.000	D	F	2090.3	270.437	0.195	0.014	1325.271	1303.125	0.024	-	-0.104	0.452	-	-	-	22	6.240	111.398	-	PAVEMENT_GENERAL	Urban	F	1011101000011101	0000000000000000	-	car	701.854	44.168	0.000	0.000	180.000	696.000	987.000	-0.000	Terminate	
"Student17Mode3"	"Tanvi_6"	"Dec 01, 2016 11:05:38 AM"	Unknown	111.98557	11/01/0116 11:07.34	00006719	18.297	Inter616t1-2	-0.392	1	2	270.000	11.111	-2.0	0.231	0.000	D	F	2127.7	270.054	0.195	0.018	1307.196	1303.215	0.025	-	-0.134	0.443	-	-	-	22	6.200	113.442	-	PAVEMENT_GENERAL	Urban	F	1011101000011101	0000000000000000	-	car	685.792	42.222	0.000	0.000	180.000	696.000	987.000	-0.000	Terminate	
"Student17Mode3"	"Tanvi_6"	"Dec 01, 2016 11:05:38 AM"	Unknown	112.98560	11/01/0116 11:07.35	00006779	18.694	Inter616t1-2	-0.415	1	2	270.000	11.111	-1.0	0.203	0.000	D	F	2115.3	269.767	0.193	0.010	1288.690	1303.192	0.025	-	-0.079	0.313	-	-	-	22	6.155	115.056	-	PAVEMENT_GENERAL	Urban	F	1011101000011101	0000000000000000	-	car	669.399	40.497	0.000	0.000	180.000	696.000	987.000	-0.000	Terminate	
"Student17Mode3"	"Tanvi_6"	"Dec 01, 2016 11:05:38 AM"	Unknown	113.98561	11/01/0116 11:07.36	00006839	19.018	Inter616t1-2	-0.498	1	2	270.000	11.111	0.6	0.208	0.000	D	F	2148.9	269.756	0.192	-0.004	1269.837	1303.109	0.025	-	0.027	0.327	-	-	-	22	6.117	116.322	-	PAVEMENT_GENERAL	Urban	F	1011101000011101	0000000000000000	-	car	652.784	39.097	0.000	0.000	180.000	696.000	987.000	-0.000	Terminate	
"Student17Mode3"	"Tanvi_6"	"Dec 01, 2016 11:05:38 AM"	Unknown	114.98563	11/01/0116 11:07.37	00006899	19.355	Inter616t1-2	-0.552	1	2	270.000	11.111	0.6	0.213	0.000	D	F	2185.0	269.993	0.192	-0.010	1250.652	1303.055	0.025	-	0.078	0.346	-	-	-	22	6.058	117.257	-	PAVEMENT_GENERAL	Urban	F	1011101000011101	0000000000000000	-	car	636.021	37.818	0.000	0.000	180.000	696.000	987.000	-0.000	Terminate	
"Student17Mode3"	"Tanvi_6"	"Dec 01, 2016 11:05:38 AM"	Unknown	115.98566	11/01/0116 11:07.38	00006959	19.713	Inter616t1-2	-0.538	1	2	270.000	11.111	0.7	0.226	0.000	D	F	2225.7	270.119	0.191	-0.006	1231.122	1303.069	0.025	-	0.045	0.371	-	-	-	22	5.978	117.847	-	PAVEMENT_GENERAL	Urban	F	1011101000011101	0000000000000000	-	car	619.135	36.522	0.000	0.000	180.000	696.000	987.000	-0.000	Terminate	
"Student17Mode3"	"Tanvi_6"	"Dec 01, 2016 11:05:38 AM"	Unknown	116.98567	11/01/0116 11:07.39	00007019	20.083	Inter616t1-2	-0.481	1	2	270.000	11.111	0.1	0.224	0.000	D	F	2254.3	270.200	0.191	-0.001	1211.223	1303.125	0.025	-	0.010	0.365	-	-	-	22	5.879	118.068	-	PAVEMENT_GENERAL	Urban	F	1111101000011101	0000000000000000	-	car	602.116	35.251	0.000	0.000	180.000	696.000	987.000	-0.000	Terminate	
"Student17Mode3"	"Tanvi_6"	"Dec 01, 2016 11:05:38 AM"	Unknown	117.98569	11/01/0116 11:07.40	00007079	20.441	Inter617t1-2	-0.419	1	2	270.000	11.111	-0.5	0.228	0.000	D	F	2279.3	270.111	0.190	0.006	1190.960	1303.188	0.025	-	-0.044	0.353	-	-	-	22	5.769	117.925	362.619	PAVEMENT_GENERAL	Urban	F	1011101000011101	0000000000000000	-	car	584.974	34.000	0.000	0.000	180.000	696.000	987.000	-0.000	Terminate	
"Student17Mode3"	"Tanvi_6"	"Dec 01, 2016 11:05:38 AM"	Unknown	118.98571	11/01/0116 11:07.41	00007139	20.791	Inter617t1-2	-0.393	1	2	270.000	11.111	-0.2	0.228	0.000	D	F	2307.9	270.013	0.189	0.002	1170.343	1303.214	0.025	-	-0.025	0.347	-	-	-	22	5.648	117.427	173.838	PAVEMENT_GENERAL	Urban	F	1011101000011101	0000000000000000	-	car	567.722	32.822	0.000	0.000	180.000	696.000	987.000	-0.000	Terminate	
"Student17Mode3"	"Tanvi_6"	"Dec 01, 2016 11:05:38 AM"	Unknown	119.98573	11/01/0116 11:07.42	00007199	21.139	Inter617t1-2	-0.400	1	2	270.000	11.111	-0.4	0.228	0.000	D	F	2338.9	269.922	0.189	0.004	1149.377	1303.207	0.025	-	-0.032	0.336	-	-	-	22	5.515	116.580	113.959	PAVEMENT_GENERAL	Urban	F	1011101000011101	0000000000000000	-	car	550.395	31.714	0.000	0.000	180.000	696.000	987.000	-0.000	Terminate	
"Student17Mode3"	"Tanvi_6"	"Dec 01, 2016 11:05:38 AM"	Unknown	120.98576	11/01/0116 11:07.43	00007259	21.452	Inter617t1-2	-0.438	1	2	270.000	11.111	-0.4	0.220	0.000	D	F	2362.2	269.857	0.188	0.003	1128.078	1303.169	0.025	-	-0.024	0.297	-	-	-	22	5.379	115.398	86.350	PAVEMENT_GENERAL	Urban	F	1011101000011101	0000000000000000	-	car	533.041	30.733	0.000	0.000	180.000	696.000	987.000	-0.000	Terminate	
"Student17Mode3"	"Tanvi_6"	"Dec 01, 2016 11:05:38 AM"	Unknown	121.98577	11/01/0116 11:07.44	00007319	21.700	Inter617t1-2	-0.500	1	2	270.000	11.111	0.3	0.187	0.000	D	F	2348.2	269.805	0.186	0.000	1106.495	1303.106	0.026	-	-0.002	0.212	-	-	-	-	-	-	-	PAVEMENT_GENERAL	Urban	F	1011101000011101	0000000000000000	-	car	515.742	29.920	0.000	0.000	180.000	696.000	987.000	-0.000	Terminate	
"Student17Mode3"	"Tanvi_6"	"Dec 01, 2016 11:05:38 AM"	Unknown	122.98579	11/01/0116 11:07.45	00007379	21.173	Inter617t1-2	-0.550	1	2	270.000	11.111	0.5	0.000	0.045	D	F	1449.4	270.035	0.176	-0.009	1085.009	1303.057	0.030	-	0.092	-0.836	-	-	-	-	-	-	-	PAVEMENT_GENERAL	Urban	F	1111101000011101	0000000000000000	-	car	498.859	30.373	0.000	0.000	180.000	696.000	987.000	-0.000	Terminate	
"Student17Mode3"	"Tanvi_6"	"Dec 01, 2016 11:05:38 AM"	Unknown	123.98581	11/01/0116 11:07.46	00007439	18.288	Inter617t1-2	-0.539	1	2	270.000	11.111	0.1	0.000	0.322	D	F	1193.4	270.013	0.114	0.003	1065.028	1303.068	0.037	-	-0.016	-4.205	-	-	-	-	-	-	-	PAVEMENT_GENERAL	Urban	F	1011101000011101	0000000000000000	-	car	483.522	34.817	0.000	0.000	180.000	696.000	987.000	-0.000	Terminate	
"Student17Mode3"	"Tanvi_6"	"Dec 01, 2016 11:05:38 AM"	Unknown	124.98583	11/01/0116 11:07.47	00007499	13.293	Inter617t1-2	-0.524	1	2	270.000	11.111	1.0	0.000	0.397	D	F	903.4	270.149	0.053	-0.009	1049.192	1303.082	0.040	-	0.052	-5.113	-	-	-	-	-	-	-	PAVEMENT_GENERAL	Urban	F	1011101000011101	0000000000000000	-	car	471.616	47.721	0.000	0.000	180.000	696.000	987.000	-0.000	Terminate	
"Student17Mode3"	"Tanvi_6"	"Dec 01, 2016 11:05:38 AM"	Unknown	125.98586	11/01/0116 11:07.48	00007559	7.941	Inter617t1-2	-0.472	1	2	270.000	11.111	0.1	0.000	0.427	D	F	732.4	270.452	0.025	-0.002	1038.558	1303.135	0.040	-	0.016	-5.341	-	-	-	-	-	-	-	PAVEMENT_GENERAL	Urban	F	1011101000011101	0000000000000000	-	car	463.781	80.054	0.000	0.000	180.000	696.000	987.000	-0.000	Terminate	
"Student17Mode3"	"Tanvi_6"	"Dec 01, 2016 11:05:38 AM"	Unknown	126.98587	11/01/0116 11:07.49	00007619	4.741	Inter617t1-2	-0.425	1	2	270.000	11.111	0.2	0.000	0.000	D	F	477.5	270.472	0.209	-0.000	1032.755	1303.182	0.029	-	0.001	-0.437	-	-	-	-	-	-	-	PAVEMENT_GENERAL	Urban	F	1011101000011101	0000000000000000	-	car	459.566	133.997	0.000	0.000	180.000	696.000	987.000	-0.000	Terminate	
"Student17Mode3"	"Tanvi_6"	"Dec 01, 2016 11:05:38 AM"	Unknown	127.98589	11/01/0116 11:07.50	00007679	4.301	Inter617t1-2	-0.386	1	2	270.000	11.111	1.8	0.012	0.000	D	F	565.0	270.517	0.198	-0.004	1028.230	1303.221	0.028	-	0.021	-0.482	-	-	-	-	-	-	-	PAVEMENT_GENERAL	Urban	F	1011101000011101	0000000000000000	-	car	456.304	147.734	0.000	0.000	180.000	696.000	987.000	-0.000	Terminate	
"Student17Mode3"	"Tanvi_6"	"Dec 01, 2016 11:05:38 AM"	Unknown	128.98592	11/01/0116 11:07.51	00007739	4.698	Inter617t1-2	-0.335	1	2	270.000	11.111	1.3	0.111	0.000	D	F	1356.5	270.693	0.217	-0.001	1023.848	1303.272	0.022	-	0.006	1.039	-	-	-	-	-	-	-	PAVEMENT_GENERAL	Urban	F	1011101000011101	0000000000000000	-	car	453.176	135.608	0.000	0.000	180.000	696.000	987.000	-0.000	Terminate	
"Student17Mode3"	"Tanvi_6"	"Dec 01, 2016 11:05:38 AM"	Unknown	129.98593	11/01/0116 11:07.52	00007799	5.799	Inter617t1-2	-0.264	1	2	270.000	11.111	-0.3	0.153	0.000	D	F	1506.3	270.789	0.215	0.002	1018.613	1303.343	0.021	-	-0.006	1.171	-	-	-	-	-	-	-	PAVEMENT_GENERAL	Urban	F	1011101000011101	0000000000000000	-	car	449.473	110.044	0.000	0.000	180.000	696.000	987.000	-0.000	Terminate	
"Student17Mode3"	"Tanvi_6"	"Dec 01, 2016 11:05:38 AM"	Unknown	130.98595	11/01/0116 11:07.53	00007859	7.229	Inter617t1-2	-0.175	1	2	270.000	11.111	2.9	0.215	0.000	D	F	1762.1	270.823	0.218	-0.008	1012.121	1303.432	0.019	-	0.055	1.534	-	-	-	-	-	-	-	PAVEMENT_GENERAL	Urban	F	1011101000011101	0000000000000000	-	car	444.923	88.359	0.000	0.000	180.000	696.000	987.000	-0.000	Terminate	
"Student17Mode3"	"Tanvi_6"	"Dec 01, 2016 11:05:38 AM"	Unknown	131.98598	11/01/0116 11:07.54	00007919	8.809	Inter617t1-2	-0.037	1	2	270.000	11.111	-0.8	0.266	0.000	D	F	1920.8	271.016	0.216	0.003	1004.100	1303.570	0.019	-	-0.015	1.544	-	-	-	-	-	-	-	PAVEMENT_GENERAL	Urban	F	1011101000011101	0000000000000000	-	car	439.390	72.856	0.000	0.000	180.000	696.000	987.000	-0.000	Terminate	
"Student17Mode3"	"Tanvi_6"	"Dec 01, 2016 11:05:38 AM"	Unknown	132.98599	11/01/0116 11:07.55	00007979	10.265	Inter618t1-0	-0.586	1	2	270.000	24.444	-1.3	0.279	0.000	D	F	2041.9	270.744	0.230	0.000	994.552	1303.714	0.020	-	-0.050	1.381	-	-	-	32	4.498	46.172	-	FREEWAY_SMOOTH	Urban	F	1011101000011101	0000000000000000	-	car	432.889	62.345	0.000	0.000	180.000	696.000	987.000	-0.000	Terminate	
"Student17Mode3"	"Tanvi_6"	"Dec 01, 2016 11:05:38 AM"	Unknown	133.98601	11/01/0116 11:07.56	00008039	11.645	Inter618t1-0	-0.480	1	2	269.862	24.444	-3.9	0.317	0.000	D	F	2203.5	270.219	0.269	-0.144	983.600	1303.811	0.030	-	-0.155	1.403	-	-	-	32	4.358	50.750	-	FREEWAY_SMOOTH	Urban	F	1011101000011101	0000000000000000	-	car	425.522	54.596	0.000	0.000	180.000	696.000	987.000	-0.000	Terminate	
"Student17Mode3"	"Tanvi_6"	"Dec 01, 2016 11:05:38 AM"	Unknown	134.98604	11/01/0116 11:07.57	00008099	12.991	Inter618t1-0	-0.470	1	2	269.417	24.444	-5.4	0.342	0.000	D	F	2366.1	269.256	0.263	-0.301	971.280	1303.751	0.042	-	-0.251	1.379	-	-	-	32	4.294	55.790	-	FREEWAY_SMOOTH	Urban	F	1011101000011101	0000000000000000	-	car	417.296	48.251	0.000	0.000	180.000	696.000	987.000	-0.000	Terminate	
"Student17Mode3"	"Tanvi_6"	"Dec 01, 2016 11:05:38 AM"	Unknown	135.98605	11/01/0116 11:07.58	00008159	14.375	Inter618t1-0	-0.555	1	2	268.583	24.444	-4.9	0.342	0.000	D	F	2537.0	268.176	0.254	-0.491	957.597	1303.438	0.053	-	-0.277	1.337	-	-	-	32	4.231	60.817	-	FREEWAY_SMOOTH	Urban	F	1011101000011101	0000000000000000	-	car	408.209	42.937	0.000	0.000	180.000	696.000	987.000	-0.000	Terminate	
"Student17Mode3"	"Tanvi_6"	"Dec 01, 2016 11:05:38 AM"	Unknown	136.98607	11/01/0116 11:07.59	00008219	15.760	Inter618t1-0	-0.651	1	2	267.227	24.444	-5.6	0.451	0.000	D	F	2743.1	267.043	0.255	-0.691	942.550	1302.808	0.065	-	-0.347	1.417	-	-	-	32	4.131	65.107	-	FREEWAY_SMOOTH	Urban	F	1011101000011101	0000000000000000	-	car	398.292	38.571	0.000	0.000	180.000	696.000	987.000	-0.000	Terminate	
"Student17Mode3"	"Tanvi_6"	"Dec 01, 2016 11:05:38 AM"	Unknown	137.98610	11/01/0116 11:08.00	00008279	17.133	Inter618t1-0	-0.636	1	2	265.244	24.444	-6.9	0.362	0.000	D	F	2928.0	265.705	0.260	-0.909	926.125	1301.765	0.080	-	-0.440	1.286	-	-	-	32	3.995	68.447	-	FREEWAY_SMOOTH	Urban	F	1011101000011101	0000000000000000	-	car	387.557	34.854	0.000	0.000	180.000	696.000	987.000	-0.000	Terminate	
"Student17Mode3"	"Tanvi_6"	"Dec 01, 2016 11:05:38 AM"	Unknown	138.98611	11/01/0116 11:08.01	00008339	18.400	Inter618t1-0	-0.453	1	2	262.514	24.444	-14.4	0.360	0.000	D	F	3103.1	263.012	0.263	-1.080	908.435	1300.083	0.100	-	-1.025	1.232	-	-	-	32	3.841	70.683	-	FREEWAY_SMOOTH	Urban	F	1011101000011101	0000000000000000	-	car	375.991	31.055	0.000	0.000	180.000	696.000	987.000	-0.000	Terminate	
"Student17Mode3"	"Tanvi_6"	"Dec 01, 2016 11:05:38 AM"	Unknown	139.98613	11/01/0116 11:08.02	00008399	19.488	Inter618t1-0	-0.244	1	2	258.931	24.444	-19.0	0.183	0.000	D	F	2412.1	259.497	0.242	-1.295	889.670	1297.266	0.124	-	-1.383	0.570	-	-	-	32	3.670	71.518	-	FREEWAY_SMOOTH	Urban	F	1011101000011101	0000000000000000	-	car	363.391	27.614	0.000	0.000	180.000	696.000	987.000	-0.000	Terminate	
"Student17Mode3"	"Tanvi_6"	"Dec 01, 2016 11:05:38 AM"	Unknown	140.98616	11/01/0116 11:08.03	00008459	19.408	Inter618t1-0	-0.132	1	2	254.540	24.444	-17.6	0.145	0.000	D	F	1683.1	254.151	0.221	-1.521	870.698	1292.953	0.151	-	-1.756	-0.029	-	-	-	32	3.720	72.200	-	FREEWAY_SMOOTH	Urban	F	1011101000011101	0000000000000000	-	car	349.956	25.249	0.000	0.000	180.000	696.000	987.000	-0.000	Terminate	
"Student17Mode3"	"Tanvi_6"	"Dec 01, 2016 11:05:38 AM"	Unknown	141.98618	11/01/0116 11:08.04	00008519	19.547	Inter618t1-0	-0.182	1	2	249.785	24.444	-18.0	0.235	0.000	D	F	1883.1	249.475	0.174	-1.554	852.199	1286.974	0.149	-	-1.565	0.313	-	-	-	32	3.731	72.930	-	FREEWAY_SMOOTH	Urban	F	1011101000011101	0000000000000000	-	car	335.846	23.108	0.000	0.000	180.000	696.000	987.000	-0.000	Terminate	
"Student17Mode3"	"Tanvi_6"	"Dec 01, 2016 11:05:38 AM"	Unknown	142.98619	11/01/0116 11:08.05	00008579	19.858	Inter618t1-0	-0.169	1	2	244.948	24.444	-17.0	0.247	0.000	D	F	1903.9	245.006	0.185	-1.562	834.003	1279.431	0.149	-	-1.504	0.322	-	-	-	32	3.695	73.365	-	FREEWAY_SMOOTH	Urban	F	1011101000011101	0000000000000000	-	car	320.999	21.023	0.000	0.000	180.000	696.000	987.000	-0.000	Terminate	
"Student17Mode3"	"Tanvi_6"	"Dec 01, 2016 11:05:38 AM"	Unknown	143.98621	11/01/0116 11:08.06	00008639	20.171	Inter618t1-0	-0.021	1	2	240.058	24.444	-18.8	0.265	0.000	D	F	1927.0	240.302	0.188	-1.533	816.172	1270.349	0.154	-	-1.712	0.323	-	-	-	32	3.647	73.569	1343.896	FREEWAY_SMOOTH	Urban	F	1011101000011101	0000000000000000	-	car	305.420	19.040	0.000	0.000	180.000	696.000	987.000	-0.000	Terminate	
"Student17Mode3"	"Tanvi_6"	"Dec 01, 2016 11:05:38 AM"	Unknown	144.98624	11/01/0116 11:08.07	00008699	20.464	Inter618t1-0	0.178	1	2	235.077	24.444	-21.5	0.228	0.000	D	F	1907.3	235.381	0.186	-1.512	798.901	1259.647	0.160	-	-1.863	0.258	-	-	-	32	3.573	73.110	210.370	FREEWAY_SMOOTH	Urban	F	1011101000011101	0000000000000000	-	car	289.059	17.182	0.000	0.000	180.000	696.000	987.000	-0.000	Terminate	
"Student17Mode3"	"Tanvi_6"	"Dec 01, 2016 11:05:38 AM"	Unknown	145.98625	11/01/0116 11:08.08	00008759	20.609	Inter618t1-0	0.251	1	2	230.069	24.444	-22.2	0.194	0.000	D	F	1835.2	229.325	0.153	-1.474	782.523	1247.243	0.163	-	-2.181	0.128	-	-	-	32	3.534	72.829	147.613	FREEWAY_SMOOTH	Urban	F	1011101000011101	0000000000000000	-	car	271.890	15.380	0.000	0.000	180.000	696.000	987.000	-0.000	Terminate	
"Student17Mode3"	"Tanvi_6"	"Dec 01, 2016 11:05:38 AM"	Unknown	146.98627	11/01/0116 11:08.09	00008819	20.731	Inter618t1-0	-0.018	1	2	225.030	24.444	-20.1	0.206	0.000	D	F	1866.9	223.532	0.130	-1.497	767.442	1233.120	0.155	-	-2.005	0.126	-	-	-	32	3.494	72.428	117.724	FREEWAY_SMOOTH	Urban	F	1111101000011101	0000000000000000	-	car	253.920	13.789	0.000	0.000	180.000	696.000	987.000	-0.000	Terminate	
"Student17Mode3"	"Tanvi_6"	"Dec 01, 2016 11:05:38 AM"	Unknown	147.98630	11/01/0116 11:08.10	00008879	20.877	Inter618t1-0	-0.460	1	2	219.929	24.444	-18.4	0.206	0.000	D	F	1877.3	218.350	0.129	-1.520	753.706	1217.504	0.142	-	-1.816	0.167	-	-	-	32	3.440	71.813	94.310	FREEWAY_SMOOTH	Urban	F	1011101000011101	0000000000000000	-	car	235.258	12.363	0.000	0.000	180.000	696.000	987.000	-0.000	Terminate	
"Student17Mode3"	"Tanvi_6"	"Dec 01, 2016 11:05:38 AM"	Unknown	148.98631	11/01/0116 11:08.11	00008939	21.076	Inter618t1-0	-0.857	1	2	214.788	24.444	-16.7	0.219	0.000	D	F	1914.1	213.692	0.143	-1.547	741.278	1200.616	0.129	-	-1.633	0.210	-	-	-	32	3.370	71.025	73.985	FREEWAY_SMOOTH	Urban	F	1011101000011101	0000000000000000	-	car	216.003	11.032	0.000	0.000	180.000	696.000	987.000	-0.000	Terminate	
"Student17Mode3"	"Tanvi_6"	"Dec 01, 2016 11:05:38 AM"	Unknown	149.98633	11/01/0116 11:08.12	00008999	21.277	Inter618t1-0	-1.029	1	2	209.583	24.444	-18.0	0.224	0.000	D	F	1931.3	209.063	0.162	-1.525	730.122	1182.621	0.124	-	-1.779	0.225	-	-	-	32	3.274	69.671	59.991	FREEWAY_SMOOTH	Urban	F	1011101000011101	0000000000000000	-	car	196.216	9.763	0.000	0.000	180.000	696.000	987.000	-0.000	Terminate	
"Student17Mode3"	"Tanvi_6"	"Dec 01, 2016 11:05:38 AM"	Unknown	150.98636	11/01/0116 11:08.13	00009059	21.484	Inter618t1-0	-1.025	1	2	204.327	24.444	-20.1	0.220	0.000	D	F	1925.4	204.090	0.167	-1.501	720.400	1163.580	0.125	-	-1.960	0.179	-	-	-	32	3.187	68.464	50.038	FREEWAY_SMOOTH	Urban	F	1011101000011101	0000000000000000	-	car	175.898	8.527	0.000	0.000	180.000	696.000	987.000	-0.000	Terminate	
"Student17Mode3"	"Tanvi_6"	"Dec 01, 2016 11:05:38 AM"	Unknown	151.98637	11/01/0116 11:08.14	00009119	21.669	Inter618t1-0	-0.968	1	2	199.042	24.444	-19.6	0.224	0.000	D	F	1943.3	198.819	0.169	-1.501	712.350	1143.567	0.126	-	-1.968	0.205	-	-	-	-	-	-	-	FREEWAY_SMOOTH	Urban	F	1011101000011101	0000000000000000	-	car	155.059	7.340	0.000	0.000	180.000	696.000	987.000	-0.000	Terminate	
"Student17Mode3"	"Tanvi_6"	"Dec 01, 2016 11:05:38 AM"	Unknown	152.98639	11/01/0116 11:08.15	00009179	21.776	Inter618t1-0	-0.927	1	2	193.754	24.444	-20.0	0.180	0.000	D	F	1831.2	193.145	0.103	-1.376	706.158	1122.734	0.123	-	-2.152	0.017	-	-	-	-	-	-	-	FREEWAY_SMOOTH	Urban	F	1011101000011101	0000000000000000	-	car	133.754	6.216	0.000	0.000	180.000	696.000	987.000	-0.000	Terminate	
"Student17Mode3"	"Tanvi_6"	"Dec 01, 2016 11:05:38 AM"	Unknown	153.98642	11/01/0116 11:08.16	00009239	21.793	Inter618t1-0	-1.083	1	2	189.178	24.444	-14.7	0.189	0.000	D	F	1856.8	188.151	0.106	-1.145	701.987	1101.366	0.102	-	-1.644	0.042	-	-	-	-	-	-	-	FREEWAY_SMOOTH	Urban	F	1011101000011101	0000000000000000	-	car	112.163	5.168	0.000	0.000	180.000	696.000	987.000	-0.000	Terminate	
