"Name"	"Project"	"Time"	ZoneName	Time	SystemTime	Frame	Velocity	LaneName	LanePos	LaneIndex	LaneCount	LaneHeading	SpeedLimit	Steer	Accel	Brake	Gear	Horn	SubjectEngineRPM	SubjectHeading	SubjectPitch	SubjectRoll	SubjectX	SubjectY	SubjectZ	Signal	LatAccel	LongAccel	Collision	CollisionAngle	CollisionVelocity	VehAhead	HeadwayTime	HeadwayDist	TTC	TerrainType	CultureType	Slip	DigitalInputs	DigitalInputs2	ActiveTrigger	EntityName	DistToEntity	TimeToEntity	EntityVelocity	EntityAccel	EntityHeading	EntityX	EntityY	EntityZ	GrabData	
"student29mode1"	"Seema_Shokoufeh_Track2"	"Feb 16, 2017 10:43:58 AM"	Unknown	0.98335	01/16/0117 10:44.03	00000059	0.002	Inter625t13-0	-0.088	1	2	0.000	11.111	1.4	0.041	0.000	D	F	0.0	0.000	0.153	-0.000	1503.500	523.206	0.019	-	-0.000	0.000	-	-	-	-	-	-	-	PAVEMENT_GENERAL	Urban	F	1011101000011100	0000000000010000	-	-	-	-	-	-	-	-	-	-	Terminate	
"student29mode1"	"Seema_Shokoufeh_Track2"	"Feb 16, 2017 10:43:58 AM"	Unknown	1.98337	01/16/0117 10:44.04	00000119	0.000	Inter625t13-0	-0.088	1	2	0.000	11.111	4.1	0.044	0.000	D	F	0.0	0.000	0.197	0.000	1503.500	523.208	0.026	-	-0.000	-0.001	-	-	-	-	-	-	-	PAVEMENT_GENERAL	Urban	F	1011101000011100	0000000000010000	-	-	-	-	-	-	-	-	-	-	Terminate	
"student29mode1"	"Seema_Shokoufeh_Track2"	"Feb 16, 2017 10:43:58 AM"	Unknown	2.98339	01/16/0117 10:44.05	00000179	-0.000	Inter625t13-0	-0.088	1	2	0.000	11.111	4.9	0.062	0.000	D	F	0.0	0.000	0.207	-0.000	1503.500	523.208	0.028	-	0.000	-0.000	-	-	-	-	-	-	-	PAVEMENT_GENERAL	Urban	F	1011101000011100	0000000000010000	-	-	-	-	-	-	-	-	-	-	Terminate	
"student29mode1"	"Seema_Shokoufeh_Track2"	"Feb 16, 2017 10:43:58 AM"	Unknown	3.98341	01/16/0117 10:44.06	00000239	-0.000	Inter625t13-0	-0.088	1	2	0.000	11.111	4.8	0.019	0.000	D	F	0.0	0.000	0.210	-0.000	1503.500	523.208	0.028	-	0.000	-0.000	-	-	-	-	-	-	-	PAVEMENT_GENERAL	Urban	F	1111101000011100	0000000000010000	-	-	-	-	-	-	-	-	-	-	Terminate	
"student29mode1"	"Seema_Shokoufeh_Track2"	"Feb 16, 2017 10:43:58 AM"	Unknown	4.98343	01/16/0117 10:44.07	00000299	-0.000	Inter625t13-0	-0.088	1	2	0.000	11.111	4.5	0.000	0.000	D	F	0.0	0.000	0.210	-0.000	1503.500	523.208	0.028	-	0.000	0.000	-	-	-	-	-	-	-	PAVEMENT_GENERAL	Urban	F	1011101000011100	0000000000010000	-	-	-	-	-	-	-	-	-	-	Terminate	
"student29mode1"	"Seema_Shokoufeh_Track2"	"Feb 16, 2017 10:43:58 AM"	Unknown	5.98345	01/16/0117 10:44.08	00000359	0.000	Inter625t13-0	-0.088	1	2	0.000	11.111	4.8	0.000	0.000	D	F	88.9	0.000	0.209	-0.000	1503.500	523.208	0.028	-	0.000	0.000	-	-	-	-	-	-	-	PAVEMENT_GENERAL	Urban	F	1011101000011111	0000000000010000	-	-	-	-	-	-	-	-	-	-	Terminate	
"student29mode1"	"Seema_Shokoufeh_Track2"	"Feb 16, 2017 10:43:58 AM"	Unknown	6.98347	01/16/0117 10:44.09	00000419	0.002	Inter625t13-0	-0.088	1	2	0.000	11.111	4.7	0.000	0.000	D	F	422.2	0.000	0.209	0.000	1503.500	523.208	0.028	-	0.000	0.010	-	-	-	-	-	-	-	PAVEMENT_GENERAL	Urban	F	1011101000011101	0000000000010000	-	-	-	-	-	-	-	-	-	-	Terminate	
"student29mode1"	"Seema_Shokoufeh_Track2"	"Feb 16, 2017 10:43:58 AM"	Unknown	7.98349	01/16/0117 10:44.10	00000479	0.144	Inter625t13-0	-0.088	1	2	0.000	11.111	4.7	0.035	0.000	D	F	753.5	0.004	0.211	0.001	1503.500	523.237	0.022	-	0.001	0.611	-	-	-	-	-	-	-	PAVEMENT_GENERAL	Urban	F	1011101000011101	0000000000010000	-	-	-	-	-	-	-	-	-	-	Terminate	
"student29mode1"	"Seema_Shokoufeh_Track2"	"Feb 16, 2017 10:43:58 AM"	Unknown	8.98351	01/16/0117 10:44.11	00000539	0.945	Inter625t13-0	-0.086	1	2	0.000	11.111	5.4	0.041	0.000	D	F	812.9	0.063	0.211	-0.001	1503.502	523.775	0.022	-	0.005	0.814	-	-	-	-	-	-	-	PAVEMENT_GENERAL	Urban	F	1011101000011101	0000000000010000	-	-	-	-	-	-	-	-	-	-	Terminate	
"student29mode1"	"Seema_Shokoufeh_Track2"	"Feb 16, 2017 10:43:58 AM"	Unknown	9.98353	01/16/0117 10:44.12	00000599	2.180	Inter625t13-0	-0.076	1	2	0.000	11.111	7.8	0.099	0.000	D	F	1269.6	0.286	0.236	-0.003	1503.512	525.223	0.019	-	0.020	2.079	-	-	-	-	-	-	-	PAVEMENT_GENERAL	Urban	F	1011101000011101	0000000000010000	-	-	-	-	-	-	-	-	-	-	Terminate	
"student29mode1"	"Seema_Shokoufeh_Track2"	"Feb 16, 2017 10:43:58 AM"	Unknown	10.98355	01/16/0117 10:44.13	00000659	4.159	Inter625t13-0	-0.034	1	2	0.000	11.111	5.0	0.141	0.000	D	F	1579.8	0.746	0.218	-0.003	1503.554	528.415	0.017	-	0.028	1.801	-	-	-	-	-	-	-	PAVEMENT_GENERAL	Urban	F	1011101000011101	0000000000010000	-	-	-	-	-	-	-	-	-	-	Terminate	
"student29mode1"	"Seema_Shokoufeh_Track2"	"Feb 16, 2017 10:43:58 AM"	Unknown	11.98357	01/16/0117 10:44.14	00000719	5.848	Inter625t49-0	0.052	1	1	0.005	11.111	-0.2	0.160	0.000	D	F	1879.2	0.999	0.216	0.003	1503.640	533.445	0.019	-	-0.012	1.512	-	-	-	-	-	-	-	PAVEMENT_GENERAL	Urban	F	1011101000011101	0000000000010000	-	-	-	-	-	-	-	-	-	-	Terminate	
"student29mode1"	"Seema_Shokoufeh_Track2"	"Feb 16, 2017 10:43:58 AM"	Unknown	12.98359	01/16/0117 10:44.15	00000779	7.163	Inter625t49-0	0.166	1	1	0.006	11.111	-0.3	0.164	0.000	D	F	1625.0	1.006	0.211	0.002	1503.754	539.998	0.021	-	-0.006	1.111	-	-	-	-	-	-	-	PAVEMENT_GENERAL	Urban	F	1011101000011101	0000000000010000	-	-	-	-	-	-	-	-	-	-	Terminate	
"student29mode1"	"Seema_Shokoufeh_Track2"	"Feb 16, 2017 10:43:58 AM"	Unknown	13.98361	01/16/0117 10:44.16	00000839	8.195	Inter625t49-0	0.295	1	1	0.008	11.111	-1.0	0.168	0.000	D	F	1702.4	0.927	0.211	0.003	1503.884	547.687	0.022	-	-0.021	0.984	-	-	-	-	-	-	-	PAVEMENT_GENERAL	Urban	F	1011101000011101	0000000000010000	-	-	-	-	-	-	-	-	-	-	Terminate	
"student29mode1"	"Seema_Shokoufeh_Track2"	"Feb 16, 2017 10:43:58 AM"	Unknown	14.98363	01/16/0117 10:44.17	00000899	9.136	Inter625t49-0	0.419	1	1	0.007	11.111	-1.6	0.175	0.000	D	F	1775.8	0.744	0.209	0.006	1504.009	556.361	0.022	-	-0.042	0.884	-	-	-	-	-	-	-	PAVEMENT_GENERAL	Urban	F	1011101000011101	0000000000010000	-	-	-	-	-	-	-	-	-	-	Terminate	
"student29mode1"	"Seema_Shokoufeh_Track2"	"Feb 16, 2017 10:43:58 AM"	Unknown	15.98365	01/16/0117 10:44.18	00000959	9.968	Inter625t49-0	0.513	1	1	0.005	11.111	-1.9	0.175	0.000	D	F	1836.9	0.421	0.208	0.007	1504.104	565.921	0.023	-	-0.059	0.787	-	-	-	-	-	-	-	PAVEMENT_GENERAL	Urban	F	1011101000011101	0000000000010000	-	-	-	-	-	-	-	-	-	-	Terminate	
"student29mode1"	"Seema_Shokoufeh_Track2"	"Feb 16, 2017 10:43:58 AM"	Unknown	16.98367	01/16/0117 10:44.19	00001019	10.718	Inter625t49-0	0.554	1	1	0.005	11.111	-1.7	0.175	0.000	D	F	1920.5	0.087	0.207	0.008	1504.147	576.268	0.023	-	-0.058	0.730	-	-	-	-	-	-	-	PAVEMENT_GENERAL	Urban	F	1011101000011101	0000000000010000	-	-	-	-	-	-	-	-	-	-	Terminate	
"student29mode1"	"Seema_Shokoufeh_Track2"	"Feb 16, 2017 10:43:58 AM"	Unknown	17.98369	01/16/0117 10:44.20	00001079	11.432	Inter625t15-0	0.544	1	2	0.000	11.111	-1.0	0.176	0.000	D	F	2005.1	359.832	0.206	0.005	1504.137	587.347	0.023	-	-0.041	0.701	-	-	-	-	-	-	-	PAVEMENT_GENERAL	Urban	F	1011101000011101	0000000000010000	-	-	-	-	-	-	-	-	-	-	Terminate	
"student29mode1"	"Seema_Shokoufeh_Track2"	"Feb 16, 2017 10:43:58 AM"	Unknown	18.98371	01/16/0117 10:44.21	00001139	12.151	Inter625t15-0	0.493	1	2	0.000	11.111	0.7	0.189	0.000	D	F	2100.9	359.722	0.205	-0.005	1504.086	599.138	0.023	-	0.019	0.720	-	-	-	-	-	-	-	PAVEMENT_GENERAL	Urban	F	1011101000011101	0000000000010000	-	-	-	-	-	-	-	-	-	-	Terminate	
"student29mode1"	"Seema_Shokoufeh_Track2"	"Feb 16, 2017 10:43:58 AM"	Unknown	19.98373	01/16/0117 10:44.22	00001199	12.809	Inter614t1-0	0.445	1	2	0.000	11.111	0.7	0.189	0.000	D	F	1766.8	359.840	0.203	-0.004	1504.038	611.638	0.024	-	0.031	0.579	-	-	-	-	-	-	-	PAVEMENT_GENERAL	Urban	F	1011101000011101	0000000000010000	-	-	-	-	-	-	-	-	-	-	Terminate	
"student29mode1"	"Seema_Shokoufeh_Track2"	"Feb 16, 2017 10:43:58 AM"	Unknown	20.98375	01/16/0117 10:44.23	00001259	13.365	Inter614t1-0	0.425	1	2	0.000	11.111	0.8	0.189	0.000	D	F	1782.9	0.000	0.202	-0.005	1504.018	624.729	0.024	-	0.036	0.532	-	-	-	-	-	-	-	PAVEMENT_GENERAL	Urban	F	1011101000011101	0000000000010000	-	-	-	-	-	-	-	-	-	-	Terminate	
"student29mode1"	"Seema_Shokoufeh_Track2"	"Feb 16, 2017 10:43:58 AM"	Unknown	21.98377	01/16/0117 10:44.24	00001319	13.874	Inter614t1-0	0.441	1	2	0.000	11.111	0.9	0.187	0.000	D	F	1804.5	0.162	0.201	-0.006	1504.035	638.352	0.024	-	0.044	0.494	-	-	-	-	-	-	-	PAVEMENT_GENERAL	Urban	F	1011101000011101	0000000000010000	-	-	-	-	-	-	-	-	-	-	Terminate	
"student29mode1"	"Seema_Shokoufeh_Track2"	"Feb 16, 2017 10:43:58 AM"	Unknown	22.98379	01/16/0117 10:44.25	00001379	14.340	Inter614t1-0	0.497	1	2	0.000	11.111	-0.8	0.182	0.000	D	F	1816.2	0.270	0.200	0.003	1504.090	652.462	0.024	-	-0.015	0.446	-	-	-	-	-	-	-	PAVEMENT_GENERAL	Urban	F	1011101000011101	0000000000010000	-	-	-	-	-	-	-	-	-	-	Terminate	
"student29mode1"	"Seema_Shokoufeh_Track2"	"Feb 16, 2017 10:43:58 AM"	Unknown	23.98381	01/16/0117 10:44.26	00001439	14.762	Inter614t1-0	0.548	1	2	0.000	11.111	-0.9	0.183	0.000	D	F	1831.7	0.121	0.199	0.006	1504.141	667.016	0.025	-	-0.044	0.405	-	-	-	-	-	-	-	PAVEMENT_GENERAL	Urban	F	1011101000011101	0000000000010000	-	-	-	-	-	-	-	-	-	-	Terminate	
"student29mode1"	"Seema_Shokoufeh_Track2"	"Feb 16, 2017 10:43:58 AM"	Unknown	24.98383	01/16/0117 10:44.27	00001499	15.154	Inter614t1-0	0.558	1	2	0.000	11.111	0.1	0.183	0.000	D	F	1848.7	0.000	0.198	-0.001	1504.151	681.976	0.025	-	-0.002	0.381	-	-	-	12	10.369	157.143	-	PAVEMENT_GENERAL	Urban	F	1011101000011101	0000000000010000	-	-	-	-	-	-	-	-	-	-	Terminate	
"student29mode1"	"Seema_Shokoufeh_Track2"	"Feb 16, 2017 10:43:58 AM"	Unknown	25.98385	01/16/0117 10:44.28	00001559	15.518	Inter614t1-0	0.533	1	2	0.000	11.111	-1.1	0.180	0.000	D	F	1865.5	359.772	0.198	0.008	1504.126	697.315	0.025	-	-0.065	0.354	-	-	-	12	10.341	160.470	-	PAVEMENT_GENERAL	Urban	F	1011101000011101	0000000000010000	-	-	-	-	-	-	-	-	-	-	Terminate	
"student29mode1"	"Seema_Shokoufeh_Track2"	"Feb 16, 2017 10:43:58 AM"	Unknown	26.98387	01/16/0117 10:44.29	00001619	15.851	Inter614t1-0	0.451	1	2	0.000	11.111	-0.2	0.178	0.000	D	F	1874.4	359.647	0.197	0.001	1504.044	713.002	0.025	-	-0.013	0.321	-	-	-	12	10.430	165.324	-	PAVEMENT_GENERAL	Urban	F	1011101000011101	0000000000010000	-	-	-	-	-	-	-	-	-	-	Terminate	
"student29mode1"	"Seema_Shokoufeh_Track2"	"Feb 16, 2017 10:43:58 AM"	Unknown	27.98389	01/16/0117 10:44.30	00001679	16.155	Inter614t1-0	0.342	1	2	0.000	11.111	-0.2	0.180	0.000	D	F	1887.6	359.559	0.196	0.002	1503.936	729.007	0.025	-	-0.017	0.290	-	-	-	12	10.571	170.777	-	PAVEMENT_GENERAL	Urban	F	1011101000011101	0000000000010000	-	-	-	-	-	-	-	-	-	-	Terminate	
"student29mode1"	"Seema_Shokoufeh_Track2"	"Feb 16, 2017 10:43:58 AM"	Unknown	28.98391	01/16/0117 10:44.31	00001739	16.437	Inter614t1-0	0.221	1	2	0.000	11.111	0.8	0.175	0.000	D	F	1906.0	359.622	0.196	-0.006	1503.814	745.305	0.025	-	0.042	0.272	-	-	-	12	10.735	176.456	-	PAVEMENT_GENERAL	Urban	F	1011101000011101	0000000000010000	-	-	-	-	-	-	-	-	-	-	Terminate	
"student29mode1"	"Seema_Shokoufeh_Track2"	"Feb 16, 2017 10:43:58 AM"	Unknown	29.98393	01/16/0117 10:44.32	00001799	16.705	Inter614t1-0	0.149	1	2	0.000	11.111	2.3	0.178	0.000	D	F	1927.9	359.929	0.195	-0.016	1503.742	761.877	0.025	-	0.114	0.266	-	-	-	12	10.908	182.223	-	PAVEMENT_GENERAL	Urban	F	1011101000011101	0000000000010000	-	-	-	-	-	-	-	-	-	-	Terminate	
"student29mode1"	"Seema_Shokoufeh_Track2"	"Feb 16, 2017 10:43:58 AM"	Unknown	30.98395	01/16/0117 10:44.33	00001859	16.968	Inter614t1-0	0.186	1	2	0.000	11.111	1.3	0.178	0.000	D	F	1947.6	0.347	0.195	-0.012	1503.779	778.714	0.025	-	0.096	0.260	-	-	-	12	11.064	187.739	-	PAVEMENT_GENERAL	Urban	F	1011101000011101	0000000000010000	-	-	-	-	-	-	-	-	-	-	Terminate	
"student29mode1"	"Seema_Shokoufeh_Track2"	"Feb 16, 2017 10:43:58 AM"	Unknown	31.98397	01/16/0117 10:44.34	00001919	16.938	Inter614t1-0	0.317	1	2	0.000	11.111	-0.6	0.056	0.000	D	F	1717.7	0.544	0.186	-0.001	1503.910	795.733	0.028	-	0.012	-0.317	-	-	-	12	11.399	193.073	-	PAVEMENT_GENERAL	Urban	F	1011101000011101	0000000000010000	-	-	-	-	-	-	-	-	-	-	Terminate	
"student29mode1"	"Seema_Shokoufeh_Track2"	"Feb 16, 2017 10:43:58 AM"	Unknown	32.98399	01/16/0117 10:44.35	00001979	16.642	Inter612t1-0	0.434	1	2	0.000	11.111	-2.7	0.051	0.000	D	F	1682.2	0.179	0.189	0.019	1504.028	812.525	0.028	-	-0.144	-0.320	-	-	-	12	11.936	198.635	-	PAVEMENT_GENERAL	Urban	F	1011101000011101	0000000000010000	-	-	-	-	-	-	-	-	-	-	Terminate	
"student29mode1"	"Seema_Shokoufeh_Track2"	"Feb 16, 2017 10:43:58 AM"	Unknown	33.98401	01/16/0117 10:44.36	00002039	16.303	Inter612t1-0	0.420	1	2	0.000	11.111	1.4	0.048	0.000	D	F	1646.5	359.766	0.190	-0.005	1504.013	828.997	0.028	-	0.012	-0.333	-	-	-	12	12.545	204.516	-	PAVEMENT_GENERAL	Urban	F	1011101000011101	0000000000010000	-	-	-	-	-	-	-	-	-	-	Terminate	
"student29mode1"	"Seema_Shokoufeh_Track2"	"Feb 16, 2017 10:43:58 AM"	Unknown	34.98403	01/16/0117 10:44.37	00002099	15.979	Inter612t1-0	0.413	1	2	0.000	11.111	0.9	0.048	0.000	D	F	1625.8	0.233	0.190	-0.010	1504.006	845.137	0.028	-	0.094	-0.321	-	-	-	12	13.188	210.729	-	PAVEMENT_GENERAL	Urban	F	1011101000011101	0000000000010000	-	-	-	-	-	-	-	-	-	-	Terminate	
"student29mode1"	"Seema_Shokoufeh_Track2"	"Feb 16, 2017 10:43:58 AM"	Unknown	35.98405	01/16/0117 10:44.38	00002159	15.665	Inter612t1-0	0.490	1	2	0.000	11.111	0.1	0.048	0.000	D	F	1604.2	0.300	0.191	0.000	1504.083	860.958	0.028	-	-0.000	-0.308	-	-	-	12	13.869	217.262	-	PAVEMENT_GENERAL	Urban	F	1011101000011101	0000000000010000	-	-	-	-	-	-	-	-	-	-	Terminate	
"student29mode1"	"Seema_Shokoufeh_Track2"	"Feb 16, 2017 10:43:58 AM"	Unknown	36.98407	01/16/0117 10:44.39	00002219	15.364	Inter612t1-0	0.559	1	2	0.000	11.111	-1.1	0.051	0.000	D	F	1585.7	0.146	0.191	0.008	1504.152	876.471	0.028	-	-0.064	-0.296	-	-	-	12	14.587	224.103	-	PAVEMENT_GENERAL	Urban	F	1011101000011101	0000000000010000	-	-	-	-	-	-	-	-	-	-	Terminate	
"student29mode1"	"Seema_Shokoufeh_Track2"	"Feb 16, 2017 10:43:58 AM"	Unknown	37.98409	01/16/0117 10:44.40	00002279	15.072	Inter612t1-0	0.576	1	2	0.000	11.111	-0.6	0.049	0.000	D	F	1565.3	0.000	0.192	0.003	1504.170	891.688	0.028	-	-0.030	-0.286	-	-	-	12	15.342	231.239	-	PAVEMENT_GENERAL	Urban	F	1011101000011101	0000000000010000	-	-	-	-	-	-	-	-	-	-	Terminate	
"student29mode1"	"Seema_Shokoufeh_Track2"	"Feb 16, 2017 10:43:58 AM"	Unknown	38.98411	01/16/0117 10:44.41	00002339	14.792	Inter612t1-0	0.559	1	2	0.000	11.111	-0.8	0.051	0.000	D	F	1545.6	359.859	0.192	0.005	1504.152	906.620	0.028	-	-0.040	-0.274	-	-	-	12	16.134	238.661	-	PAVEMENT_GENERAL	Urban	F	1011101000011101	0000000000010000	-	-	-	-	-	-	-	-	-	-	Terminate	
"student29mode1"	"Seema_Shokoufeh_Track2"	"Feb 16, 2017 10:43:58 AM"	Unknown	39.98413	01/16/0117 10:44.42	00002399	14.523	Inter612t1-0	0.503	1	2	0.000	11.111	-0.9	0.049	0.000	D	F	1520.9	359.692	0.192	0.006	1504.097	921.277	0.028	-	-0.044	-0.274	-	-	-	-	-	-	-	PAVEMENT_GENERAL	Urban	F	1011101000011101	0000000000010000	-	-	-	-	-	-	-	-	-	-	Terminate	
"student29mode1"	"Seema_Shokoufeh_Track2"	"Feb 16, 2017 10:43:58 AM"	Unknown	40.98415	01/16/0117 10:44.43	00002459	14.259	Inter612t1-0	0.405	1	2	0.000	11.111	-0.9	0.053	0.000	D	F	1504.2	359.514	0.193	0.006	1503.998	935.666	0.028	-	-0.046	-0.258	-	-	-	-	-	-	-	PAVEMENT_GENERAL	Urban	F	1011101000011101	0000000000010000	-	-	-	-	-	-	-	-	-	-	Terminate	
"student29mode1"	"Seema_Shokoufeh_Track2"	"Feb 16, 2017 10:43:58 AM"	Unknown	41.98417	01/16/0117 10:44.44	00002519	14.005	Inter612t1-0	0.264	1	2	0.000	11.111	-0.8	0.053	0.000	D	F	1483.4	359.337	0.194	0.005	1503.857	949.797	0.028	-	-0.039	-0.249	-	-	-	-	-	-	-	PAVEMENT_GENERAL	Urban	F	1011101000011101	0000000000010000	-	-	-	-	-	-	-	-	-	-	Terminate	
"student29mode1"	"Seema_Shokoufeh_Track2"	"Feb 16, 2017 10:43:58 AM"	Unknown	42.98419	01/16/0117 10:44.45	00002579	13.758	Inter612t1-0	0.088	1	2	0.000	11.111	2.1	0.051	0.000	D	F	1463.3	359.241	0.194	-0.009	1503.682	963.677	0.028	-	0.052	-0.246	-	-	-	-	-	-	-	PAVEMENT_GENERAL	Urban	F	1011101000011101	0000000000010000	-	-	-	-	-	-	-	-	-	-	Terminate	
"student29mode1"	"Seema_Shokoufeh_Track2"	"Feb 16, 2017 10:43:58 AM"	Unknown	43.98421	01/16/0117 10:44.46	00002639	13.517	Inter612t1-0	0.007	1	2	0.000	11.111	1.0	0.053	0.000	D	F	1444.9	0.153	0.194	-0.010	1503.600	977.313	0.028	-	0.117	-0.238	-	-	-	-	-	-	-	PAVEMENT_GENERAL	Urban	F	1011101000011101	0000000000010000	-	-	-	-	-	-	-	-	-	-	Terminate	
"student29mode1"	"Seema_Shokoufeh_Track2"	"Feb 16, 2017 10:43:58 AM"	Unknown	44.98423	01/16/0117 10:44.47	00002699	13.285	Inter612t1-0	0.061	1	2	0.000	11.111	0.3	0.055	0.000	D	F	1430.5	0.312	0.195	-0.003	1503.655	990.713	0.027	-	0.024	-0.222	-	-	-	-	-	-	-	PAVEMENT_GENERAL	Urban	F	1011101000011101	0000000000010000	-	-	-	-	-	-	-	-	-	-	Terminate	
"student29mode1"	"Seema_Shokoufeh_Track2"	"Feb 16, 2017 10:43:58 AM"	Unknown	45.98425	01/16/0117 10:44.48	00002759	13.062	Inter613t1-0	0.135	1	2	0.000	11.111	-0.8	0.053	0.000	D	F	1409.2	0.316	0.195	0.003	1503.728	1003.886	0.027	-	-0.020	-0.221	-	-	-	-	-	-	-	PAVEMENT_GENERAL	Urban	F	1011101000011101	0000000000010000	-	-	-	-	-	-	-	-	-	-	Terminate	
"student29mode1"	"Seema_Shokoufeh_Track2"	"Feb 16, 2017 10:43:58 AM"	Unknown	46.98427	01/16/0117 10:44.49	00002819	12.849	Inter613t1-0	0.179	1	2	0.000	11.111	-1.4	0.051	0.000	D	F	1390.5	0.056	0.195	0.008	1503.772	1016.841	0.027	-	-0.061	-0.214	-	-	-	-	-	-	-	PAVEMENT_GENERAL	Urban	F	1011101000011101	0000000000010000	-	-	-	-	-	-	-	-	-	-	Terminate	
"student29mode1"	"Seema_Shokoufeh_Track2"	"Feb 16, 2017 10:43:58 AM"	Unknown	47.98429	01/16/0117 10:44.50	00002879	12.637	Inter613t1-0	0.161	1	2	0.000	11.111	-1.4	0.053	0.000	D	F	1375.0	359.787	0.196	0.008	1503.754	1029.583	0.027	-	-0.059	-0.201	-	-	-	-	-	-	-	PAVEMENT_GENERAL	Urban	F	1011101000011101	0000000000010000	-	-	-	-	-	-	-	-	-	-	Terminate	
"student29mode1"	"Seema_Shokoufeh_Track2"	"Feb 16, 2017 10:43:58 AM"	Unknown	48.98431	01/16/0117 10:44.51	00002939	12.507	Inter613t1-0	0.085	1	2	0.000	11.111	-1.4	0.065	0.000	D	F	1398.1	359.522	0.196	0.008	1503.678	1042.149	0.027	-	-0.058	-0.120	-	-	-	-	-	-	-	PAVEMENT_GENERAL	Urban	F	1011101000011101	0000000000010000	-	-	-	-	-	-	-	-	-	-	Terminate	
"student29mode1"	"Seema_Shokoufeh_Track2"	"Feb 16, 2017 10:43:58 AM"	Unknown	49.98433	01/16/0117 10:44.52	00002999	12.387	Inter613t1-0	0.008	1	2	0.000	11.111	3.4	0.065	0.000	D	F	1387.5	0.000	0.197	-0.020	1503.601	1054.597	0.027	-	0.154	-0.120	-	-	-	-	-	-	-	PAVEMENT_GENERAL	Urban	F	1011101000011101	0000000000010000	-	-	-	-	-	-	-	-	-	-	Terminate	
"student29mode1"	"Seema_Shokoufeh_Track2"	"Feb 16, 2017 10:43:58 AM"	Unknown	50.98435	01/16/0117 10:44.53	00003059	12.269	Inter613t1-0	0.072	1	2	0.000	11.111	4.7	0.063	0.000	D	F	1377.1	0.646	0.197	-0.024	1503.665	1066.924	0.027	-	0.182	-0.121	-	-	-	-	-	-	-	PAVEMENT_GENERAL	Urban	F	1011101000011101	0000000000010000	-	-	-	-	-	-	-	-	-	-	Terminate	
"student29mode1"	"Seema_Shokoufeh_Track2"	"Feb 16, 2017 10:43:58 AM"	Unknown	51.98437	01/16/0117 10:44.54	00003119	12.150	Inter613t1-0	0.255	1	2	0.000	11.111	-5.3	0.067	0.000	D	F	1370.7	0.744	0.197	0.025	1503.848	1079.132	0.027	-	-0.181	-0.116	-	-	-	-	-	-	-	PAVEMENT_GENERAL	Urban	F	1011101000011101	0000000000010000	-	-	-	-	-	-	-	-	-	-	Terminate	
"student29mode1"	"Seema_Shokoufeh_Track2"	"Feb 16, 2017 10:43:58 AM"	Unknown	52.98439	01/16/0117 10:44.55	00003179	12.111	Inter613t1-0	0.293	1	2	0.000	11.111	1.4	0.097	0.000	D	F	1472.3	359.796	0.199	-0.003	1503.886	1091.246	0.026	-	-0.004	0.055	-	-	-	-	-	-	-	PAVEMENT_GENERAL	Urban	F	1011101000011101	0000000000010000	-	-	-	-	-	-	-	-	-	-	Terminate	
"student29mode1"	"Seema_Shokoufeh_Track2"	"Feb 16, 2017 10:43:58 AM"	Unknown	53.98441	01/16/0117 10:44.56	00003239	12.264	Inter613t1-0	0.281	1	2	0.000	11.111	-2.7	0.116	0.000	D	F	1539.2	359.942	0.200	0.012	1503.875	1103.425	0.026	-	-0.086	0.183	-	-	-	-	-	-	-	PAVEMENT_GENERAL	Urban	F	1011101000011101	0000000000010000	-	-	-	-	-	-	-	-	-	-	Terminate	
"student29mode1"	"Seema_Shokoufeh_Track2"	"Feb 16, 2017 10:43:58 AM"	Unknown	54.98443	01/16/0117 10:44.57	00003299	12.629	Inter613t1-0	0.222	1	2	0.000	11.111	1.6	0.178	0.000	D	F	1731.8	359.649	0.204	-0.007	1503.815	1115.834	0.024	-	0.042	0.548	-	-	-	-	-	-	-	PAVEMENT_GENERAL	Urban	F	1011101000011101	0000000000010000	-	-	-	-	-	-	-	-	-	-	Terminate	
"student29mode1"	"Seema_Shokoufeh_Track2"	"Feb 16, 2017 10:43:58 AM"	Unknown	55.98445	01/16/0117 10:44.58	00003359	13.236	Inter613t1-0	0.184	1	2	0.000	11.111	1.6	0.212	0.000	D	F	1841.2	0.016	0.202	-0.009	1503.777	1128.746	0.023	-	0.075	0.700	-	-	-	-	-	-	-	PAVEMENT_GENERAL	Urban	F	1011101000011101	0000000000010000	-	-	-	-	-	-	-	-	-	-	Terminate	
"student29mode1"	"Seema_Shokoufeh_Track2"	"Feb 16, 2017 10:43:58 AM"	Unknown	56.98447	01/16/0117 10:44.59	00003419	14.007	Inter613t1-0	0.223	1	2	0.000	11.111	0.7	0.302	0.000	D	F	1968.2	0.280	0.205	-0.005	1503.816	1142.357	0.023	-	0.039	0.865	-	-	-	-	-	-	-	PAVEMENT_GENERAL	Urban	F	1011101000011101	0000000000010000	-	-	-	-	-	-	-	-	-	-	Terminate	
"student29mode1"	"Seema_Shokoufeh_Track2"	"Feb 16, 2017 10:43:58 AM"	Unknown	57.98449	01/16/0117 10:45.00	00003479	15.056	Inter613t1-0	0.305	1	2	0.000	11.111	-0.4	0.370	0.000	D	F	2589.0	0.359	0.208	0.001	1503.898	1156.844	0.021	-	-0.004	1.290	-	-	-	-	-	-	-	PAVEMENT_GENERAL	Urban	F	1011101000011101	0000000000010000	-	-	-	-	-	-	-	-	-	-	Terminate	
"student29mode1"	"Seema_Shokoufeh_Track2"	"Feb 16, 2017 10:43:58 AM"	Unknown	58.98451	01/16/0117 10:45.01	00003539	16.100	Inter613t1-0	0.389	1	2	0.000	11.111	-0.3	0.178	0.000	D	F	2043.8	0.255	0.182	0.003	1503.982	1172.503	0.023	-	-0.023	0.385	-	-	-	-	-	-	-	PAVEMENT_GENERAL	Urban	F	1011101000011101	0000000000010000	-	-	-	-	-	-	-	-	-	-	Terminate	
"student29mode1"	"Seema_Shokoufeh_Track2"	"Feb 16, 2017 10:43:58 AM"	Unknown	59.98453	01/16/0117 10:45.02	00003599	16.426	Inter613t1-0	0.452	1	2	0.000	11.111	-0.3	0.187	0.000	D	F	1928.3	0.160	0.197	0.003	1504.045	1188.768	0.025	-	-0.028	0.338	-	-	-	-	-	-	-	PAVEMENT_GENERAL	Urban	F	1011101000011101	0000000000010000	-	-	-	-	-	-	-	-	-	-	Terminate	
"student29mode1"	"Seema_Shokoufeh_Track2"	"Feb 16, 2017 10:43:58 AM"	Unknown	60.98455	01/16/0117 10:45.03	00003659	16.739	Inter746t1-0	0.492	1	2	0.000	11.111	-0.3	0.185	0.000	D	F	1944.0	0.108	0.196	0.002	1504.085	1205.353	0.025	-	-0.017	0.305	-	-	-	-	-	-	-	PAVEMENT_GENERAL	Urban	F	1011101000011101	0000000000010000	-	-	-	-	-	-	-	-	-	-	Terminate	
"student29mode1"	"Seema_Shokoufeh_Track2"	"Feb 16, 2017 10:43:58 AM"	Unknown	61.98457	01/16/0117 10:45.04	00003719	17.033	Inter746t1-0	0.516	1	2	0.000	11.111	-0.2	0.182	0.000	D	F	1959.8	0.045	0.195	0.002	1504.109	1222.242	0.025	-	-0.018	0.275	-	-	-	-	-	-	-	PAVEMENT_GENERAL	Urban	F	1011101000011101	0000000000010000	-	-	-	-	-	-	-	-	-	-	Terminate	
"student29mode1"	"Seema_Shokoufeh_Track2"	"Feb 16, 2017 10:43:58 AM"	Unknown	62.98459	01/16/0117 10:45.05	00003779	17.302	Inter746t1-0	0.536	1	2	0.000	11.111	1.0	0.180	0.000	D	F	1977.9	0.155	0.194	-0.009	1504.129	1239.411	0.025	-	0.065	0.261	-	-	-	-	-	-	-	PAVEMENT_GENERAL	Urban	F	1011101000011101	0000000000010000	-	-	-	-	-	-	-	-	-	-	Terminate	
"student29mode1"	"Seema_Shokoufeh_Track2"	"Feb 16, 2017 10:43:58 AM"	Unknown	63.98461	01/16/0117 10:45.06	00003839	17.556	Inter746t1-0	0.596	1	2	0.000	11.111	1.2	0.180	0.000	D	F	1994.4	0.278	0.194	-0.010	1504.189	1256.841	0.025	-	0.069	0.249	-	-	-	-	-	-	-	PAVEMENT_GENERAL	Urban	F	1011101000011101	0000000000010000	-	-	-	-	-	-	-	-	-	-	Terminate	
"student29mode1"	"Seema_Shokoufeh_Track2"	"Feb 16, 2017 10:43:58 AM"	Unknown	64.98463	01/16/0117 10:45.07	00003899	17.793	Inter746t1-0	0.716	1	2	0.000	11.111	1.1	0.176	0.000	D	F	2007.7	0.527	0.193	-0.009	1504.309	1274.517	0.026	-	0.069	0.228	-	-	-	-	-	-	-	PAVEMENT_GENERAL	Urban	F	1011101000011101	0000000000010000	-	-	-	-	-	-	-	-	-	-	Terminate	
"student29mode1"	"Seema_Shokoufeh_Track2"	"Feb 16, 2017 10:43:58 AM"	Unknown	65.98465	01/16/0117 10:45.08	00003959	18.017	Inter746t1-0	0.902	1	2	0.000	11.111	-0.8	0.180	0.000	D	F	2022.9	0.640	0.193	0.001	1504.495	1292.422	0.026	-	-0.011	0.220	-	-	-	-	-	-	-	PAVEMENT_GENERAL	Urban	F	1011101000011101	0000000000010000	-	-	-	-	-	-	-	-	-	-	Terminate	
"student29mode1"	"Seema_Shokoufeh_Track2"	"Feb 16, 2017 10:43:58 AM"	Unknown	66.98467	01/16/0117 10:45.09	00004019	18.232	Inter746t1-0	0.919	1	2	0.000	11.111	-10.1	0.176	0.000	D	F	2034.2	358.801	0.191	0.103	1504.513	1310.547	0.026	-	-0.797	0.206	Person36	23.3	16.742	-	-	-	-	PAVEMENT_GENERAL	Urban	F	1011101000011101	0000000000010000	-	-	-	-	-	-	-	-	-	-	Terminate	
"student29mode1"	"Seema_Shokoufeh_Track2"	"Feb 16, 2017 10:43:58 AM"	Unknown	67.98470	01/16/0117 10:45.10	00004079	18.428	Inter746t1-0	0.418	1	2	0.000	11.111	4.1	0.169	0.000	D	F	2037.2	358.467	0.191	-0.032	1504.011	1328.871	0.026	-	0.222	0.181	-	-	-	-	-	-	-	PAVEMENT_GENERAL	Urban	F	1011101000011101	0000000000010000	-	-	-	-	-	-	-	-	-	-	Terminate	
"student29mode1"	"Seema_Shokoufeh_Track2"	"Feb 16, 2017 10:43:58 AM"	Unknown	68.98471	01/16/0117 10:45.11	00004139	18.532	Inter746t1-0	0.046	1	2	0.000	11.111	6.5	0.136	0.000	D	F	2002.1	359.332	0.189	-0.048	1503.639	1347.362	0.026	-	0.344	0.011	-	-	-	-	-	-	-	PAVEMENT_GENERAL	Urban	F	1011101000011101	0000000000010000	-	-	-	-	-	-	-	-	-	-	Terminate	
"student29mode1"	"Seema_Shokoufeh_Track2"	"Feb 16, 2017 10:43:58 AM"	Unknown	69.98473	01/16/0117 10:45.12	00004199	18.463	Inter746t1-0	0.020	1	2	0.000	11.111	0.9	0.115	0.000	D	F	1966.1	0.556	0.188	-0.020	1503.613	1365.867	0.027	-	0.191	-0.098	-	-	-	-	-	-	-	PAVEMENT_GENERAL	Urban	F	1011101000011101	0000000000010000	-	-	-	-	-	-	-	-	-	-	Terminate	
"student29mode1"	"Seema_Shokoufeh_Track2"	"Feb 16, 2017 10:43:58 AM"	Unknown	70.98476	01/16/0117 10:45.13	00004259	18.359	Inter746t1-0	0.107	1	2	0.000	11.111	-3.5	0.111	0.000	D	F	1953.1	359.623	0.188	0.048	1503.700	1384.279	0.027	-	-0.371	-0.106	-	-	-	-	-	-	-	PAVEMENT_GENERAL	Urban	F	1011101000011101	0000000000010000	-	-	-	-	-	-	-	-	-	-	Terminate	
"student29mode1"	"Seema_Shokoufeh_Track2"	"Feb 16, 2017 10:43:58 AM"	Unknown	71.98477	01/16/0117 10:45.14	00004319	17.601	Inter749t9-0	-0.181	1	2	0.000	11.111	-15.5	0.109	0.075	D	F	1877.6	357.750	0.171	0.149	1503.412	1402.338	0.029	-	-1.083	-1.012	-	-	-	-	-	-	-	PAVEMENT_GENERAL	Urban	F	1011101000011101	0000000000010000	-	-	-	-	-	-	-	-	-	-	Terminate	
"student29mode1"	"Seema_Shokoufeh_Track2"	"Feb 16, 2017 10:43:58 AM"	Unknown	72.98479	01/16/0117 10:45.15	00004379	16.660	Inter749t31-0	-1.168	1	1	356.484	11.111	5.9	0.109	0.069	D	F	1800.0	354.822	0.176	0.001	1502.281	1419.417	0.029	-	-0.092	-0.860	-	-	-	-	-	-	-	PAVEMENT_GENERAL	Urban	F	1011101000011101	0000000000010000	-	-	-	-	-	-	-	-	-	-	Terminate	
"student29mode1"	"Seema_Shokoufeh_Track2"	"Feb 16, 2017 10:43:58 AM"	Unknown	73.98481	01/16/0117 10:45.16	00004439	15.057	Inter749t31-0	-1.390	1	1	354.539	11.111	8.6	0.102	0.212	D	F	1646.0	357.228	0.139	-0.079	1501.112	1435.401	0.032	-	0.625	-2.571	-	-	-	-	-	-	-	PAVEMENT_GENERAL	Urban	F	1011101000011101	0000000000010000	-	-	-	-	-	-	-	-	-	-	Terminate	
"student29mode1"	"Seema_Shokoufeh_Track2"	"Feb 16, 2017 10:43:58 AM"	Unknown	74.98483	01/16/0117 10:45.17	00004499	12.004	Inter749t31-0	-0.477	1	1	356.653	11.111	10.8	0.093	0.293	D	F	1449.7	359.445	0.135	-0.067	1500.664	1448.970	0.034	-	0.517	-3.389	-	-	-	-	-	-	-	PAVEMENT_GENERAL	Urban	F	1011101000011101	0000000000010000	-	-	-	-	-	-	-	-	-	-	Terminate	
"student29mode1"	"Seema_Shokoufeh_Track2"	"Feb 16, 2017 10:43:58 AM"	Unknown	75.98486	01/16/0117 10:45.18	00004559	8.547	Inter749t31-0	0.174	1	1	356.903	11.111	-1.7	0.090	0.328	D	F	1310.7	0.554	0.142	0.004	1500.685	1459.238	0.034	-	-0.010	-3.544	-	-	-	-	-	-	-	PAVEMENT_GENERAL	Urban	F	1011101000011101	0000000000010000	-	-	-	-	-	-	-	-	-	-	Terminate	
"student29mode1"	"Seema_Shokoufeh_Track2"	"Feb 16, 2017 10:43:58 AM"	Unknown	76.98487	01/16/0117 10:45.19	00004619	4.235	Inter749t31-0	0.558	1	1	356.903	11.111	-5.9	0.058	0.522	D	F	1084.4	0.043	0.082	0.005	1500.716	1465.775	0.039	-	-0.035	-5.313	-	-	-	-	-	-	-	PAVEMENT_GENERAL	Urban	F	1011101000011101	0000000000010000	-	-	-	-	-	-	-	-	-	-	Terminate	
"student29mode1"	"Seema_Shokoufeh_Track2"	"Feb 16, 2017 10:43:58 AM"	Unknown	77.98489	01/16/0117 10:45.20	00004679	-0.000	Inter749t31-0	0.640	1	1	356.903	11.111	-3.4	0.032	0.537	D	F	695.0	359.832	0.287	0.001	1500.709	1467.424	0.039	-	-0.002	-0.039	-	-	-	-	-	-	-	PAVEMENT_GENERAL	Urban	F	1011101000011101	0000000000010000	-	-	-	-	-	-	-	-	-	-	Terminate	
"student29mode1"	"Seema_Shokoufeh_Track2"	"Feb 16, 2017 10:43:58 AM"	Unknown	78.98492	01/16/0117 10:45.21	00004739	-0.001	Inter749t31-0	0.640	1	1	356.903	11.111	-3.4	0.034	0.513	D	F	691.3	359.832	0.228	0.000	1500.709	1467.422	0.032	-	0.000	0.002	-	-	-	-	-	-	-	PAVEMENT_GENERAL	Urban	F	1011101000011101	0000000000010000	-	-	-	-	-	-	-	-	-	-	Terminate	
"student29mode1"	"Seema_Shokoufeh_Track2"	"Feb 16, 2017 10:43:58 AM"	Unknown	79.98493	01/16/0117 10:45.22	00004799	-0.000	Inter749t31-0	0.640	1	1	356.903	11.111	-4.7	0.028	0.507	D	F	683.2	359.832	0.215	0.000	1500.709	1467.421	0.029	-	-0.000	0.000	-	-	-	-	-	-	-	PAVEMENT_GENERAL	Urban	F	1011101000011101	0000000000010000	-	-	-	-	-	-	-	-	-	-	Terminate	
"student29mode1"	"Seema_Shokoufeh_Track2"	"Feb 16, 2017 10:43:58 AM"	Unknown	80.98495	01/16/0117 10:45.23	00004859	-0.000	Inter749t31-0	0.640	1	1	356.903	11.111	-3.0	0.000	0.516	D	F	477.5	359.832	0.211	0.000	1500.709	1467.421	0.028	-	-0.000	0.000	-	-	-	-	-	-	-	PAVEMENT_GENERAL	Urban	F	1011101000011101	0000000000010000	-	-	-	-	-	-	-	-	-	-	Terminate	
"student29mode1"	"Seema_Shokoufeh_Track2"	"Feb 16, 2017 10:43:58 AM"	Unknown	81.98497	01/16/0117 10:45.24	00004919	-0.000	Inter749t31-0	0.640	1	1	356.903	11.111	-2.8	0.000	0.510	D	F	477.5	359.832	0.209	0.000	1500.709	1467.420	0.028	-	-0.000	0.000	-	-	-	-	-	-	-	PAVEMENT_GENERAL	Urban	F	1011101000011101	0000000000010000	-	-	-	-	-	-	-	-	-	-	Terminate	
"student29mode1"	"Seema_Shokoufeh_Track2"	"Feb 16, 2017 10:43:58 AM"	Unknown	82.98499	01/16/0117 10:45.25	00004979	-0.000	Inter749t31-0	0.640	1	1	356.903	11.111	-1.9	0.000	0.507	D	F	477.5	359.832	0.209	0.000	1500.709	1467.420	0.028	-	-0.000	0.000	-	-	-	-	-	-	-	PAVEMENT_GENERAL	Urban	F	1011101000011101	0000000000010000	-	-	-	-	-	-	-	-	-	-	Terminate	
"student29mode1"	"Seema_Shokoufeh_Track2"	"Feb 16, 2017 10:43:58 AM"	Unknown	83.98502	01/16/0117 10:45.26	00005039	-0.000	Inter749t31-0	0.640	1	1	356.903	11.111	-1.1	0.000	0.484	D	F	477.5	359.832	0.209	0.000	1500.709	1467.420	0.028	-	0.000	0.000	-	-	-	-	-	-	-	PAVEMENT_GENERAL	Urban	F	1011101000011101	0000000000010000	-	-	-	-	-	-	-	-	-	-	Terminate	
"student29mode1"	"Seema_Shokoufeh_Track2"	"Feb 16, 2017 10:43:58 AM"	Unknown	84.98503	01/16/0117 10:45.27	00005099	-0.000	Inter749t31-0	0.640	1	1	356.903	11.111	-1.9	0.000	0.400	D	F	477.5	359.832	0.209	0.000	1500.709	1467.420	0.028	-	-0.000	0.000	-	-	-	-	-	-	-	PAVEMENT_GENERAL	Urban	F	1011101000011101	0000000000010000	-	-	-	-	-	-	-	-	-	-	Terminate	
"student29mode1"	"Seema_Shokoufeh_Track2"	"Feb 16, 2017 10:43:58 AM"	Unknown	85.98505	01/16/0117 10:45.28	00005159	-0.000	Inter749t31-0	0.640	1	1	356.903	11.111	-1.9	0.000	0.376	D	F	477.5	359.832	0.209	0.000	1500.709	1467.420	0.028	-	-0.000	0.000	-	-	-	-	-	-	-	PAVEMENT_GENERAL	Urban	F	1011101000011101	0000000000010000	-	-	-	-	-	-	-	-	-	-	Terminate	
"student29mode1"	"Seema_Shokoufeh_Track2"	"Feb 16, 2017 10:43:58 AM"	Unknown	86.98507	01/16/0117 10:45.29	00005219	-0.000	Inter749t31-0	0.640	1	1	356.903	11.111	-1.9	0.000	0.361	D	F	477.5	359.832	0.209	0.000	1500.709	1467.420	0.028	-	-0.000	-0.000	-	-	-	-	-	-	-	PAVEMENT_GENERAL	Urban	F	1011101000011101	0000000000010000	-	-	-	-	-	-	-	-	-	-	Terminate	
"student29mode1"	"Seema_Shokoufeh_Track2"	"Feb 16, 2017 10:43:58 AM"	Unknown	87.98509	01/16/0117 10:45.30	00005279	-0.000	Inter749t31-0	0.640	1	1	356.903	11.111	-1.9	0.000	0.340	D	F	477.5	359.832	0.209	0.000	1500.709	1467.420	0.028	-	0.000	0.000	-	-	-	-	-	-	-	PAVEMENT_GENERAL	Urban	F	1011101000011101	0000000000010000	-	-	-	-	-	-	-	-	-	-	Terminate	
"student29mode1"	"Seema_Shokoufeh_Track2"	"Feb 16, 2017 10:43:58 AM"	Unknown	88.98512	01/16/0117 10:45.31	00005339	-0.000	Inter749t31-0	0.640	1	1	356.903	11.111	-1.9	0.000	0.343	D	F	477.5	359.832	0.209	0.000	1500.709	1467.420	0.028	-	-0.000	0.000	-	-	-	-	-	-	-	PAVEMENT_GENERAL	Urban	F	1011101000011101	0000000000010000	-	-	-	-	-	-	-	-	-	-	Terminate	
"student29mode1"	"Seema_Shokoufeh_Track2"	"Feb 16, 2017 10:43:58 AM"	Unknown	89.98513	01/16/0117 10:45.32	00005399	0.000	Inter749t31-0	0.640	1	1	356.903	11.111	-1.9	0.000	0.328	D	F	477.5	359.832	0.209	0.000	1500.709	1467.420	0.028	-	-0.000	0.000	-	-	-	-	-	-	-	PAVEMENT_GENERAL	Urban	F	1011101000011101	0000000000010000	-	-	-	-	-	-	-	-	-	-	Terminate	
"student29mode1"	"Seema_Shokoufeh_Track2"	"Feb 16, 2017 10:43:58 AM"	Unknown	90.98515	01/16/0117 10:45.33	00005459	0.000	Inter749t31-0	0.640	1	1	356.903	11.111	-1.9	0.000	0.319	D	F	477.5	359.832	0.209	0.000	1500.709	1467.420	0.028	-	0.000	-0.000	-	-	-	-	-	-	-	PAVEMENT_GENERAL	Urban	F	1011101000011101	0000000000010000	-	-	-	-	-	-	-	-	-	-	Terminate	
"student29mode1"	"Seema_Shokoufeh_Track2"	"Feb 16, 2017 10:43:58 AM"	Unknown	91.98518	01/16/0117 10:45.34	00005519	0.000	Inter749t31-0	0.640	1	1	356.903	11.111	-2.3	0.000	0.319	D	F	477.5	359.832	0.209	0.000	1500.709	1467.420	0.028	-	0.000	-0.000	-	-	-	-	-	-	-	PAVEMENT_GENERAL	Urban	F	1011101000011101	0000000000010000	-	-	-	-	-	-	-	-	-	-	Terminate	
"student29mode1"	"Seema_Shokoufeh_Track2"	"Feb 16, 2017 10:43:58 AM"	Unknown	92.98519	01/16/0117 10:45.35	00005579	0.000	Inter749t31-0	0.640	1	1	356.903	11.111	-2.5	0.000	0.319	D	F	477.5	359.832	0.209	-0.000	1500.709	1467.420	0.028	-	0.000	-0.000	-	-	-	-	-	-	-	PAVEMENT_GENERAL	Urban	F	1011101000011101	0000000000010000	-	-	-	-	-	-	-	-	-	-	Terminate	
"student29mode1"	"Seema_Shokoufeh_Track2"	"Feb 16, 2017 10:43:58 AM"	Unknown	93.98521	01/16/0117 10:45.36	00005639	0.000	Inter749t31-0	0.640	1	1	356.903	11.111	-2.5	0.000	0.313	D	F	477.5	359.832	0.209	-0.000	1500.709	1467.420	0.028	-	-0.000	0.000	-	-	-	Ambient290	-	41.664	-	PAVEMENT_GENERAL	Urban	F	1111101000011101	0000000000010000	-	-	-	-	-	-	-	-	-	-	Terminate	
"student29mode1"	"Seema_Shokoufeh_Track2"	"Feb 16, 2017 10:43:58 AM"	Unknown	94.98523	01/16/0117 10:45.37	00005699	0.000	Inter749t31-0	0.640	1	1	356.903	11.111	-2.4	0.000	0.310	D	F	477.5	359.832	0.209	-0.000	1500.709	1467.420	0.028	-	-0.000	0.000	-	-	-	Ambient290	-	51.676	-	PAVEMENT_GENERAL	Urban	F	1011101000011101	0000000000010000	-	-	-	-	-	-	-	-	-	-	Terminate	
"student29mode1"	"Seema_Shokoufeh_Track2"	"Feb 16, 2017 10:43:58 AM"	Unknown	95.98525	01/16/0117 10:45.38	00005759	0.000	Inter749t31-0	0.640	1	1	356.903	11.111	-3.1	0.000	0.299	D	F	477.5	359.832	0.209	-0.000	1500.709	1467.420	0.028	-	0.000	-0.000	-	-	-	Ambient290	-	61.688	-	PAVEMENT_GENERAL	Urban	F	1011101000011101	0000000000010000	-	-	-	-	-	-	-	-	-	-	Terminate	
"student29mode1"	"Seema_Shokoufeh_Track2"	"Feb 16, 2017 10:43:58 AM"	Unknown	96.98528	01/16/0117 10:45.39	00005819	0.000	Inter749t31-0	0.640	1	1	356.903	11.111	-3.0	0.000	0.281	D	F	477.5	359.832	0.209	-0.000	1500.709	1467.420	0.028	-	-0.000	0.000	-	-	-	Ambient290	-	71.701	-	PAVEMENT_GENERAL	Urban	F	1011101000011101	0000000000010000	-	-	-	-	-	-	-	-	-	-	Terminate	
"student29mode1"	"Seema_Shokoufeh_Track2"	"Feb 16, 2017 10:43:58 AM"	Unknown	97.98529	01/16/0117 10:45.40	00005879	0.000	Inter749t31-0	0.640	1	1	356.903	11.111	-3.2	0.000	0.293	D	F	477.5	359.832	0.209	0.000	1500.709	1467.420	0.028	-	-0.000	0.000	-	-	-	Ambient290	-	81.713	-	PAVEMENT_GENERAL	Urban	F	1011101000011101	0000000000010000	-	-	-	-	-	-	-	-	-	-	Terminate	
"student29mode1"	"Seema_Shokoufeh_Track2"	"Feb 16, 2017 10:43:58 AM"	Unknown	98.98531	01/16/0117 10:45.41	00005939	0.000	Inter749t31-0	0.640	1	1	356.903	11.111	-3.0	0.000	0.287	D	F	477.5	359.832	0.209	-0.000	1500.709	1467.420	0.028	-	0.000	-0.000	-	-	-	Ambient290	-	91.725	-	PAVEMENT_GENERAL	Urban	F	1011101000011101	0000000000010000	-	-	-	-	-	-	-	-	-	-	Terminate	
"student29mode1"	"Seema_Shokoufeh_Track2"	"Feb 16, 2017 10:43:58 AM"	Unknown	99.98534	01/16/0117 10:45.42	00005999	0.000	Inter749t31-0	0.640	1	1	356.903	11.111	-3.0	0.000	0.287	D	F	477.5	359.832	0.209	-0.000	1500.709	1467.420	0.028	-	0.000	-0.000	-	-	-	Ambient290	-	101.737	-	PAVEMENT_GENERAL	Urban	F	1011101000011101	0000000000010000	-	-	-	-	-	-	-	-	-	-	Terminate	
"student29mode1"	"Seema_Shokoufeh_Track2"	"Feb 16, 2017 10:43:58 AM"	Unknown	100.98535	01/16/0117 10:45.43	00006059	0.000	Inter749t31-0	0.640	1	1	356.903	11.111	-3.0	0.000	0.287	D	F	477.5	359.832	0.209	-0.000	1500.709	1467.420	0.028	-	0.000	-0.000	-	-	-	Ambient290	-	111.749	-	PAVEMENT_GENERAL	Urban	F	1011101000011101	0000000000010000	-	-	-	-	-	-	-	-	-	-	Terminate	
"student29mode1"	"Seema_Shokoufeh_Track2"	"Feb 16, 2017 10:43:58 AM"	Unknown	101.98537	01/16/0117 10:45.44	00006119	0.000	Inter749t31-0	0.640	1	1	356.903	11.111	-4.5	0.000	0.260	D	F	477.5	359.832	0.209	-0.000	1500.709	1467.420	0.028	-	0.000	-0.000	-	-	-	Ambient290	-	121.768	-	PAVEMENT_GENERAL	Urban	F	1011101000011101	0000000000010000	-	-	-	-	-	-	-	-	-	-	Terminate	
"student29mode1"	"Seema_Shokoufeh_Track2"	"Feb 16, 2017 10:43:58 AM"	Unknown	102.98539	01/16/0117 10:45.45	00006179	0.000	Inter749t31-0	0.640	1	1	356.903	11.111	-6.0	0.000	0.251	D	F	477.5	359.832	0.209	-0.000	1500.709	1467.420	0.028	-	-0.000	0.000	-	-	-	Ambient290	-	131.731	-	PAVEMENT_GENERAL	Urban	F	1011101000011101	0000000000010000	-	-	-	-	-	-	-	-	-	-	Terminate	
"student29mode1"	"Seema_Shokoufeh_Track2"	"Feb 16, 2017 10:43:58 AM"	Unknown	103.98541	01/16/0117 10:45.46	00006239	0.000	Inter749t31-0	0.640	1	1	356.903	11.111	-5.8	0.012	0.000	D	F	477.5	359.832	0.209	0.000	1500.709	1467.420	0.028	-	-0.000	0.001	-	-	-	-	-	-	-	PAVEMENT_GENERAL	Urban	F	1011101000011101	0000000000010000	-	-	-	-	-	-	-	-	-	-	Terminate	
"student29mode1"	"Seema_Shokoufeh_Track2"	"Feb 16, 2017 10:43:58 AM"	Unknown	104.98544	01/16/0117 10:45.47	00006299	1.078	Inter749t11-0	0.646	LT1	2	0.000	11.111	-4.8	0.143	0.000	D	F	1328.2	359.804	0.250	0.002	1500.708	1467.629	0.013	-	-0.010	3.212	-	-	-	-	-	-	-	PAVEMENT_GENERAL	Urban	F	1011101000011101	0000000000010000	-	-	-	-	-	-	-	-	-	-	Terminate	
"student29mode1"	"Seema_Shokoufeh_Track2"	"Feb 16, 2017 10:43:58 AM"	Unknown	105.98545	01/16/0117 10:45.48	00006359	3.907	Inter749t11-0	0.626	LT1	2	0.000	11.111	-3.8	0.182	0.000	D	F	1671.7	359.582	0.226	0.003	1500.688	1470.182	0.014	-	-0.023	2.583	-	-	-	-	-	-	-	PAVEMENT_GENERAL	Urban	F	1111101000011101	0000000000010000	-	-	-	-	-	-	-	-	-	-	Terminate	
"student29mode1"	"Seema_Shokoufeh_Track2"	"Feb 16, 2017 10:43:58 AM"	Unknown	106.98547	01/16/0117 10:45.49	00006419	6.003	Inter749t11-0	0.557	LT1	2	0.000	11.111	-13.7	0.171	0.000	D	F	1924.3	359.023	0.214	0.033	1500.619	1475.218	0.018	-	-0.206	1.653	-	-	-	-	-	-	-	PAVEMENT_GENERAL	Urban	F	1011101000011101	0000000000010000	-	-	-	-	-	-	-	-	-	-	Terminate	
"student29mode1"	"Seema_Shokoufeh_Track2"	"Feb 16, 2017 10:43:58 AM"	Unknown	107.98550	01/16/0117 10:45.50	00006479	6.982	Inter749t65-0	0.072	1	1	358.392	11.111	-92.3	0.097	0.000	D	F	1419.5	352.898	0.199	0.190	1500.132	1481.823	0.024	-	-1.563	0.405	-	-	-	-	-	-	-	PAVEMENT_GENERAL	Urban	F	1011101000011101	0000000000010000	-	-	-	-	-	-	-	-	-	-	Terminate	
"student29mode1"	"Seema_Shokoufeh_Track2"	"Feb 16, 2017 10:43:58 AM"	Unknown	108.98551	01/16/0117 10:45.51	00006539	7.536	Inter749t65-0	-0.572	1	1	337.989	11.111	-107.2	0.111	0.000	D	F	1503.2	338.034	0.194	0.260	1498.059	1488.757	0.024	-	-2.024	0.492	-	-	-	-	-	-	-	PAVEMENT_GENERAL	Urban	F	1011101000011101	0000000000010000	-	-	-	-	-	-	-	-	-	-	Terminate	
"student29mode1"	"Seema_Shokoufeh_Track2"	"Feb 16, 2017 10:43:58 AM"	Unknown	109.98553	01/16/0117 10:45.52	00006599	8.051	Inter749t65-0	-0.896	1	1	321.107	11.111	-104.1	0.111	0.000	D	F	1536.8	322.222	0.192	0.290	1493.933	1495.352	0.025	-	-2.226	0.416	-	-	-	-	-	-	-	PAVEMENT_GENERAL	Urban	F	1011101000011101	0000000000010000	-	-	-	-	-	-	-	-	-	-	Terminate	
"student29mode1"	"Seema_Shokoufeh_Track2"	"Feb 16, 2017 10:43:58 AM"	Unknown	110.98555	01/16/0117 10:45.53	00006659	8.492	Inter749t65-0	-0.860	1	1	298.503	11.111	-120.6	0.113	0.000	D	F	1570.4	305.392	0.187	0.367	1487.801	1500.876	0.025	-	-2.834	0.320	-	-	-	-	-	-	-	PAVEMENT_GENERAL	Urban	F	1011101000011101	0000000000010000	-	-	-	-	-	-	-	-	-	-	Terminate	
"student29mode1"	"Seema_Shokoufeh_Track2"	"Feb 16, 2017 10:43:58 AM"	Unknown	111.98557	01/16/0117 10:45.54	00006719	8.865	Inter749t3-3	0.767	1	2	270.000	11.111	-111.5	0.111	0.000	D	F	1597.0	285.405	0.178	0.364	1479.868	1504.298	0.026	-	-2.855	0.294	-	-	-	Ambient290	19.723	174.843	-	PAVEMENT_GENERAL	Urban	F	1011101000011101	0000000000010000	-	-	-	-	-	-	-	-	-	-	Terminate	
"student29mode1"	"Seema_Shokoufeh_Track2"	"Feb 16, 2017 10:43:58 AM"	Unknown	112.98560	01/16/0117 10:45.55	00006779	9.240	Inter749t3-3	1.654	1	2	270.000	11.111	-1.3	0.109	0.000	D	F	1634.2	271.363	0.198	-0.003	1470.882	1505.185	0.024	-	-0.113	0.373	-	-	-	Ambient290	19.004	175.597	-	PAVEMENT_GENERAL	Urban	F	1011101000011101	0000000000010000	-	-	-	-	-	-	-	-	-	-	Terminate	
"student29mode1"	"Seema_Shokoufeh_Track2"	"Feb 16, 2017 10:43:58 AM"	Unknown	113.98561	01/16/0117 10:45.56	00006839	9.620	Inter749t19-0	1.800	1	1	270.079	11.111	-23.1	0.116	0.000	D	F	1686.8	270.114	0.204	0.090	1461.456	1505.337	0.025	-	-0.621	0.394	-	-	-	Ambient290	18.312	176.166	-	PAVEMENT_GENERAL	Urban	F	1011101000011101	0000000000010000	-	-	-	-	-	-	-	-	-	-	Terminate	
"student29mode1"	"Seema_Shokoufeh_Track2"	"Feb 16, 2017 10:43:58 AM"	Unknown	114.98563	01/16/0117 10:45.57	00006899	10.019	Inter749t19-0	1.494	1	1	270.110	11.111	4.6	0.122	0.000	D	F	1742.0	267.596	0.204	-0.017	1451.643	1505.042	0.024	-	0.088	0.413	-	-	-	Ambient290	17.599	176.336	-	PAVEMENT_GENERAL	Urban	F	1011101000011101	0000000000010000	-	-	-	-	-	-	-	-	-	-	Terminate	
"student29mode1"	"Seema_Shokoufeh_Track2"	"Feb 16, 2017 10:43:58 AM"	Unknown	115.98566	01/16/0117 10:45.58	00006959	10.422	Inter749t19-0	1.170	1	1	270.085	11.111	10.5	0.127	0.000	D	F	1491.4	269.023	0.203	-0.039	1441.417	1504.737	0.025	-	0.325	0.360	-	-	-	Ambient290	16.901	176.140	429.247	PAVEMENT_GENERAL	Urban	F	1011101000011101	0000000000010000	-	-	-	-	-	-	-	-	-	-	Terminate	
"student29mode1"	"Seema_Shokoufeh_Track2"	"Feb 16, 2017 10:43:58 AM"	Unknown	116.98567	01/16/0117 10:45.59	00007019	10.760	Inter749t19-0	1.121	1	1	270.061	11.111	0.4	0.123	0.000	D	F	1496.4	270.281	0.202	-0.004	1430.823	1504.706	0.025	-	0.048	0.323	-	-	-	Ambient290	16.317	175.573	234.455	PAVEMENT_GENERAL	Urban	F	1011101000011101	0000000000010000	-	-	-	-	-	-	-	-	-	-	Terminate	
"student29mode1"	"Seema_Shokoufeh_Track2"	"Feb 16, 2017 10:43:58 AM"	Unknown	117.98569	01/16/0117 10:46.00	00007079	11.067	Inter749t19-0	1.120	1	1	270.061	11.111	0.8	0.122	0.000	D	F	1501.9	269.773	0.202	-0.001	1419.906	1504.717	0.025	-	-0.014	0.289	-	-	-	Ambient290	15.782	174.662	165.506	PAVEMENT_GENERAL	Urban	F	1011101000011101	0000000000010000	-	-	-	-	-	-	-	-	-	-	Terminate	
"student29mode1"	"Seema_Shokoufeh_Track2"	"Feb 16, 2017 10:43:58 AM"	Unknown	118.98571	01/16/0117 10:46.01	00007139	11.343	Inter749t1-2	1.142	1	2	270.000	11.111	6.4	0.122	0.000	D	F	1510.2	270.583	0.201	-0.029	1408.699	1504.742	0.025	-	0.221	0.264	-	-	-	Ambient290	15.294	173.476	130.296	PAVEMENT_GENERAL	Urban	F	1011101000011101	0000000000010000	-	-	-	-	-	-	-	-	-	-	Terminate	
"student29mode1"	"Seema_Shokoufeh_Track2"	"Feb 16, 2017 10:43:58 AM"	Unknown	119.98573	01/16/0117 10:46.02	00007199	11.594	Inter747t1-2	1.362	1	2	270.000	11.111	-9.5	0.118	0.000	D	F	1519.3	271.352	0.201	0.047	1397.231	1504.968	0.025	-	-0.245	0.243	-	-	-	Ambient290	14.837	172.025	108.688	PAVEMENT_GENERAL	Urban	F	1011101000011101	0000000000010000	-	-	-	-	-	-	-	-	-	-	Terminate	
"student29mode1"	"Seema_Shokoufeh_Track2"	"Feb 16, 2017 10:43:58 AM"	Unknown	120.98576	01/16/0117 10:46.03	00007259	11.827	Inter747t1-2	1.445	1	2	270.000	11.111	-6.8	0.118	0.000	D	F	1528.1	269.583	0.200	0.036	1385.520	1505.052	0.025	-	-0.288	0.225	-	-	-	Ambient290	14.399	170.301	93.804	PAVEMENT_GENERAL	Urban	F	1011101000011101	0000000000010000	-	-	-	-	-	-	-	-	-	-	Terminate	
"student29mode1"	"Seema_Shokoufeh_Track2"	"Feb 16, 2017 10:43:58 AM"	Unknown	121.98577	01/16/0117 10:46.04	00007319	12.043	Inter747t1-2	1.275	1	2	270.000	11.111	0.1	0.116	0.000	D	F	1536.2	269.063	0.200	0.000	1373.585	1504.882	0.025	-	0.001	0.210	-	-	-	Ambient290	13.981	168.371	82.876	PAVEMENT_GENERAL	Urban	F	1011101000011101	0000000000010000	-	-	-	-	-	-	-	-	-	-	Terminate	
"student29mode1"	"Seema_Shokoufeh_Track2"	"Feb 16, 2017 10:43:58 AM"	Unknown	122.98579	01/16/0117 10:46.05	00007379	12.247	Inter747t1-2	1.088	1	2	270.000	11.111	-0.3	0.118	0.000	D	F	1546.0	269.199	0.200	0.003	1361.441	1504.694	0.025	-	0.006	0.200	-	-	-	Ambient290	13.574	166.241	74.377	PAVEMENT_GENERAL	Urban	F	1011101000011101	0000000000010000	-	-	-	-	-	-	-	-	-	-	Terminate	
"student29mode1"	"Seema_Shokoufeh_Track2"	"Feb 16, 2017 10:43:58 AM"	Unknown	123.98581	01/16/0117 10:46.06	00007439	12.447	Inter747t1-2	0.946	1	2	270.000	11.111	3.0	0.123	0.000	D	F	1569.3	269.544	0.200	-0.017	1349.095	1504.552	0.025	-	0.113	0.210	-	-	-	-	-	-	-	PAVEMENT_GENERAL	Urban	F	1011101000011101	0000000000010000	-	-	-	-	-	-	-	-	-	-	Terminate	
"student29mode1"	"Seema_Shokoufeh_Track2"	"Feb 16, 2017 10:43:58 AM"	Unknown	124.98583	01/16/0117 10:46.07	00007499	12.772	Inter747t1-2	0.915	1	2	270.000	11.111	1.2	0.173	0.000	D	F	1719.9	270.168	0.204	-0.009	1336.508	1504.522	0.024	-	0.082	0.473	-	-	-	-	-	-	-	PAVEMENT_GENERAL	Urban	F	1011101000011101	0000000000010000	-	-	-	-	-	-	-	-	-	-	Terminate	
"student29mode1"	"Seema_Shokoufeh_Track2"	"Feb 16, 2017 10:43:58 AM"	Unknown	125.98586	01/16/0117 10:46.08	00007559	13.285	Inter747t1-2	0.925	1	2	270.000	11.111	-2.4	0.182	0.000	D	F	1764.7	269.759	0.202	0.017	1323.481	1504.531	0.024	-	-0.127	0.510	-	-	-	-	-	-	-	PAVEMENT_GENERAL	Urban	F	1011101000011101	0000000000010000	-	-	-	-	-	-	-	-	-	-	Terminate	
"student29mode1"	"Seema_Shokoufeh_Track2"	"Feb 16, 2017 10:43:58 AM"	Unknown	126.98587	01/16/0117 10:46.09	00007619	13.597	Inter747t1-2	0.868	1	2	270.000	11.111	2.5	0.148	0.000	D	F	1686.3	269.897	0.199	-0.015	1310.015	1504.475	0.025	-	0.106	0.261	-	-	-	-	-	-	-	PAVEMENT_GENERAL	Urban	F	1111101000011101	0000000000010000	-	-	-	-	-	-	-	-	-	-	Terminate	
"student29mode1"	"Seema_Shokoufeh_Track2"	"Feb 16, 2017 10:43:58 AM"	Unknown	127.98589	01/16/0117 10:46.10	00007679	14.008	Inter747t1-2	0.871	1	2	270.000	11.111	-1.1	0.190	0.000	D	F	1811.5	270.001	0.201	0.006	1296.226	1504.478	0.024	-	-0.048	0.466	-	-	-	-	-	-	-	PAVEMENT_GENERAL	Urban	F	1011101000011101	0000000000010000	-	-	-	-	-	-	-	-	-	-	Terminate	
"student29mode1"	"Seema_Shokoufeh_Track2"	"Feb 16, 2017 10:43:58 AM"	Unknown	128.98592	01/16/0117 10:46.11	00007739	14.512	Inter747t1-2	0.844	1	2	270.000	11.111	-1.2	0.196	0.000	D	F	1850.8	269.765	0.200	0.008	1281.965	1504.451	0.024	-	-0.060	0.492	-	-	-	-	-	-	-	PAVEMENT_GENERAL	Urban	F	1011101000011101	0000000000010000	-	-	-	-	-	-	-	-	-	-	Terminate	
"student29mode1"	"Seema_Shokoufeh_Track2"	"Feb 16, 2017 10:43:58 AM"	Unknown	129.98593	01/16/0117 10:46.12	00007799	14.978	Inter747t1-2	0.756	1	2	270.000	11.111	-0.6	0.192	0.000	D	F	1864.7	269.552	0.199	0.006	1267.215	1504.363	0.024	-	-0.041	0.443	-	-	-	-	-	-	-	PAVEMENT_GENERAL	Urban	F	1011101000011101	0000000000010000	-	-	-	-	-	-	-	-	-	-	Terminate	
"student29mode1"	"Seema_Shokoufeh_Track2"	"Feb 16, 2017 10:43:58 AM"	Unknown	130.98595	01/16/0117 10:46.13	00007859	15.408	Inter747t1-2	0.648	1	2	270.000	11.111	2.6	0.187	0.000	D	F	1874.6	269.712	0.198	-0.015	1252.019	1504.255	0.025	-	0.111	0.400	-	-	-	-	-	-	-	PAVEMENT_GENERAL	Urban	F	1011101000011101	0000000000010000	-	-	-	-	-	-	-	-	-	-	Terminate	
"student29mode1"	"Seema_Shokoufeh_Track2"	"Feb 16, 2017 10:43:58 AM"	Unknown	131.98598	01/16/0117 10:46.14	00007919	15.757	Inter747t1-2	0.627	1	2	270.000	11.111	1.6	0.182	0.000	D	F	1878.0	270.147	0.197	-0.014	1236.435	1504.233	0.025	-	0.103	0.344	-	-	-	-	-	-	-	PAVEMENT_GENERAL	Urban	F	1011101000011101	0000000000010000	-	-	-	-	-	-	-	-	-	-	Terminate	
"student29mode1"	"Seema_Shokoufeh_Track2"	"Feb 16, 2017 10:43:58 AM"	Unknown	132.98599	01/16/0117 10:46.15	00007979	16.088	Inter747t1-2	0.692	1	2	270.000	11.111	0.1	0.183	0.000	D	F	1892.1	270.298	0.196	-0.001	1220.511	1504.299	0.025	-	0.013	0.321	-	-	-	-	-	-	-	PAVEMENT_GENERAL	Urban	F	1011101000011101	0000000000010000	-	-	-	-	-	-	-	-	-	-	Terminate	
"student29mode1"	"Seema_Shokoufeh_Track2"	"Feb 16, 2017 10:43:58 AM"	Unknown	133.98601	01/16/0117 10:46.16	00008039	16.396	Inter747t1-2	0.775	1	2	270.000	11.111	0.3	0.180	0.000	D	F	1909.1	270.280	0.196	-0.001	1204.266	1504.382	0.025	-	0.003	0.295	-	-	-	-	-	-	-	PAVEMENT_GENERAL	Urban	F	1011101000011101	0000000000010000	-	-	-	-	-	-	-	-	-	-	Terminate	
"student29mode1"	"Seema_Shokoufeh_Track2"	"Feb 16, 2017 10:43:58 AM"	Unknown	134.98604	01/16/0117 10:46.17	00008099	16.679	Inter748t1-2	0.861	1	2	270.000	11.111	-3.1	0.176	0.000	D	F	1927.8	270.270	0.195	0.016	1187.728	1504.468	0.025	-	-0.104	0.277	-	-	-	-	-	-	-	PAVEMENT_GENERAL	Urban	F	1011101000011101	0000000000010000	-	-	-	-	-	-	-	-	-	-	Terminate	
"student29mode1"	"Seema_Shokoufeh_Track2"	"Feb 16, 2017 10:43:58 AM"	Unknown	135.98605	01/16/0117 10:46.18	00008159	16.946	Inter748t1-2	0.842	1	2	270.000	11.111	-3.7	0.180	0.000	D	F	1945.6	269.524	0.195	0.028	1170.914	1504.449	0.025	-	-0.220	0.262	-	-	-	-	-	-	-	PAVEMENT_GENERAL	Urban	F	1011101000011101	0000000000010000	-	-	-	-	-	-	-	-	-	-	Terminate	
"student29mode1"	"Seema_Shokoufeh_Track2"	"Feb 16, 2017 10:43:58 AM"	Unknown	136.98607	01/16/0117 10:46.19	00008219	17.195	Inter748t1-2	0.604	1	2	270.000	11.111	-3.6	0.176	0.000	D	F	1960.4	268.791	0.194	0.028	1153.844	1504.211	0.025	-	-0.218	0.241	-	-	-	-	-	-	-	PAVEMENT_GENERAL	Urban	F	1011101000011101	0000000000010000	-	-	-	-	-	-	-	-	-	-	Terminate	
"student29mode1"	"Seema_Shokoufeh_Track2"	"Feb 16, 2017 10:43:58 AM"	Unknown	137.98610	01/16/0117 10:46.20	00008279	17.429	Inter748t1-2	0.144	1	2	270.000	11.111	-3.4	0.176	0.000	D	F	1975.8	268.080	0.194	0.027	1136.537	1503.750	0.026	-	-0.209	0.230	-	-	-	-	-	-	-	PAVEMENT_GENERAL	Urban	F	1011101000011101	0000000000010000	-	-	-	-	-	-	-	-	-	-	Terminate	
"student29mode1"	"Seema_Shokoufeh_Track2"	"Feb 16, 2017 10:43:58 AM"	Unknown	138.98611	01/16/0117 10:46.21	00008339	17.650	Inter748t1-2	-0.538	1	2	270.000	11.111	-3.9	0.175	0.000	D	F	1986.8	267.354	0.193	0.031	1119.009	1503.069	0.026	-	-0.237	0.212	-	-	-	-	-	-	-	PAVEMENT_GENERAL	Urban	F	1011101000011101	0000000000010000	-	-	-	-	-	-	-	-	-	-	Terminate	
"student29mode1"	"Seema_Shokoufeh_Track2"	"Feb 16, 2017 10:43:58 AM"	Unknown	139.98613	01/16/0117 10:46.22	00008399	17.849	Inter748t1-2	-1.149	1	2	270.000	11.111	20.5	0.171	0.000	D	F	1997.4	270.318	0.187	-0.217	1101.269	1502.458	0.026	-	1.642	0.196	-	-	-	-	-	-	-	PAVEMENT_GENERAL	Urban	F	1011101000011101	0000000000010000	-	-	-	-	-	-	-	-	-	-	Terminate	
"student29mode1"	"Seema_Shokoufeh_Track2"	"Feb 16, 2017 10:43:58 AM"	Unknown	140.98616	01/16/0117 10:46.23	00008459	18.044	Inter748t1-2	-0.702	1	2	270.000	11.111	-1.0	0.176	0.000	D	F	2016.7	271.918	0.193	0.005	1083.330	1502.905	0.026	-	-0.048	0.200	-	-	-	-	-	-	-	PAVEMENT_GENERAL	Urban	F	1011101000011101	0000000000010000	-	-	-	-	-	-	-	-	-	-	Terminate	
"student29mode1"	"Seema_Shokoufeh_Track2"	"Feb 16, 2017 10:43:58 AM"	Unknown	141.98618	01/16/0117 10:46.24	00008519	18.242	Inter748t1-2	-0.130	1	2	270.000	11.111	-2.0	0.175	0.000	D	F	2029.1	271.649	0.192	0.015	1065.196	1503.477	0.026	-	-0.112	0.194	-	-	-	-	-	-	-	PAVEMENT_GENERAL	Urban	F	1011101000011101	0000000000010000	-	-	-	-	-	-	-	-	-	-	Terminate	
"student29mode1"	"Seema_Shokoufeh_Track2"	"Feb 16, 2017 10:43:58 AM"	Unknown	142.98619	01/16/0117 10:46.25	00008579	18.134	Inter748t1-2	0.318	1	2	270.000	11.111	-4.4	0.030	0.000	D	F	1468.9	271.005	0.184	0.038	1046.957	1503.925	0.028	-	-0.282	-0.363	-	-	-	-	-	-	-	PAVEMENT_GENERAL	Urban	F	1011101000011101	0000000000010000	-	-	-	-	-	-	-	-	-	-	Terminate	
"student29mode1"	"Seema_Shokoufeh_Track2"	"Feb 16, 2017 10:43:58 AM"	Unknown	143.98621	01/16/0117 10:46.26	00008639	17.039	Inter748t1-2	0.490	1	2	270.000	11.111	0.9	0.000	0.087	D	F	1151.1	270.038	0.165	0.008	1029.224	1504.097	0.032	-	-0.111	-1.645	-	-	-	-	-	-	-	PAVEMENT_GENERAL	Urban	F	1011101000011101	0000000000010000	-	-	-	-	-	-	-	-	-	-	Terminate	
"student29mode1"	"Seema_Shokoufeh_Track2"	"Feb 16, 2017 10:43:58 AM"	Unknown	144.98624	01/16/0117 10:46.27	00008699	15.998	Inter748t1-2	0.524	1	2	270.000	11.111	0.9	0.000	0.021	D	F	1088.5	270.230	0.184	-0.010	1012.770	1504.131	0.030	-	0.075	-0.787	-	-	-	-	-	-	-	PAVEMENT_GENERAL	Urban	F	1011101000011101	0000000000010000	-	-	-	-	-	-	-	-	-	-	Terminate	
"student29mode1"	"Seema_Shokoufeh_Track2"	"Feb 16, 2017 10:43:58 AM"	Unknown	145.98625	01/16/0117 10:46.28	00008759	15.653	Inter752t1-2	-0.131	1	2	269.989	24.444	-1.4	0.102	0.000	D	F	1445.2	269.850	0.470	-0.028	996.994	1504.168	0.034	-	-0.166	-0.061	-	-	-	-	-	-	-	FREEWAY_SMOOTH	Urban	F	1011101000011101	0000000000010000	-	-	-	-	-	-	-	-	-	-	Terminate	
"student29mode1"	"Seema_Shokoufeh_Track2"	"Feb 16, 2017 10:43:58 AM"	Unknown	146.98627	01/16/0117 10:46.29	00008819	15.698	Inter752t1-2	-0.150	1	2	269.751	24.444	-1.5	0.131	0.000	D	F	1516.1	269.791	0.347	-0.414	981.333	1504.124	0.053	-	-0.095	0.109	-	-	-	-	-	-	-	FREEWAY_SMOOTH	Urban	F	1011101000011101	0000000000010000	-	-	-	-	-	-	-	-	-	-	Terminate	
"student29mode1"	"Seema_Shokoufeh_Track2"	"Feb 16, 2017 10:43:58 AM"	Unknown	147.98630	01/16/0117 10:46.30	00008879	15.807	Inter752t1-2	-0.148	1	2	269.053	24.444	-3.6	0.129	0.000	D	F	1520.5	269.000	0.299	-0.784	965.582	1503.966	0.083	-	-0.272	0.110	-	-	-	-	-	-	-	FREEWAY_SMOOTH	Urban	F	1011101000011101	0000000000010000	-	-	-	-	-	-	-	-	-	-	Terminate	
"student29mode1"	"Seema_Shokoufeh_Track2"	"Feb 16, 2017 10:43:58 AM"	Unknown	148.98631	01/16/0117 10:46.31	00008939	15.915	Inter752t1-2	-0.126	1	2	267.904	24.444	-2.1	0.132	0.000	D	F	1530.1	268.223	0.301	-1.188	949.727	1503.567	0.111	-	-0.214	0.107	-	-	-	-	-	-	-	FREEWAY_SMOOTH	Urban	F	1011101000011101	0000000000010000	-	-	-	-	-	-	-	-	-	-	Terminate	
"student29mode1"	"Seema_Shokoufeh_Track2"	"Feb 16, 2017 10:43:58 AM"	Unknown	149.98633	01/16/0117 10:46.32	00008999	16.031	Inter752t1-2	0.052	1	2	266.302	24.444	-3.9	0.136	0.000	D	F	1539.4	267.302	0.332	-1.568	933.766	1502.932	0.144	-	-0.320	0.116	-	-	-	-	-	-	-	FREEWAY_SMOOTH	Urban	F	1011101000011101	0000000000010000	-	-	-	-	-	-	-	-	-	-	Terminate	
"student29mode1"	"Seema_Shokoufeh_Track2"	"Feb 16, 2017 10:43:58 AM"	Unknown	150.98636	01/16/0117 10:46.33	00009059	16.181	Inter752t1-2	0.417	1	2	264.213	24.444	-9.5	0.169	0.000	D	F	1634.8	265.700	0.365	-1.925	917.699	1501.955	0.186	-	-0.635	0.221	-	-	-	-	-	-	-	FREEWAY_SMOOTH	Urban	F	1011101000011101	0000000000010000	-	-	-	-	-	-	-	-	-	-	Terminate	
"student29mode1"	"Seema_Shokoufeh_Track2"	"Feb 16, 2017 10:43:58 AM"	Unknown	151.98637	01/16/0117 10:46.34	00009119	16.435	Inter752t1-2	0.820	1	2	261.650	24.444	-14.9	0.171	0.000	D	F	1649.1	262.822	0.368	-2.278	901.472	1500.335	0.235	-	-1.012	0.247	-	-	-	-	-	-	-	FREEWAY_SMOOTH	Urban	F	1011101000011101	0000000000010000	-	-	-	-	-	-	-	-	-	-	Terminate	
"student29mode1"	"Seema_Shokoufeh_Track2"	"Feb 16, 2017 10:43:58 AM"	Unknown	152.98639	01/16/0117 10:46.35	00009179	16.677	Inter752t1-2	1.024	1	2	258.568	24.444	-18.1	0.169	0.000	D	F	1651.1	258.487	0.323	-2.644	885.133	1497.674	0.281	-	-1.379	0.240	-	-	-	-	-	-	-	FREEWAY_SMOOTH	Urban	F	1011101000011101	0000000000010000	-	-	-	-	-	-	-	-	-	-	Terminate	
"student29mode1"	"Seema_Shokoufeh_Track2"	"Feb 16, 2017 10:43:58 AM"	Unknown	153.98642	01/16/0117 10:46.36	00009239	16.869	Inter752t1-2	0.862	1	2	255.009	24.444	-17.6	0.152	0.000	D	F	1614.6	253.783	0.266	-3.056	868.844	1493.655	0.311	-	-1.387	0.174	-	-	-	-	-	-	-	FREEWAY_SMOOTH	Urban	F	1011101000011101	0000000000010000	-	-	-	-	-	-	-	-	-	-	Terminate	
"student29mode1"	"Seema_Shokoufeh_Track2"	"Feb 16, 2017 10:43:58 AM"	Unknown	154.98643	01/16/0117 10:46.37	00009299	16.807	Inter752t1-2	0.450	1	2	250.887	24.444	-13.4	0.039	0.000	D	F	1258.3	249.161	0.061	-3.345	852.842	1488.276	0.314	-	-1.238	-0.337	-	-	-	-	-	-	-	FREEWAY_SMOOTH	Urban	F	1011101000011101	0000000000010000	-	-	-	-	-	-	-	-	-	-	Terminate	
"student29mode1"	"Seema_Shokoufeh_Track2"	"Feb 16, 2017 10:43:58 AM"	Unknown	155.98645	01/16/0117 10:46.38	00009359	16.390	Inter752t1-2	0.004	1	2	246.775	24.444	-11.8	0.019	0.000	D	F	1158.9	245.265	0.102	-3.372	837.542	1481.825	0.288	-	-1.057	-0.440	-	-	-	-	-	-	-	FREEWAY_SMOOTH	Urban	F	1011101000011101	0000000000010000	-	-	-	-	-	-	-	-	-	-	Terminate	
"student29mode1"	"Seema_Shokoufeh_Track2"	"Feb 16, 2017 10:43:58 AM"	Unknown	156.98647	01/16/0117 10:46.39	00009419	15.960	Inter752t1-2	-0.332	1	2	242.689	24.444	-12.4	0.025	0.000	D	F	1155.0	241.709	0.126	-3.378	823.083	1474.580	0.268	-	-1.007	-0.424	-	-	-	-	-	-	-	FREEWAY_SMOOTH	Urban	F	1011101000011101	0000000000010000	-	-	-	-	-	-	-	-	-	-	Terminate	
"student29mode1"	"Seema_Shokoufeh_Track2"	"Feb 16, 2017 10:43:58 AM"	Unknown	157.98650	01/16/0117 10:46.40	00009479	15.537	Inter752t1-2	-0.492	1	2	238.776	24.444	-7.2	0.023	0.000	D	F	1132.1	238.915	0.206	-3.433	809.444	1466.705	0.258	-	-0.604	-0.422	-	-	-	-	-	-	-	FREEWAY_SMOOTH	Urban	F	1011101000011101	0000000000010000	-	-	-	-	-	-	-	-	-	-	Terminate	
"student29mode1"	"Seema_Shokoufeh_Track2"	"Feb 16, 2017 10:43:58 AM"	Unknown	158.98651	01/16/0117 10:46.41	00009539	15.119	Inter752t1-2	-0.340	1	2	234.911	24.444	-15.6	0.026	0.000	D	F	1119.3	235.606	0.233	-3.364	796.551	1458.416	0.267	-	-1.103	-0.414	-	-	-	-	-	-	-	FREEWAY_SMOOTH	Urban	F	1011101000011101	0000000000010000	-	-	-	-	-	-	-	-	-	-	Terminate	
"student29mode1"	"Seema_Shokoufeh_Track2"	"Feb 16, 2017 10:43:58 AM"	Unknown	159.98653	01/16/0117 10:46.42	00009599	14.717	Inter752t1-2	-0.235	1	2	231.177	24.444	-13.9	0.026	0.000	D	F	1099.2	231.368	0.203	-3.374	784.591	1449.505	0.274	-	-1.030	-0.395	-	-	-	-	-	-	-	FREEWAY_SMOOTH	Urban	F	1011101000011101	0000000000010000	-	-	-	-	-	-	-	-	-	-	Terminate	
"student29mode1"	"Seema_Shokoufeh_Track2"	"Feb 16, 2017 10:43:58 AM"	Unknown	160.98656	01/16/0117 10:46.43	00009659	14.318	Inter752t1-2	-0.207	1	2	227.558	24.444	-13.4	0.025	0.000	D	F	1065.3	227.712	0.209	-3.391	773.580	1440.044	0.275	-	-0.912	-0.400	-	-	-	-	-	-	-	FREEWAY_SMOOTH	Urban	F	1011101000011101	0000000000010000	-	-	-	-	-	-	-	-	-	-	Terminate	
"student29mode1"	"Seema_Shokoufeh_Track2"	"Feb 16, 2017 10:43:58 AM"	Unknown	161.98657	01/16/0117 10:46.44	00009719	13.916	Inter752t1-2	-0.197	1	2	224.038	24.444	-11.6	0.021	0.000	D	F	1027.1	224.147	0.204	-3.406	763.479	1430.182	0.276	-	-0.804	-0.411	-	-	-	-	-	-	-	FREEWAY_SMOOTH	Urban	F	1011101000011101	0000000000010000	-	-	-	-	-	-	-	-	-	-	Terminate	
"student29mode1"	"Seema_Shokoufeh_Track2"	"Feb 16, 2017 10:43:58 AM"	Unknown	162.98659	01/16/0117 10:46.45	00009779	13.507	Inter752t1-2	-0.136	1	2	220.594	24.444	-9.6	0.019	0.000	D	F	1004.2	221.288	0.236	-3.430	754.229	1420.059	0.280	-	-0.628	-0.411	-	-	-	-	-	-	-	FREEWAY_SMOOTH	Urban	F	1011101000011101	0000000000010000	-	-	-	-	-	-	-	-	-	-	Terminate	
"student29mode1"	"Seema_Shokoufeh_Track2"	"Feb 16, 2017 10:43:58 AM"	Unknown	163.98662	01/16/0117 10:46.46	00009839	13.100	Inter752t1-2	0.071	1	2	217.287	24.444	-10.3	0.026	0.000	D	F	995.9	218.619	0.280	-3.426	745.734	1409.821	0.292	-	-0.628	-0.395	-	-	-	-	-	-	-	FREEWAY_SMOOTH	Urban	F	1011101000011101	0000000000010000	-	-	-	-	-	-	-	-	-	-	Terminate	
"student29mode1"	"Seema_Shokoufeh_Track2"	"Feb 16, 2017 10:43:58 AM"	Unknown	164.98663	01/16/0117 10:46.47	00009899	12.836	Inter752t1-2	0.321	1	2	214.054	24.444	-23.4	0.099	0.000	D	F	1475.8	214.727	0.245	-3.355	738.022	1399.440	0.305	-	-1.178	0.013	-	-	-	-	-	-	-	FREEWAY_SMOOTH	Urban	F	1011101000011101	0000000000010000	-	-	-	-	-	-	-	-	-	-	Terminate	
"student29mode1"	"Seema_Shokoufeh_Track2"	"Feb 16, 2017 10:43:58 AM"	Unknown	165.98665	01/16/0117 10:46.48	00009959	12.889	Inter752t1-2	0.233	1	2	210.835	24.444	-14.6	0.111	0.000	D	F	1542.7	210.005	0.156	-3.401	731.228	1388.527	0.300	-	-0.850	0.100	-	-	-	-	-	-	-	FREEWAY_SMOOTH	Urban	F	1011101000011101	0000000000010000	-	-	-	-	-	-	-	-	-	-	Terminate	
"student29mode1"	"Seema_Shokoufeh_Track2"	"Feb 16, 2017 10:43:58 AM"	Unknown	166.98668	01/16/0117 10:46.49	00010019	13.091	Inter752t1-2	0.011	1	2	207.590	24.444	-9.6	0.145	0.000	D	F	1641.8	206.945	0.158	-3.428	725.119	1377.078	0.285	-	-0.611	0.261	-	-	-	-	-	-	-	FREEWAY_SMOOTH	Urban	F	1011101000011101	0000000000010000	-	-	-	-	-	-	-	-	-	-	Terminate	
"student29mode1"	"Seema_Shokoufeh_Track2"	"Feb 16, 2017 10:43:58 AM"	Unknown	167.98669	01/16/0117 10:46.50	00010079	13.402	Inter752t1-2	-0.101	1	2	204.293	24.444	-9.7	0.152	0.000	D	F	1689.9	204.262	0.203	-3.428	719.456	1365.104	0.278	-	-0.623	0.319	-	-	-	-	-	-	-	FREEWAY_SMOOTH	Urban	F	1011101000011101	0000000000010000	-	-	-	-	-	-	-	-	-	-	Terminate	
