"Name"	"Project"	"Time"	ZoneName	Time	SystemTime	Frame	Velocity	LaneName	LanePos	LaneIndex	LaneCount	LaneHeading	SpeedLimit	Steer	Accel	Brake	Gear	Horn	SubjectEngineRPM	SubjectHeading	SubjectPitch	SubjectRoll	SubjectX	SubjectY	SubjectZ	Signal	LatAccel	LongAccel	Collision	CollisionAngle	CollisionVelocity	VehAhead	HeadwayTime	HeadwayDist	TTC	TerrainType	CultureType	Slip	DigitalInputs	DigitalInputs2	ActiveTrigger	EntityName	DistToEntity	TimeToEntity	EntityVelocity	EntityAccel	EntityHeading	EntityX	EntityY	EntityZ	GrabData	
"Student11Mode3"	"Tanvi_6"	"Nov 30, 2016 10:31:30 AM"	Unknown	0.98335	10/30/0116 10:31.34	00000059	0.002	Inter625t13-0	-0.088	1	2	0.000	11.111	-3.5	0.000	0.000	P	F	0.0	0.000	0.153	0.001	1503.500	523.206	0.019	-	0.000	0.000	-	-	-	-	-	-	-	PAVEMENT_GENERAL	Urban	F	1011101000011101	0000000000000000	-	car	928.855	774677.312	0.000	0.000	180.000	696.000	987.000	-0.000	Terminate	
"Student11Mode3"	"Tanvi_6"	"Nov 30, 2016 10:31:30 AM"	Unknown	1.98337	10/30/0116 10:31.35	00000119	0.000	Inter625t13-0	-0.088	1	2	0.000	11.111	-3.5	0.000	0.000	P	F	0.0	0.000	0.197	0.000	1503.500	523.208	0.026	-	-0.000	-0.001	-	-	-	-	-	-	-	PAVEMENT_GENERAL	Urban	F	1011101000011101	0000000000000000	-	car	928.855	4213425.500	0.000	0.000	180.000	696.000	987.000	-0.000	Terminate	
"Student11Mode3"	"Tanvi_6"	"Nov 30, 2016 10:31:30 AM"	Unknown	2.98339	10/30/0116 10:31.36	00000179	-0.000	Inter625t13-0	-0.088	1	2	0.000	11.111	-3.5	0.000	0.000	P	F	0.0	0.000	0.207	0.000	1503.500	523.208	0.028	-	-0.000	-0.000	-	-	-	-	-	-	-	PAVEMENT_GENERAL	Urban	F	1011101000011101	0000000000000000	-	car	928.854	-116065672.000	0.000	0.000	180.000	696.000	987.000	-0.000	Terminate	
"Student11Mode3"	"Tanvi_6"	"Nov 30, 2016 10:31:30 AM"	Unknown	3.98341	10/30/0116 10:31.37	00000239	-0.000	Inter625t13-0	-0.088	1	2	0.000	11.111	-3.5	0.000	0.000	P	F	0.0	0.000	0.210	0.000	1503.500	523.208	0.028	-	-0.000	-0.000	-	-	-	-	-	-	-	PAVEMENT_GENERAL	Urban	F	1011101000011101	0000000000000000	-	car	928.854	-22306420.000	0.000	0.000	180.000	696.000	987.000	-0.000	Terminate	
"Student11Mode3"	"Tanvi_6"	"Nov 30, 2016 10:31:30 AM"	Unknown	4.98343	10/30/0116 10:31.38	00000299	-0.000	Inter625t13-0	-0.088	1	2	0.000	11.111	-3.5	0.000	0.191	P	F	0.0	0.000	0.210	0.000	1503.500	523.208	0.028	-	-0.000	0.000	-	-	-	-	-	-	-	PAVEMENT_GENERAL	Urban	F	1111101000011101	0000000000000000	-	car	928.854	-57167876.000	0.000	0.000	180.000	696.000	987.000	-0.000	Terminate	
"Student11Mode3"	"Tanvi_6"	"Nov 30, 2016 10:31:30 AM"	Unknown	5.98345	10/30/0116 10:31.39	00000359	-0.000	Inter625t13-0	-0.088	1	2	0.000	11.111	-3.5	0.000	0.448	P	F	0.0	0.000	0.209	0.000	1503.500	523.208	0.028	-	-0.000	0.000	-	-	-	-	-	-	-	PAVEMENT_GENERAL	Urban	F	1011101000011101	0000000000000000	-	car	928.855	-54749508.000	0.000	0.000	180.000	696.000	987.000	-0.000	Terminate	
"Student11Mode3"	"Tanvi_6"	"Nov 30, 2016 10:31:30 AM"	Unknown	6.98347	10/30/0116 10:31.40	00000419	-0.000	Inter625t13-0	-0.088	1	2	0.000	11.111	-3.5	0.000	0.463	P	F	0.0	0.000	0.209	0.000	1503.500	523.208	0.028	-	-0.000	0.000	-	-	-	-	-	-	-	PAVEMENT_GENERAL	Urban	F	1011101000011101	0000000000000000	-	car	928.855	-151886496.000	0.000	0.000	180.000	696.000	987.000	-0.000	Terminate	
"Student11Mode3"	"Tanvi_6"	"Nov 30, 2016 10:31:30 AM"	Unknown	7.98349	10/30/0116 10:31.41	00000479	-0.000	Inter625t13-0	-0.088	1	2	0.000	11.111	-5.4	0.000	0.490	P	F	0.0	0.000	0.209	0.000	1503.500	523.208	0.028	-	-0.000	0.000	-	-	-	-	-	-	-	PAVEMENT_GENERAL	Urban	F	1011101000011101	0000000000000000	-	car	928.855	-416178752.000	0.000	0.000	180.000	696.000	987.000	-0.000	Terminate	
"Student11Mode3"	"Tanvi_6"	"Nov 30, 2016 10:31:30 AM"	Unknown	8.98351	10/30/0116 10:31.42	00000539	-0.000	Inter625t13-0	-0.088	1	2	0.000	11.111	-2.3	0.000	0.493	P	F	150.0	0.000	0.209	0.000	1503.500	523.208	0.028	-	-0.000	0.000	-	-	-	-	-	-	-	PAVEMENT_GENERAL	Urban	F	1011101000011111	0000000000000000	-	car	928.855	-	0.000	0.000	180.000	696.000	987.000	-0.000	Terminate	
"Student11Mode3"	"Tanvi_6"	"Nov 30, 2016 10:31:30 AM"	Unknown	9.98353	10/30/0116 10:31.43	00000599	-0.000	Inter625t13-0	-0.088	1	2	0.000	11.111	0.6	0.000	0.200	P	F	483.3	0.000	0.209	0.000	1503.500	523.208	0.028	-	0.000	0.000	-	-	-	-	-	-	-	PAVEMENT_GENERAL	Urban	F	1011101000011101	0000000000000000	-	car	928.855	-	0.000	0.000	180.000	696.000	987.000	-0.000	Terminate	
"Student11Mode3"	"Tanvi_6"	"Nov 30, 2016 10:31:30 AM"	Unknown	10.98355	10/30/0116 10:31.44	00000659	-0.000	Inter625t13-0	-0.088	1	2	0.000	11.111	1.8	0.000	0.000	D	F	477.5	0.000	0.209	0.000	1503.500	523.208	0.028	-	0.000	0.000	-	-	-	-	-	-	-	PAVEMENT_GENERAL	Urban	F	1011101000011101	0000000000000000	-	car	928.855	-177058272.000	0.000	0.000	180.000	696.000	987.000	-0.000	Terminate	
"Student11Mode3"	"Tanvi_6"	"Nov 30, 2016 10:31:30 AM"	Unknown	11.98357	10/30/0116 10:31.45	00000719	0.002	Inter625t13-0	-0.088	1	2	0.000	11.111	6.7	0.000	0.000	D	F	477.5	0.000	0.208	-0.000	1503.500	523.208	0.027	-	0.000	0.010	-	-	-	-	-	-	-	PAVEMENT_GENERAL	Urban	F	1011101000011101	0000000000000000	-	car	928.854	995115.375	0.000	0.000	180.000	696.000	987.000	-0.000	Terminate	
"Student11Mode3"	"Tanvi_6"	"Nov 30, 2016 10:31:30 AM"	Unknown	12.98359	10/30/0116 10:31.46	00000779	0.015	Inter625t13-0	-0.088	1	2	0.000	11.111	10.2	0.048	0.000	D	F	670.9	0.003	0.197	-0.000	1503.500	523.216	0.024	-	0.000	0.042	-	-	-	-	-	-	-	PAVEMENT_GENERAL	Urban	F	1111101000011101	0000000000000000	-	car	928.850	127628.422	0.000	0.000	180.000	696.000	987.000	-0.000	Terminate	
"Student11Mode3"	"Tanvi_6"	"Nov 30, 2016 10:31:30 AM"	Unknown	13.98361	10/30/0116 10:31.47	00000839	2.046	Inter625t13-0	-0.081	1	2	0.000	11.111	11.1	0.109	0.000	D	F	1306.5	0.203	0.220	-0.004	1503.507	524.006	0.014	-	0.028	2.532	-	-	-	-	-	-	-	PAVEMENT_GENERAL	Urban	F	1011101000011101	0000000000000000	-	car	928.463	917.877	0.000	0.000	180.000	696.000	987.000	-0.000	Terminate	
"Student11Mode3"	"Tanvi_6"	"Nov 30, 2016 10:31:30 AM"	Unknown	14.98363	10/30/0116 10:31.48	00000899	4.161	Inter625t13-0	-0.035	1	2	0.000	11.111	6.7	0.129	0.000	D	F	1543.3	0.834	0.211	-0.005	1503.553	527.182	0.018	-	0.031	1.565	-	-	-	-	-	-	-	PAVEMENT_GENERAL	Urban	F	1011101000011101	0000000000000000	-	car	926.927	462.014	0.000	0.000	180.000	696.000	987.000	-0.000	Terminate	
"Student11Mode3"	"Tanvi_6"	"Nov 30, 2016 10:31:30 AM"	Unknown	15.98365	10/30/0116 10:31.49	00000959	5.744	Inter625t13-0	0.067	1	2	0.000	11.111	3.3	0.160	0.000	D	F	1857.7	1.264	0.216	-0.005	1503.655	532.150	0.019	-	0.035	1.478	-	-	-	-	-	-	-	PAVEMENT_GENERAL	Urban	F	1011101000011101	0000000000000000	-	car	924.568	341.490	0.000	0.000	180.000	696.000	987.000	-0.000	Terminate	
"Student11Mode3"	"Tanvi_6"	"Nov 30, 2016 10:31:30 AM"	Unknown	16.98367	10/30/0116 10:31.50	00001019	7.131	Inter625t49-0	0.224	1	1	0.006	11.111	-2.1	0.102	0.000	D	F	1472.0	1.334	0.197	0.005	1503.812	538.700	0.022	-	-0.036	0.531	-	-	-	-	-	-	-	PAVEMENT_GENERAL	Urban	F	1011101000011101	0000000000000000	-	car	921.509	278.048	0.000	0.000	180.000	696.000	987.000	-0.000	Terminate	
"Student11Mode3"	"Tanvi_6"	"Nov 30, 2016 10:31:30 AM"	Unknown	17.98369	10/30/0116 10:31.51	00001079	8.156	Inter625t49-0	0.389	1	1	0.008	11.111	0.6	0.196	0.000	D	F	1765.8	1.294	0.215	0.003	1503.979	546.286	0.021	-	0.011	1.232	-	-	-	-	-	-	-	PAVEMENT_GENERAL	Urban	F	1011101000011101	0000000000000000	-	car	917.998	245.255	0.000	0.000	180.000	696.000	987.000	-0.000	Terminate	
"Student11Mode3"	"Tanvi_6"	"Nov 30, 2016 10:31:30 AM"	Unknown	18.98371	10/30/0116 10:31.52	00001139	9.293	Inter625t49-0	0.570	1	1	0.007	11.111	-5.6	0.190	0.000	D	F	1841.2	0.975	0.210	0.019	1504.161	555.026	0.021	-	-0.142	1.042	-	-	-	-	-	-	-	PAVEMENT_GENERAL	Urban	F	1011101000011101	0000000000000000	-	car	914.005	215.541	0.000	0.000	180.000	696.000	987.000	-0.000	Terminate	
"Student11Mode3"	"Tanvi_6"	"Nov 30, 2016 10:31:30 AM"	Unknown	19.98373	10/30/0116 10:31.53	00001199	10.300	Inter625t49-0	0.672	1	1	0.005	11.111	-1.5	0.199	0.000	D	F	1935.2	0.437	0.210	0.006	1504.263	564.826	0.022	-	-0.048	0.983	-	-	-	-	-	-	-	PAVEMENT_GENERAL	Urban	F	1111101000011101	0000000000000000	-	car	909.518	193.559	0.000	0.000	180.000	696.000	987.000	-0.000	Terminate	
"Student11Mode3"	"Tanvi_6"	"Nov 30, 2016 10:31:30 AM"	Unknown	20.98375	10/30/0116 10:31.54	00001259	11.222	Inter625t49-0	0.727	1	1	0.005	11.111	-1.8	0.201	0.000	D	F	2022.7	0.221	0.208	0.010	1504.319	575.597	0.022	-	-0.054	0.877	-	-	-	-	-	-	-	PAVEMENT_GENERAL	Urban	F	1011101000011101	0000000000000000	-	car	904.631	179.077	0.000	0.000	180.000	696.000	987.000	-0.000	Terminate	
"Student11Mode3"	"Tanvi_6"	"Nov 30, 2016 10:31:30 AM"	Unknown	21.98377	10/30/0116 10:31.55	00001319	12.057	Inter625t15-0	0.736	1	2	0.000	11.111	-0.6	0.196	0.000	D	F	2106.2	359.875	0.205	0.002	1504.329	587.241	0.023	-	-0.040	0.795	-	-	-	-	-	-	-	PAVEMENT_GENERAL	Urban	F	1011101000011101	0000000000000000	-	car	899.418	167.529	0.000	0.000	180.000	696.000	987.000	-0.000	Terminate	
"Student11Mode3"	"Tanvi_6"	"Nov 30, 2016 10:31:30 AM"	Unknown	22.98379	10/30/0116 10:31.56	00001379	12.609	Inter625t15-0	0.697	1	2	0.000	11.111	0.5	0.143	0.000	D	F	1641.8	359.817	0.198	-0.001	1504.290	599.612	0.024	-	0.016	0.344	-	-	-	-	-	-	-	PAVEMENT_GENERAL	Urban	F	1011101000011101	0000000000000000	-	car	893.968	162.956	0.000	0.000	180.000	696.000	987.000	-0.000	Terminate	
"Student11Mode3"	"Tanvi_6"	"Nov 30, 2016 10:31:30 AM"	Unknown	23.98381	10/30/0116 10:31.57	00001439	12.890	Inter614t1-0	0.668	1	2	0.000	11.111	0.9	0.141	0.000	D	F	1636.6	359.921	0.200	-0.005	1504.261	612.363	0.025	-	0.034	0.286	-	-	-	-	-	-	-	PAVEMENT_GENERAL	Urban	F	1011101000011101	0000000000000000	-	car	888.504	163.426	0.000	0.000	180.000	696.000	987.000	-0.000	Terminate	
"Student11Mode3"	"Tanvi_6"	"Nov 30, 2016 10:31:30 AM"	Unknown	24.98383	10/30/0116 10:31.58	00001499	13.182	Inter614t1-0	0.665	1	2	0.000	11.111	0.1	0.150	0.000	D	F	1674.5	0.052	0.200	-0.002	1504.258	625.396	0.025	-	0.015	0.316	-	-	-	-	-	-	-	PAVEMENT_GENERAL	Urban	F	1011101000011101	0000000000000000	-	car	883.100	164.379	0.000	0.000	180.000	696.000	987.000	-0.000	Terminate	
"Student11Mode3"	"Tanvi_6"	"Nov 30, 2016 10:31:30 AM"	Unknown	25.98385	10/30/0116 10:31.59	00001559	13.571	Inter614t1-0	0.677	1	2	0.000	11.111	-0.9	0.192	0.000	D	F	1796.4	0.012	0.202	0.003	1504.271	638.751	0.024	-	-0.036	0.519	-	-	-	-	-	-	-	PAVEMENT_GENERAL	Urban	F	1011101000011101	0000000000000000	-	car	877.742	163.534	0.000	0.000	180.000	696.000	987.000	-0.000	Terminate	
"Student11Mode3"	"Tanvi_6"	"Nov 30, 2016 10:31:30 AM"	Unknown	26.98387	10/30/0116 10:32.00	00001619	14.078	Inter614t1-0	0.666	1	2	0.000	11.111	-0.0	0.185	0.000	D	F	1809.8	359.912	0.200	0.001	1504.259	652.581	0.024	-	-0.007	0.469	-	-	-	-	-	-	-	PAVEMENT_GENERAL	Urban	F	1011101000011101	0000000000000000	-	car	872.351	161.481	0.000	0.000	180.000	696.000	987.000	-0.000	Terminate	
"Student11Mode3"	"Tanvi_6"	"Nov 30, 2016 10:31:30 AM"	Unknown	27.98389	10/30/0116 10:32.01	00001679	14.514	Inter614t1-0	0.645	1	2	0.000	11.111	0.2	0.180	0.000	D	F	1813.8	359.945	0.199	-0.002	1504.239	666.883	0.025	-	0.013	0.410	-	-	-	-	-	-	-	PAVEMENT_GENERAL	Urban	F	1111101000011101	0000000000000000	-	car	866.965	161.816	0.000	0.000	180.000	696.000	987.000	-0.000	Terminate	
"Student11Mode3"	"Tanvi_6"	"Nov 30, 2016 10:31:30 AM"	Unknown	28.98391	10/30/0116 10:32.02	00001739	14.931	Inter614t1-0	0.631	1	2	0.000	11.111	0.0	0.187	0.000	D	F	1850.5	359.938	0.199	-0.000	1504.224	681.605	0.025	-	-0.002	0.421	-	-	-	-	-	-	-	PAVEMENT_GENERAL	Urban	F	1011101000011101	0000000000000000	-	car	861.639	162.797	0.000	0.000	180.000	696.000	987.000	-0.000	Terminate	
"Student11Mode3"	"Tanvi_6"	"Nov 30, 2016 10:31:30 AM"	Unknown	29.98393	10/30/0116 10:32.03	00001799	15.350	Inter614t1-0	0.618	1	2	0.000	11.111	0.3	0.196	0.000	D	F	1894.6	0.000	0.200	-0.002	1504.211	696.742	0.024	-	0.015	0.451	-	-	-	-	-	-	-	PAVEMENT_GENERAL	Urban	F	1111101000011101	0000000000000000	-	car	856.393	164.877	0.000	0.000	180.000	696.000	987.000	-0.000	Terminate	
"Student11Mode3"	"Tanvi_6"	"Nov 30, 2016 10:31:30 AM"	Unknown	30.98395	10/30/0116 10:32.04	00001859	15.783	Inter614t1-0	0.620	1	2	0.000	11.111	0.6	0.194	0.000	D	F	1910.2	0.049	0.198	-0.003	1504.213	712.312	0.025	-	0.029	0.412	-	-	-	-	-	-	-	PAVEMENT_GENERAL	Urban	F	1011101000011101	0000000000000000	-	car	851.257	168.032	0.000	0.000	180.000	696.000	987.000	-0.000	Terminate	
"Student11Mode3"	"Tanvi_6"	"Nov 30, 2016 10:31:30 AM"	Unknown	31.98397	10/30/0116 10:32.05	00001919	16.172	Inter614t1-0	0.645	1	2	0.000	11.111	-0.9	0.192	0.000	D	F	1923.0	0.088	0.197	0.007	1504.238	728.292	0.025	-	-0.038	0.370	-	-	-	-	-	-	-	PAVEMENT_GENERAL	Urban	F	1011101000011101	0000000000000000	-	car	846.274	172.482	0.000	0.000	180.000	696.000	987.000	-0.000	Terminate	
"Student11Mode3"	"Tanvi_6"	"Nov 30, 2016 10:31:30 AM"	Unknown	32.98399	10/30/0116 10:32.06	00001979	16.516	Inter614t1-0	0.655	1	2	0.000	11.111	-0.6	0.185	0.000	D	F	1929.8	0.001	0.196	0.004	1504.248	744.642	0.025	-	-0.021	0.320	-	-	-	-	-	-	-	PAVEMENT_GENERAL	Urban	F	1011101000011101	0000000000000000	-	car	841.443	177.393	0.000	0.000	180.000	696.000	987.000	-0.000	Terminate	
"Student11Mode3"	"Tanvi_6"	"Nov 30, 2016 10:31:30 AM"	Unknown	33.98401	10/30/0116 10:32.07	00002039	16.825	Inter614t1-0	0.650	1	2	0.000	11.111	-0.4	0.185	0.000	D	F	1948.5	0.000	0.195	0.002	1504.243	761.316	0.025	-	-0.012	0.294	-	-	-	-	-	-	-	PAVEMENT_GENERAL	Urban	F	1011101000011101	0000000000000000	-	car	836.801	184.613	0.000	0.000	180.000	696.000	987.000	-0.000	Terminate	
"Student11Mode3"	"Tanvi_6"	"Nov 30, 2016 10:31:30 AM"	Unknown	34.98403	10/30/0116 10:32.08	00002099	17.114	Inter614t1-0	0.650	1	2	0.000	11.111	0.5	0.182	0.000	D	F	1969.4	0.118	0.195	-0.009	1504.243	778.286	0.025	-	0.063	0.285	-	-	-	-	-	-	-	PAVEMENT_GENERAL	Urban	F	1011101000011101	0000000000000000	-	car	832.397	196.094	0.000	0.000	180.000	696.000	987.000	-0.000	Terminate	
"Student11Mode3"	"Tanvi_6"	"Nov 30, 2016 10:31:30 AM"	Unknown	35.98405	10/30/0116 10:32.09	00002159	17.395	Inter614t1-0	0.691	1	2	0.000	11.111	-0.1	0.185	0.000	D	F	1993.7	0.152	0.194	0.001	1504.284	795.541	0.025	-	-0.002	0.283	-	-	-	-	-	-	-	PAVEMENT_GENERAL	Urban	F	1011101000011101	0000000000000000	-	car	828.291	208.926	0.000	0.000	180.000	696.000	987.000	-0.000	Terminate	
"Student11Mode3"	"Tanvi_6"	"Nov 30, 2016 10:31:30 AM"	Unknown	36.98407	10/30/0116 10:32.10	00002219	17.677	Inter612t1-0	0.736	1	2	0.000	11.111	0.3	0.187	0.000	D	F	2014.3	0.154	0.194	-0.002	1504.329	813.078	0.025	-	0.011	0.274	-	-	-	-	-	-	-	PAVEMENT_GENERAL	Urban	F	1011101000011101	0000000000000000	-	car	824.469	224.522	0.000	0.000	180.000	696.000	987.000	-0.000	Terminate	
"Student11Mode3"	"Tanvi_6"	"Nov 30, 2016 10:31:30 AM"	Unknown	37.98409	10/30/0116 10:32.11	00002279	17.960	Inter612t1-0	0.791	1	2	0.000	11.111	0.1	0.190	0.000	D	F	2041.9	0.228	0.193	-0.006	1504.384	830.895	0.025	-	0.024	0.286	-	-	-	-	-	-	-	PAVEMENT_GENERAL	Urban	F	1011101000011101	0000000000000000	-	car	820.959	246.168	0.000	0.000	180.000	696.000	987.000	-0.000	Terminate	
"Student11Mode3"	"Tanvi_6"	"Nov 30, 2016 10:31:30 AM"	Unknown	38.98411	10/30/0116 10:32.12	00002339	18.233	Inter612t1-0	0.869	1	2	0.000	11.111	-0.1	0.190	0.000	D	F	2061.1	0.294	0.193	-0.005	1504.462	848.991	0.025	-	0.021	0.272	-	-	-	-	-	-	-	PAVEMENT_GENERAL	Urban	F	1011101000011101	0000000000000000	-	car	817.797	274.817	0.000	0.000	180.000	696.000	987.000	-0.000	Terminate	
"Student11Mode3"	"Tanvi_6"	"Nov 30, 2016 10:31:30 AM"	Unknown	39.98413	10/30/0116 10:32.13	00002399	18.494	Inter612t1-0	0.938	1	2	0.000	11.111	-2.6	0.189	0.000	D	F	2076.1	0.000	0.192	0.024	1504.532	867.356	0.025	-	-0.179	0.255	-	-	-	-	-	-	-	PAVEMENT_GENERAL	Urban	F	1011101000011101	0000000000000000	-	car	814.976	300.396	0.000	0.000	180.000	696.000	987.000	-0.000	Terminate	
"Student11Mode3"	"Tanvi_6"	"Nov 30, 2016 10:31:30 AM"	Unknown	40.98415	10/30/0116 10:32.14	00002459	18.739	Inter612t1-0	0.869	1	2	0.000	11.111	-0.3	0.185	0.000	D	F	2087.5	359.542	0.192	0.012	1504.462	885.975	0.026	-	-0.087	0.231	-	-	-	-	-	-	-	PAVEMENT_GENERAL	Urban	F	1011101000011101	0000000000000000	-	car	812.390	328.637	0.000	0.000	180.000	696.000	987.000	-0.000	Terminate	
"Student11Mode3"	"Tanvi_6"	"Nov 30, 2016 10:31:30 AM"	Unknown	41.98417	10/30/0116 10:32.15	00002519	18.974	Inter612t1-0	0.732	1	2	0.000	11.111	1.6	0.192	0.000	D	F	2110.6	359.702	0.192	-0.015	1504.325	904.828	0.026	-	0.106	0.246	-	-	-	-	-	-	-	PAVEMENT_GENERAL	Urban	F	1011101000011101	0000000000000000	-	car	810.131	401.614	0.000	0.000	180.000	696.000	987.000	-0.000	Terminate	
"Student11Mode3"	"Tanvi_6"	"Nov 30, 2016 10:31:30 AM"	Unknown	42.98419	10/30/0116 10:32.16	00002579	19.216	Inter612t1-0	0.658	1	2	0.000	11.111	0.7	0.190	0.000	D	F	2131.5	359.860	0.191	-0.005	1504.252	923.922	0.026	-	0.041	0.246	-	-	-	-	-	-	-	PAVEMENT_GENERAL	Urban	F	1011101000011101	0000000000000000	-	car	808.350	524.220	0.000	0.000	180.000	696.000	987.000	-0.000	Terminate	
"Student11Mode3"	"Tanvi_6"	"Nov 30, 2016 10:31:30 AM"	Unknown	43.98421	10/30/0116 10:32.17	00002639	19.450	Inter612t1-0	0.630	1	2	0.000	11.111	0.6	0.190	0.000	D	F	2149.9	0.000	0.191	-0.006	1504.223	943.257	0.026	-	0.048	0.228	-	-	-	-	-	-	-	PAVEMENT_GENERAL	Urban	F	1011101000011101	0000000000000000	-	car	807.046	767.513	0.000	0.000	180.000	696.000	987.000	-0.000	Terminate	
"Student11Mode3"	"Tanvi_6"	"Nov 30, 2016 10:31:30 AM"	Unknown	44.98423	10/30/0116 10:32.18	00002699	19.672	Inter612t1-0	0.647	1	2	0.000	11.111	0.4	0.192	0.000	D	F	2171.3	0.117	0.190	-0.004	1504.240	962.818	0.026	-	0.031	0.220	-	-	-	-	-	-	-	PAVEMENT_GENERAL	Urban	F	1011101000011101	0000000000000000	-	car	806.242	1471.001	0.000	0.000	180.000	696.000	987.000	-0.000	Terminate	
"Student11Mode3"	"Tanvi_6"	"Nov 30, 2016 10:31:30 AM"	Unknown	45.98425	10/30/0116 10:32.19	00002759	19.890	Inter612t1-0	0.698	1	2	0.000	11.111	0.4	0.190	0.000	D	F	2188.4	0.203	0.190	-0.004	1504.292	982.600	0.026	-	0.029	0.206	-	-	-	-	-	-	-	PAVEMENT_GENERAL	Urban	F	1011101000011101	0000000000000000	-	car	805.944	21333.166	0.000	0.000	180.000	696.000	987.000	-0.000	Terminate	
"Student11Mode3"	"Tanvi_6"	"Nov 30, 2016 10:31:30 AM"	Unknown	46.98427	10/30/0116 10:32.20	00002819	20.088	Inter613t1-0	0.779	1	2	0.000	11.111	-0.5	0.187	0.000	D	F	2203.6	0.251	0.189	0.001	1504.372	1002.591	0.026	-	-0.012	0.180	-	-	-	-	-	-	-	PAVEMENT_GENERAL	Urban	F	1111101000011101	0000000000000000	-	car	806.163	-1695.461	0.000	0.000	180.000	696.000	987.000	-0.000	Terminate	
"Student11Mode3"	"Tanvi_6"	"Nov 30, 2016 10:31:30 AM"	Unknown	47.98429	10/30/0116 10:32.21	00002879	20.271	Inter613t1-0	0.855	1	2	0.000	11.111	-0.7	0.189	0.000	D	F	2221.2	0.159	0.189	0.006	1504.448	1022.771	0.026	-	-0.046	0.182	-	-	-	-	-	-	-	PAVEMENT_GENERAL	Urban	F	1011101000011101	0000000000000000	-	car	806.879	-847.280	0.000	0.000	180.000	696.000	987.000	-0.000	Terminate	
"Student11Mode3"	"Tanvi_6"	"Nov 30, 2016 10:31:30 AM"	Unknown	48.98431	10/30/0116 10:32.22	00002939	20.446	Inter613t1-0	0.914	1	2	0.000	11.111	-2.6	0.189	0.000	D	F	2235.1	0.167	0.188	0.014	1504.508	1043.131	0.026	-	-0.083	0.173	-	-	-	-	-	-	-	PAVEMENT_GENERAL	Urban	F	1011101000011101	0000000000000000	-	car	808.094	-547.665	0.000	0.000	180.000	696.000	987.000	-0.000	Terminate	
"Student11Mode3"	"Tanvi_6"	"Nov 30, 2016 10:31:30 AM"	Unknown	49.98433	10/30/0116 10:32.23	00002999	20.617	Inter613t1-0	0.884	1	2	0.000	11.111	-0.5	0.187	0.000	D	F	2250.5	359.597	0.188	0.011	1504.477	1063.663	0.026	-	-0.114	0.168	-	-	-	-	-	-	-	PAVEMENT_GENERAL	Urban	F	1011101000011101	0000000000000000	-	car	809.744	-449.420	0.000	0.000	180.000	696.000	987.000	-0.000	Terminate	
"Student11Mode3"	"Tanvi_6"	"Nov 30, 2016 10:31:30 AM"	Unknown	50.98435	10/30/0116 10:32.24	00003059	20.785	Inter613t1-0	0.739	1	2	0.000	11.111	0.2	0.189	0.000	D	F	2267.8	359.607	0.188	-0.003	1504.332	1084.364	0.026	-	0.017	0.168	-	-	-	-	-	-	-	PAVEMENT_GENERAL	Urban	F	1011101000011101	0000000000000000	-	car	811.815	-346.314	0.000	0.000	180.000	696.000	987.000	-0.000	Terminate	
"Student11Mode3"	"Tanvi_6"	"Nov 30, 2016 10:31:30 AM"	Unknown	51.98437	10/30/0116 10:32.25	00003119	20.950	Inter613t1-0	0.605	1	2	0.000	11.111	0.8	0.189	0.000	D	F	2281.1	359.692	0.187	-0.007	1504.198	1105.232	0.026	-	0.051	0.160	-	-	-	-	-	-	-	PAVEMENT_GENERAL	Urban	F	1011101000011101	0000000000000000	-	car	814.441	-278.821	0.000	0.000	180.000	696.000	987.000	-0.000	Terminate	
"Student11Mode3"	"Tanvi_6"	"Nov 30, 2016 10:31:30 AM"	Unknown	52.98439	10/30/0116 10:32.26	00003179	21.112	Inter613t1-0	0.522	1	2	0.000	11.111	1.2	0.190	0.000	D	F	2298.0	359.903	0.187	-0.010	1504.115	1126.262	0.026	-	0.080	0.158	-	-	-	-	-	-	-	PAVEMENT_GENERAL	Urban	F	1011101000011101	0000000000000000	-	car	817.667	-230.323	0.000	0.000	180.000	696.000	987.000	-0.000	Terminate	
"Student11Mode3"	"Tanvi_6"	"Nov 30, 2016 10:31:30 AM"	Unknown	53.98441	10/30/0116 10:32.27	00003239	21.273	Inter613t1-0	0.515	1	2	0.000	11.111	0.8	0.189	0.000	D	F	2311.3	0.088	0.187	-0.007	1504.108	1147.455	0.026	-	0.058	0.158	-	-	-	-	-	-	-	PAVEMENT_GENERAL	Urban	F	1011101000011101	0000000000000000	-	car	821.525	-196.761	0.000	0.000	180.000	696.000	987.000	-0.000	Terminate	
"Student11Mode3"	"Tanvi_6"	"Nov 30, 2016 10:31:30 AM"	Unknown	54.98443	10/30/0116 10:32.28	00003299	21.423	Inter613t1-0	0.570	1	2	0.000	11.111	0.4	0.187	0.000	D	F	2322.1	0.219	0.186	-0.004	1504.163	1168.804	0.026	-	0.032	0.145	-	-	-	-	-	-	-	PAVEMENT_GENERAL	Urban	F	1011101000011101	0000000000000000	-	car	826.000	-172.742	0.000	0.000	180.000	696.000	987.000	-0.000	Terminate	
"Student11Mode3"	"Tanvi_6"	"Nov 30, 2016 10:31:30 AM"	Unknown	55.98445	10/30/0116 10:32.29	00003359	21.554	Inter613t1-0	0.664	1	2	0.000	11.111	0.7	0.093	0.000	D	F	1813.8	0.322	0.181	-0.007	1504.258	1190.297	0.026	-	0.049	-0.005	-	-	-	-	-	-	-	PAVEMENT_GENERAL	Urban	F	1011101000011101	0000000000000000	-	car	831.073	-154.623	0.000	0.000	180.000	696.000	987.000	-0.000	Terminate	
"Student11Mode3"	"Tanvi_6"	"Nov 30, 2016 10:31:30 AM"	Unknown	56.98447	10/30/0116 10:32.30	00003419	20.983	Inter615t9-0	0.821	1	2	0.000	11.111	-0.7	0.000	0.000	D	F	1434.0	0.656	0.179	-0.020	1504.415	1211.586	0.030	-	0.111	-0.619	-	-	-	-	-	-	-	PAVEMENT_GENERAL	Urban	F	1011101000011101	0000000000000000	-	car	836.672	-143.080	0.000	0.000	180.000	696.000	987.000	-0.000	Terminate	
"Student11Mode3"	"Tanvi_6"	"Nov 30, 2016 10:31:30 AM"	Unknown	57.98449	10/30/0116 10:32.31	00003479	18.198	Inter615t31-0	1.414	1	1	354.570	11.111	-29.5	0.000	0.493	D	F	1153.4	355.772	-0.063	0.384	1504.199	1231.777	0.042	-	-2.209	-5.992	-	-	-	22	2.356	42.880	2.356	PAVEMENT_GENERAL	Urban	F	1011101000011101	0000000000000000	-	car	842.094	-211.763	0.000	0.000	180.000	696.000	987.000	-0.000	Terminate	
"Student11Mode3"	"Tanvi_6"	"Nov 30, 2016 10:31:30 AM"	Unknown	58.98451	10/30/0116 10:32.32	00003539	10.789	Inter615t31-0	1.191	1	1	356.208	11.111	-13.5	0.000	0.660	D	F	913.1	349.584	-0.265	0.139	1502.609	1246.302	0.044	-	-1.063	-7.728	-	-	-	22	2.631	28.391	2.631	PAVEMENT_GENERAL	Urban	F	1011101000011101	0000000000000000	-	car	844.904	-607.631	0.000	0.000	180.000	696.000	987.000	-0.000	Terminate	
"Student11Mode3"	"Tanvi_6"	"Nov 30, 2016 10:31:30 AM"	Unknown	59.98453	10/30/0116 10:32.33	00003599	3.478	Inter615t31-0	0.491	1	1	356.903	11.111	32.1	0.000	0.448	D	F	477.5	349.738	-0.109	-0.027	1501.329	1253.217	0.042	-	0.171	-5.820	-	-	-	22	6.141	21.357	6.141	PAVEMENT_GENERAL	Urban	F	1111101000011101	0000000000000000	-	car	845.830	-1740.870	0.000	0.000	180.000	696.000	987.000	-0.000	Terminate	
"Student11Mode3"	"Tanvi_6"	"Nov 30, 2016 10:31:30 AM"	Unknown	60.98455	10/30/0116 10:32.34	00003659	1.684	Inter615t31-0	0.298	1	1	356.903	11.111	45.3	0.000	0.000	D	F	477.5	351.354	0.201	-0.009	1501.022	1255.306	0.029	-	0.059	-0.386	-	-	-	22	11.431	19.254	11.431	PAVEMENT_GENERAL	Urban	F	1011101000011101	0000000000000000	-	car	846.198	-2955.551	0.000	0.000	180.000	696.000	987.000	-0.000	Terminate	
"Student11Mode3"	"Tanvi_6"	"Nov 30, 2016 10:31:30 AM"	Unknown	61.98457	10/30/0116 10:32.35	00003719	1.375	Inter615t31-0	0.214	1	1	356.903	11.111	56.0	0.018	0.000	D	F	506.3	352.935	0.201	-0.006	1500.856	1256.816	0.028	-	0.043	-0.247	-	-	-	22	12.903	17.738	12.903	PAVEMENT_GENERAL	Urban	F	1011101000011101	0000000000000000	-	car	846.519	-3097.271	0.000	0.000	180.000	696.000	987.000	-0.000	Terminate	
"Student11Mode3"	"Tanvi_6"	"Nov 30, 2016 10:31:30 AM"	Unknown	62.98459	10/30/0116 10:32.36	00003779	2.255	Inter615t31-0	0.184	1	1	356.903	11.111	58.5	0.042	0.000	D	F	971.2	355.046	0.199	-0.018	1500.734	1258.518	0.021	-	0.130	0.809	-	-	-	22	7.108	16.031	7.108	PAVEMENT_GENERAL	Urban	F	1011101000011101	0000000000000000	-	car	846.946	-1586.627	0.000	0.000	180.000	696.000	987.000	-0.000	Terminate	
"Student11Mode3"	"Tanvi_6"	"Nov 30, 2016 10:31:30 AM"	Unknown	63.98461	10/30/0116 10:32.37	00003839	2.529	Inter615t31-0	0.219	1	1	356.903	11.111	22.7	0.055	0.000	D	F	1099.5	357.267	0.230	0.001	1500.641	1260.898	0.024	-	0.022	0.935	-	-	-	22	5.398	13.650	5.398	PAVEMENT_GENERAL	Urban	F	1011101000011101	0000000000000000	-	car	847.621	-1211.237	0.000	0.000	180.000	696.000	987.000	-0.000	Terminate	
"Student11Mode3"	"Tanvi_6"	"Nov 30, 2016 10:31:30 AM"	Unknown	64.98463	10/30/0116 10:32.38	00003899	2.601	Inter615t31-0	0.284	1	1	356.903	11.111	15.2	0.000	0.000	D	F	708.0	358.196	0.194	-0.004	1500.559	1263.623	0.027	-	0.035	-0.455	-	-	-	22	4.200	10.925	4.200	PAVEMENT_GENERAL	Urban	F	1011101000011101	0000000000000000	-	car	848.425	-1104.827	0.000	0.000	180.000	696.000	987.000	-0.000	Terminate	
"Student11Mode3"	"Tanvi_6"	"Nov 30, 2016 10:31:30 AM"	Unknown	65.98465	10/30/0116 10:32.39	00003959	2.146	Inter615t31-0	0.370	1	1	356.903	11.111	8.9	0.000	0.000	D	F	584.5	358.854	0.199	-0.003	1500.517	1265.996	0.028	-	0.023	-0.455	-	-	-	22	3.211	6.892	16.696	PAVEMENT_GENERAL	Urban	F	1011101000011101	0000000000000000	-	car	849.160	-1281.773	0.000	0.000	180.000	696.000	987.000	-0.000	Terminate	
"Student11Mode3"	"Tanvi_6"	"Nov 30, 2016 10:31:30 AM"	Unknown	66.98467	10/30/0116 10:32.40	00004019	1.698	Inter615t11-0	0.433	LT1	2	0.000	11.111	11.4	0.012	0.000	D	F	496.5	359.263	0.202	-0.000	1500.496	1267.915	0.028	-	0.011	-0.395	-	-	-	22	5.928	10.064	-	PAVEMENT_GENERAL	Urban	F	1011101000011101	0000000000000000	-	car	849.771	-1576.551	0.000	0.000	180.000	696.000	987.000	-0.000	Terminate	
"Student11Mode3"	"Tanvi_6"	"Nov 30, 2016 10:31:30 AM"	Unknown	67.98470	10/30/0116 10:32.41	00004079	2.352	Inter615t11-0	0.427	LT1	2	0.000	11.111	7.6	0.023	0.000	D	F	807.2	359.690	0.184	-0.001	1500.489	1269.900	0.023	-	0.002	0.130	-	-	-	22	5.462	12.846	-	PAVEMENT_GENERAL	Urban	F	1011101000011101	0000000000000000	-	car	850.422	-1106.995	0.000	0.000	180.000	696.000	987.000	-0.000	Terminate	
"Student11Mode3"	"Tanvi_6"	"Nov 30, 2016 10:31:30 AM"	Unknown	68.98471	10/30/0116 10:32.42	00004139	2.239	Inter615t11-0	0.421	LT1	2	0.000	11.111	3.5	0.028	0.000	D	F	844.3	359.800	0.216	0.000	1500.483	1272.197	0.027	-	0.013	0.202	-	-	-	22	7.713	17.271	-	PAVEMENT_GENERAL	Urban	F	1011101000011101	0000000000000000	-	car	851.180	-1148.856	0.000	0.000	180.000	696.000	987.000	-0.000	Terminate	
"Student11Mode3"	"Tanvi_6"	"Nov 30, 2016 10:31:30 AM"	Unknown	69.98473	10/30/0116 10:32.43	00004199	3.121	Inter615t11-0	0.426	LT1	2	0.000	11.111	5.1	0.065	0.000	D	F	1191.5	0.098	0.207	-0.002	1500.488	1274.795	0.021	-	0.010	0.942	-	-	-	22	7.488	23.371	-	PAVEMENT_GENERAL	Urban	F	1011101000011101	0000000000000000	-	car	852.057	-806.676	0.000	0.000	180.000	696.000	987.000	-0.000	Terminate	
"Student11Mode3"	"Tanvi_6"	"Nov 30, 2016 10:31:30 AM"	Unknown	70.98476	10/30/0116 10:32.44	00004259	3.953	Inter615t11-0	0.433	LT1	2	0.000	11.111	-9.6	0.076	0.000	D	F	1354.7	0.053	0.213	0.015	1500.496	1278.322	0.022	-	-0.100	0.921	-	-	-	22	7.551	29.849	-	PAVEMENT_GENERAL	Urban	F	1011101000011101	0000000000000000	-	car	853.258	-632.327	0.000	0.000	180.000	696.000	987.000	-0.000	Terminate	
"Student11Mode3"	"Tanvi_6"	"Nov 30, 2016 10:31:30 AM"	Unknown	71.98477	10/30/0116 10:32.45	00004319	4.653	Inter615t65-0	0.342	1	1	355.578	11.111	-43.3	0.076	0.000	D	F	1447.8	357.733	0.209	0.050	1500.375	1282.646	0.023	-	-0.369	0.603	-	-	-	22	8.107	37.723	-	PAVEMENT_GENERAL	Urban	F	1011101000011101	0000000000000000	-	car	854.627	-597.124	0.000	0.000	180.000	696.000	987.000	-0.000	Terminate	
"Student11Mode3"	"Tanvi_6"	"Nov 30, 2016 10:31:30 AM"	Unknown	72.98479	10/30/0116 10:32.46	00004379	5.242	Inter615t65-0	0.705	1	1	341.866	11.111	-78.1	0.078	0.000	D	F	1234.8	351.970	0.204	0.108	1499.820	1287.577	0.024	-	-0.801	0.485	-	-	-	22	8.839	46.335	-	PAVEMENT_GENERAL	Urban	F	1011101000011101	0000000000000000	-	car	855.820	-755.871	0.000	0.000	180.000	696.000	987.000	-0.000	Terminate	
"Student11Mode3"	"Tanvi_6"	"Nov 30, 2016 10:31:30 AM"	Unknown	73.98481	10/30/0116 10:32.47	00004439	5.687	Inter615t65-0	1.521	1	1	330.495	11.111	-90.3	0.074	0.000	D	F	1236.5	343.015	0.201	0.139	1498.443	1292.873	0.024	-	-1.056	0.357	-	-	-	22	9.953	56.605	-	PAVEMENT_GENERAL	Urban	F	1011101000011101	0000000000000000	-	car	856.403	-2225.064	0.000	0.000	180.000	696.000	987.000	-0.000	Terminate	
"Student11Mode3"	"Tanvi_6"	"Nov 30, 2016 10:31:30 AM"	Unknown	74.98483	10/30/0116 10:32.48	00004499	6.254	-Inter615t83-0	0.552	-1	1	179.883	11.111	-116.9	0.081	0.000	D	F	1329.3	330.479	0.193	0.206	1495.876	1298.218	0.023	-	-1.584	0.449	-	-	-	22	11.296	70.643	-	PAVEMENT_GENERAL	Urban	F	1011101000011101	0000000000000000	-	car	855.929	952.502	0.000	0.000	180.000	696.000	987.000	-0.000	Terminate	
"Student11Mode3"	"Tanvi_6"	"Nov 30, 2016 10:31:30 AM"	Unknown	75.98486	10/30/0116 10:32.49	00004559	6.631	Inter615t75-0	-0.434	1	1	269.734	11.111	-128.1	0.079	0.000	D	F	1322.1	314.823	0.191	0.253	1491.725	1303.144	0.025	-	-1.939	0.233	-	-	-	22	12.493	82.841	-	PAVEMENT_GENERAL	Urban	F	1011101000011101	0000000000000000	-	car	853.868	322.814	0.000	0.000	180.000	696.000	987.000	-0.000	Terminate	
"Student11Mode3"	"Tanvi_6"	"Nov 30, 2016 10:31:30 AM"	Unknown	76.98487	10/30/0116 10:32.50	00004619	6.928	Inter615t77-0	-0.288	1	1	269.734	11.111	-138.7	0.076	0.000	D	F	1324.9	297.579	0.187	0.305	1486.067	1306.864	0.026	-	-2.308	0.123	-	-	-	22	14.203	98.393	-	PAVEMENT_GENERAL	Urban	F	1011101000011101	0000000000000000	-	car	850.001	189.388	0.000	0.000	180.000	696.000	987.000	-0.000	Terminate	
"Student11Mode3"	"Tanvi_6"	"Nov 30, 2016 10:31:30 AM"	Unknown	77.98489	10/30/0116 10:32.51	00004679	7.106	Inter615t3-4	1.546	2	2	270.000	11.111	-133.7	0.058	0.000	D	F	1274.3	278.753	0.183	0.316	1479.299	1308.677	0.026	-	-2.329	-0.033	-	-	-	-	-	-	-	PAVEMENT_GENERAL	Urban	F	1011101000011101	0000000000000000	-	car	844.419	138.745	0.000	0.000	180.000	696.000	987.000	-0.000	Terminate	
"Student11Mode3"	"Tanvi_6"	"Nov 30, 2016 10:31:30 AM"	Unknown	78.98492	10/30/0116 10:32.52	00004739	7.291	Inter615t3-4	1.423	2	2	270.000	11.111	-8.8	0.071	0.000	D	F	1340.0	266.227	0.202	-0.004	1472.121	1308.554	0.025	-	-0.065	0.206	-	-	-	-	-	-	-	PAVEMENT_GENERAL	Urban	F	1011101000011101	0000000000000000	-	car	837.736	121.332	0.000	0.000	180.000	696.000	987.000	-0.000	Terminate	
"Student11Mode3"	"Tanvi_6"	"Nov 30, 2016 10:31:30 AM"	Unknown	79.98493	10/30/0116 10:32.53	00004799	7.569	Inter615t17-0	1.065	1	1	270.069	11.111	13.7	0.076	0.000	D	F	1376.3	268.523	0.204	-0.018	1464.701	1308.199	0.025	-	0.220	0.245	-	-	-	-	-	-	-	PAVEMENT_GENERAL	Urban	F	1011101000011101	0000000000000000	-	car	830.749	117.723	0.000	0.000	180.000	696.000	987.000	-0.000	Terminate	
"Student11Mode3"	"Tanvi_6"	"Nov 30, 2016 10:31:30 AM"	Unknown	80.98495	10/30/0116 10:32.54	00004859	7.928	Inter615t17-0	0.867	1	1	270.093	11.111	-4.2	0.111	0.000	D	F	1526.8	268.190	0.205	0.001	1456.983	1308.009	0.024	-	-0.072	0.513	-	-	-	-	-	-	-	PAVEMENT_GENERAL	Urban	F	1011101000011101	0000000000000000	-	car	823.559	111.316	0.000	0.000	180.000	696.000	987.000	-0.000	Terminate	
"Student11Mode3"	"Tanvi_6"	"Nov 30, 2016 10:31:30 AM"	Unknown	81.98497	10/30/0116 10:32.55	00004919	8.626	Inter615t17-0	0.549	1	1	270.108	11.111	11.4	0.166	0.000	D	F	1724.5	267.963	0.210	-0.033	1448.745	1307.702	0.022	-	0.256	0.899	-	-	-	-	-	-	-	PAVEMENT_GENERAL	Urban	F	1011101000011101	0000000000000000	-	car	815.855	101.336	0.000	0.000	180.000	696.000	987.000	-0.000	Terminate	
"Student11Mode3"	"Tanvi_6"	"Nov 30, 2016 10:31:30 AM"	Unknown	82.98499	10/30/0116 10:32.56	00004979	9.551	Inter615t17-0	0.391	1	1	270.080	11.111	-1.6	0.192	0.000	D	F	1858.6	269.617	0.213	0.011	1439.663	1307.561	0.022	-	-0.030	0.987	-	-	-	-	-	-	-	PAVEMENT_GENERAL	Urban	F	1011101000011101	0000000000000000	-	car	807.452	91.798	0.000	0.000	180.000	696.000	987.000	-0.000	Terminate	
"Student11Mode3"	"Tanvi_6"	"Nov 30, 2016 10:31:30 AM"	Unknown	83.98502	10/30/0116 10:32.57	00005039	10.639	Inter615t17-0	0.293	1	1	270.061	11.111	-2.8	0.220	0.000	D	F	2010.5	269.482	0.211	0.008	1429.589	1307.480	0.021	-	-0.073	1.124	-	-	-	-	-	-	-	PAVEMENT_GENERAL	Urban	F	1011101000011101	0000000000000000	-	car	798.178	81.553	0.000	0.000	180.000	696.000	987.000	-0.000	Terminate	
"Student11Mode3"	"Tanvi_6"	"Nov 30, 2016 10:31:30 AM"	Unknown	84.98503	10/30/0116 10:32.58	00005099	11.565	Inter615t17-0	0.125	1	1	270.061	11.111	-2.3	0.196	0.000	D	F	2052.6	268.929	0.206	0.010	1418.454	1307.323	0.023	-	-0.093	0.797	-	-	-	-	-	-	-	PAVEMENT_GENERAL	Urban	F	1011101000011101	0000000000000000	-	car	787.923	73.924	0.000	0.000	180.000	696.000	987.000	-0.000	Terminate	
"Student11Mode3"	"Tanvi_6"	"Nov 30, 2016 10:31:30 AM"	Unknown	85.98505	10/30/0116 10:32.59	00005159	12.344	Inter615t1-3	-0.132	2	2	270.000	11.111	3.1	0.192	0.000	D	F	2126.2	268.801	0.205	-0.015	1406.496	1307.068	0.023	-	0.104	0.736	-	-	-	-	-	-	-	PAVEMENT_GENERAL	Urban	F	1011101000011101	0000000000000000	-	car	776.902	68.400	0.000	0.000	180.000	696.000	987.000	-0.000	Terminate	
"Student11Mode3"	"Tanvi_6"	"Nov 30, 2016 10:31:30 AM"	Unknown	86.98507	10/30/0116 10:33.00	00005219	13.024	Inter616t1-3	-0.330	2	2	270.000	11.111	2.9	0.190	0.000	D	F	1791.4	269.431	0.202	-0.017	1393.795	1306.877	0.024	-	0.123	0.578	-	-	-	-	-	-	-	PAVEMENT_GENERAL	Urban	F	1011101000011101	0000000000000000	-	car	765.260	64.350	0.000	0.000	180.000	696.000	987.000	-0.000	Terminate	
"Student11Mode3"	"Tanvi_6"	"Nov 30, 2016 10:31:30 AM"	Unknown	87.98509	10/30/0116 10:33.01	00005279	13.577	Inter616t1-3	-0.397	2	2	270.000	11.111	3.6	0.187	0.000	D	F	1789.6	270.016	0.201	-0.023	1380.490	1306.810	0.024	-	0.163	0.512	-	-	-	-	-	-	-	PAVEMENT_GENERAL	Urban	F	1011101000011101	0000000000000000	-	car	753.156	61.239	0.000	0.000	180.000	696.000	987.000	-0.000	Terminate	
"Student11Mode3"	"Tanvi_6"	"Nov 30, 2016 10:31:30 AM"	Unknown	88.98512	10/30/0116 10:33.02	00005339	14.059	Inter616t1-3	-0.376	2	2	270.000	11.111	-1.3	0.185	0.000	D	F	1803.6	270.003	0.200	0.008	1366.668	1306.831	0.024	-	-0.061	0.459	-	-	-	-	-	-	-	PAVEMENT_GENERAL	Urban	F	1011101000011101	0000000000000000	-	car	740.667	58.369	0.000	0.000	180.000	696.000	987.000	-0.000	Terminate	
"Student11Mode3"	"Tanvi_6"	"Nov 30, 2016 10:31:30 AM"	Unknown	89.98513	10/30/0116 10:33.03	00005399	14.491	Inter616t1-3	-0.408	2	2	270.000	11.111	-1.5	0.183	0.000	D	F	1815.5	269.718	0.199	0.010	1352.389	1306.799	0.025	-	-0.075	0.413	-	-	-	-	-	-	-	PAVEMENT_GENERAL	Urban	F	1011101000011101	0000000000000000	-	car	727.790	55.735	0.000	0.000	180.000	696.000	987.000	-0.000	Terminate	
"Student11Mode3"	"Tanvi_6"	"Nov 30, 2016 10:31:30 AM"	Unknown	90.98515	10/30/0116 10:33.04	00005459	14.894	Inter616t1-3	-0.516	2	2	270.000	11.111	-1.5	0.183	0.000	D	F	1834.5	269.421	0.199	0.010	1337.695	1306.690	0.025	-	-0.076	0.391	-	-	-	-	-	-	-	PAVEMENT_GENERAL	Urban	F	1011101000011101	0000000000000000	-	car	714.560	53.334	0.000	0.000	180.000	696.000	987.000	-0.000	Terminate	
"Student11Mode3"	"Tanvi_6"	"Nov 30, 2016 10:31:30 AM"	Unknown	91.98518	10/30/0116 10:33.05	00005519	15.258	Inter616t1-3	-0.687	2	2	270.000	11.111	3.4	0.178	0.000	D	F	1845.4	269.439	0.198	-0.019	1322.617	1306.520	0.025	-	0.141	0.354	-	-	-	-	-	-	-	PAVEMENT_GENERAL	Urban	F	1011101000011101	0000000000000000	-	car	701.020	51.320	0.000	0.000	180.000	696.000	987.000	-0.000	Terminate	
"Student11Mode3"	"Tanvi_6"	"Nov 30, 2016 10:31:30 AM"	Unknown	92.98519	10/30/0116 10:33.06	00005579	15.635	Inter616t1-3	-0.735	2	2	270.000	11.111	2.9	0.187	0.000	D	F	1882.8	270.247	0.198	-0.026	1307.173	1306.471	0.025	-	0.188	0.375	-	-	-	-	-	-	-	PAVEMENT_GENERAL	Urban	F	1011101000011101	0000000000000000	-	car	687.274	49.714	0.000	0.000	180.000	696.000	987.000	-0.000	Terminate	
"Student11Mode3"	"Tanvi_6"	"Nov 30, 2016 10:31:30 AM"	Unknown	93.98521	10/30/0116 10:33.07	00005639	15.997	Inter616t1-3	-0.661	2	2	270.000	11.111	-1.3	0.185	0.000	D	F	1899.8	270.194	0.197	0.009	1291.356	1306.546	0.025	-	-0.065	0.351	-	-	-	-	-	-	-	PAVEMENT_GENERAL	Urban	F	1011101000011101	0000000000000000	-	car	673.331	47.858	0.000	0.000	180.000	696.000	987.000	-0.000	Terminate	
"Student11Mode3"	"Tanvi_6"	"Nov 30, 2016 10:31:30 AM"	Unknown	94.98523	10/30/0116 10:33.08	00005699	16.342	Inter616t1-3	-0.636	2	2	270.000	11.111	0.6	0.185	0.000	D	F	1914.9	270.050	0.196	-0.006	1275.184	1306.570	0.025	-	0.030	0.326	-	-	-	-	-	-	-	PAVEMENT_GENERAL	Urban	F	1011101000011101	0000000000000000	-	car	659.139	46.090	0.000	0.000	180.000	696.000	987.000	-0.000	Terminate	
"Student11Mode3"	"Tanvi_6"	"Nov 30, 2016 10:31:30 AM"	Unknown	95.98525	10/30/0116 10:33.09	00005759	16.657	Inter616t1-3	-0.611	2	2	270.000	11.111	0.4	0.185	0.000	D	F	1936.8	270.156	0.196	-0.006	1258.682	1306.596	0.025	-	0.036	0.299	-	-	-	-	-	-	-	PAVEMENT_GENERAL	Urban	F	1011101000011101	0000000000000000	-	car	644.751	44.583	0.000	0.000	180.000	696.000	987.000	-0.000	Terminate	
"Student11Mode3"	"Tanvi_6"	"Nov 30, 2016 10:31:30 AM"	Unknown	96.98528	10/30/0116 10:33.10	00005819	16.953	Inter616t1-3	-0.540	2	2	270.000	11.111	1.3	0.183	0.000	D	F	1957.9	270.438	0.195	-0.013	1241.876	1306.667	0.025	-	0.108	0.291	-	-	-	-	-	-	-	PAVEMENT_GENERAL	Urban	F	1011101000011101	0000000000000000	-	car	630.229	43.275	0.000	0.000	180.000	696.000	987.000	-0.000	Terminate	
"Student11Mode3"	"Tanvi_6"	"Nov 30, 2016 10:31:30 AM"	Unknown	97.98529	10/30/0116 10:33.11	00005879	17.235	Inter616t1-3	-0.387	2	2	270.000	11.111	0.5	0.182	0.000	D	F	1976.4	270.594	0.194	-0.005	1224.782	1306.820	0.025	-	0.036	0.274	-	-	-	-	-	-	-	PAVEMENT_GENERAL	Urban	F	1011101000011101	0000000000000000	-	car	615.617	42.010	0.000	0.000	180.000	696.000	987.000	-0.000	Terminate	
"Student11Mode3"	"Tanvi_6"	"Nov 30, 2016 10:31:30 AM"	Unknown	98.98531	10/30/0116 10:33.12	00005939	17.495	Inter616t1-3	-0.241	2	2	270.000	11.111	-9.7	0.183	0.000	D	F	1989.7	269.949	0.194	0.075	1207.414	1306.966	0.025	-	-0.531	0.250	-	-	-	-	-	-	-	PAVEMENT_GENERAL	Urban	F	1111101000011101	0000000000000000	-	car	600.901	40.493	0.000	0.000	180.000	696.000	987.000	-0.000	Terminate	
"Student11Mode3"	"Tanvi_6"	"Nov 30, 2016 10:31:30 AM"	Unknown	99.98534	10/30/0116 10:33.13	00005999	17.744	Inter617t1-3	-0.513	2	2	270.000	11.111	5.5	0.178	0.000	D	F	2006.6	268.495	0.193	-0.017	1189.797	1306.693	0.025	-	0.074	0.248	-	-	-	-	-	-	-	PAVEMENT_GENERAL	Urban	F	1011101000011101	0000000000000000	-	car	585.892	38.690	0.000	0.000	180.000	696.000	987.000	-0.000	Terminate	
"Student11Mode3"	"Tanvi_6"	"Nov 30, 2016 10:31:30 AM"	Unknown	100.98535	10/30/0116 10:33.14	00006059	17.978	Inter617t1-3	-0.784	2	2	270.000	11.111	1.8	0.180	0.000	D	F	2023.8	269.801	0.193	-0.024	1171.938	1306.422	0.026	-	0.227	0.232	-	-	-	-	-	-	-	PAVEMENT_GENERAL	Urban	F	1011101000011101	0000000000000000	-	car	570.831	38.152	0.000	0.000	180.000	696.000	987.000	-0.000	Terminate	
"Student11Mode3"	"Tanvi_6"	"Nov 30, 2016 10:31:30 AM"	Unknown	101.98537	10/30/0116 10:33.15	00006119	18.209	Inter617t1-3	-0.823	2	2	270.000	11.111	1.4	0.180	0.000	D	F	2042.3	269.995	0.193	-0.010	1153.844	1306.384	0.026	-	0.074	0.229	-	-	-	-	-	-	-	PAVEMENT_GENERAL	Urban	F	1011101000011101	0000000000000000	-	car	555.877	37.220	0.000	0.000	180.000	696.000	987.000	-0.000	Terminate	
"Student11Mode3"	"Tanvi_6"	"Nov 30, 2016 10:31:30 AM"	Unknown	102.98539	10/30/0116 10:33.16	00006179	18.433	Inter617t1-3	-0.784	2	2	270.000	11.111	0.0	0.180	0.000	D	F	2056.8	270.275	0.192	-0.003	1135.523	1306.423	0.026	-	0.041	0.220	-	-	-	-	-	-	-	PAVEMENT_GENERAL	Urban	F	1011101000011101	0000000000000000	-	car	540.974	36.407	0.000	0.000	180.000	696.000	987.000	-0.000	Terminate	
"Student11Mode3"	"Tanvi_6"	"Nov 30, 2016 10:31:30 AM"	Unknown	103.98541	10/30/0116 10:33.17	00006239	18.643	Inter617t1-3	-0.630	2	2	270.000	11.111	4.2	0.175	0.000	D	F	2061.0	270.961	0.191	-0.039	1116.984	1306.577	0.026	-	0.308	0.192	-	-	-	-	-	-	-	PAVEMENT_GENERAL	Urban	F	1011101000011101	0000000000000000	-	car	526.183	35.897	0.000	0.000	180.000	696.000	987.000	-0.000	Terminate	
"Student11Mode3"	"Tanvi_6"	"Nov 30, 2016 10:31:30 AM"	Unknown	104.98544	10/30/0116 10:33.18	00006299	18.802	Inter617t1-3	-0.281	2	2	270.000	11.111	-3.0	0.168	0.000	D	F	2067.2	270.908	0.191	0.025	1098.261	1306.926	0.026	-	-0.192	0.147	-	-	-	-	-	-	-	PAVEMENT_GENERAL	Urban	F	1011101000011101	0000000000000000	-	car	511.612	35.216	0.000	0.000	180.000	696.000	987.000	-0.000	Terminate	
"Student11Mode3"	"Tanvi_6"	"Nov 30, 2016 10:31:30 AM"	Unknown	105.98545	10/30/0116 10:33.19	00006359	18.928	Inter617t1-3	-0.060	2	2	270.000	11.111	-1.9	0.164	0.000	D	F	2076.9	270.480	0.190	0.011	1079.395	1307.146	0.026	-	-0.077	0.123	-	-	-	-	-	-	-	PAVEMENT_GENERAL	Urban	F	1011101000011101	0000000000000000	-	car	497.125	34.458	0.000	0.000	180.000	696.000	987.000	-0.000	Terminate	
"Student11Mode3"	"Tanvi_6"	"Nov 30, 2016 10:31:30 AM"	Unknown	106.98547	10/30/0116 10:33.20	00006419	18.979	Inter617t1-3	0.054	2	2	270.000	11.111	-0.8	0.000	0.000	D	F	1622.9	270.193	0.173	0.008	1060.416	1307.260	0.027	-	-0.070	-0.530	-	-	-	-	-	-	-	PAVEMENT_GENERAL	Urban	F	1011101000011101	0000000000000000	-	car	482.786	33.966	0.000	0.000	180.000	696.000	987.000	-0.000	Terminate	
"Student11Mode3"	"Tanvi_6"	"Nov 30, 2016 10:31:30 AM"	Unknown	107.98550	10/30/0116 10:33.21	00006479	18.004	Inter617t1-3	0.094	2	2	270.000	11.111	-0.2	0.000	0.206	D	F	1198.9	270.017	0.106	0.003	1041.762	1307.301	0.032	-	-0.040	-2.910	-	-	-	-	-	-	-	PAVEMENT_GENERAL	Urban	F	1011101000011101	0000000000000000	-	car	468.963	35.517	0.000	0.000	180.000	696.000	987.000	-0.000	Terminate	
"Student11Mode3"	"Tanvi_6"	"Nov 30, 2016 10:31:30 AM"	Unknown	108.98551	10/30/0116 10:33.22	00006539	12.837	Inter617t1-3	0.096	2	2	270.000	11.111	0.1	0.000	0.555	D	F	961.6	269.970	-0.120	0.001	1026.032	1307.302	0.041	-	-0.005	-6.816	-	-	-	-	-	-	-	PAVEMENT_GENERAL	Urban	F	1011101000011101	0000000000000000	-	car	457.548	49.645	0.000	0.000	180.000	696.000	987.000	-0.000	Terminate	
"Student11Mode3"	"Tanvi_6"	"Nov 30, 2016 10:31:30 AM"	Unknown	109.98553	10/30/0116 10:33.23	00006599	7.319	Inter617t1-3	0.106	2	2	270.000	11.111	3.9	0.000	0.349	D	F	684.2	270.224	0.070	-0.014	1016.104	1307.312	0.039	-	0.076	-4.604	-	-	-	-	-	-	-	PAVEMENT_GENERAL	Urban	F	1011101000011101	0000000000000000	-	car	450.484	87.414	0.000	0.000	180.000	696.000	987.000	-0.000	Terminate	
"Student11Mode3"	"Tanvi_6"	"Nov 30, 2016 10:31:30 AM"	Unknown	110.98555	10/30/0116 10:33.24	00006659	5.597	Inter617t1-3	0.167	2	2	270.000	11.111	4.8	0.000	0.000	D	F	550.0	270.774	0.199	-0.008	1010.068	1307.374	0.028	-	0.053	-0.461	-	-	-	-	-	-	-	PAVEMENT_GENERAL	Urban	F	1011101000011101	0000000000000000	-	car	446.281	115.511	0.000	0.000	180.000	696.000	987.000	-0.000	Terminate	
"Student11Mode3"	"Tanvi_6"	"Nov 30, 2016 10:31:30 AM"	Unknown	111.98557	10/30/0116 10:33.25	00006719	5.172	Inter617t1-3	0.273	2	2	270.000	11.111	4.9	0.072	0.000	D	F	950.5	271.261	0.205	-0.007	1004.699	1307.479	0.028	-	0.044	-0.169	-	-	-	-	-	-	-	PAVEMENT_GENERAL	Urban	F	1111101000011101	0000000000000000	-	car	442.615	126.268	0.000	0.000	180.000	696.000	987.000	-0.000	Terminate	
"Student11Mode3"	"Tanvi_6"	"Nov 30, 2016 10:31:30 AM"	Unknown	112.98560	10/30/0116 10:33.26	00006779	5.610	Inter618t1-1	-0.274	2	2	270.000	24.444	-2.9	0.081	0.000	D	F	1266.5	271.600	0.207	0.007	999.326	1307.626	0.024	-	-0.058	0.517	-	-	-	-	-	-	-	PAVEMENT_GENERAL	Urban	F	1011101000011101	0000000000000000	-	car	439.011	117.378	0.000	0.000	180.000	696.000	987.000	-0.000	Terminate	
"Student11Mode3"	"Tanvi_6"	"Nov 30, 2016 10:31:30 AM"	Unknown	113.98561	10/30/0116 10:33.27	00006839	6.394	Inter618t1-1	-0.141	2	2	269.993	24.444	-3.4	0.145	0.000	D	F	1523.1	271.125	0.331	-0.022	993.378	1307.759	0.025	-	-0.046	1.066	-	-	-	31	4.237	27.091	-	FREEWAY_SMOOTH	Urban	F	1011101000011101	0000000000000000	-	car	435.042	102.261	0.000	0.000	180.000	696.000	987.000	-0.000	Terminate	
"Student11Mode3"	"Tanvi_6"	"Nov 30, 2016 10:31:30 AM"	Unknown	114.98563	10/30/0116 10:33.28	00006899	7.435	Inter618t1-1	-0.034	2	2	269.920	24.444	-3.5	0.164	0.000	D	F	1635.6	270.743	0.320	-0.113	986.467	1307.863	0.037	-	-0.069	1.059	-	-	-	31	4.439	33.004	-	FREEWAY_SMOOTH	Urban	F	1011101000011101	0000000000000000	-	car	430.450	87.524	0.000	0.000	180.000	696.000	987.000	-0.000	Terminate	
"Student11Mode3"	"Tanvi_6"	"Nov 30, 2016 10:31:30 AM"	Unknown	115.98566	10/30/0116 10:33.29	00006959	8.630	Inter618t1-1	0.023	2	2	269.712	24.444	-5.0	0.201	0.000	D	F	1817.8	269.910	0.321	-0.219	978.452	1307.896	0.052	-	-0.127	1.234	-	-	-	31	4.608	39.769	-	FREEWAY_SMOOTH	Urban	F	1011101000011101	0000000000000000	-	car	425.137	74.430	0.000	0.000	180.000	696.000	987.000	-0.000	Terminate	
"Student11Mode3"	"Tanvi_6"	"Nov 30, 2016 10:31:30 AM"	Unknown	116.98567	10/30/0116 10:33.30	00007019	9.781	Inter618t1-1	0.004	2	2	269.326	24.444	-3.7	0.201	0.000	D	F	1903.7	269.145	0.323	-0.349	969.234	1307.803	0.070	-	-0.122	1.090	-	-	-	31	4.785	46.807	-	FREEWAY_SMOOTH	Urban	F	1011101000011101	0000000000000000	-	car	419.033	64.940	0.000	0.000	180.000	696.000	987.000	-0.000	Terminate	
"Student11Mode3"	"Tanvi_6"	"Nov 30, 2016 10:31:30 AM"	Unknown	117.98569	10/30/0116 10:33.31	00007079	10.857	Inter618t1-1	-0.064	2	2	268.689	24.444	-6.0	0.220	0.000	D	F	2026.1	268.249	0.313	-0.481	958.919	1307.562	0.089	-	-0.219	1.085	-	-	-	31	4.924	53.455	-	FREEWAY_SMOOTH	Urban	F	1011101000011101	0000000000000000	-	car	412.232	57.747	0.000	0.000	180.000	696.000	987.000	-0.000	Terminate	
"Student11Mode3"	"Tanvi_6"	"Nov 30, 2016 10:31:30 AM"	Unknown	118.98571	10/30/0116 10:33.32	00007139	11.912	Inter618t1-1	-0.192	2	2	267.743	24.444	-4.7	0.235	0.000	D	F	2145.6	267.175	0.313	-0.638	947.540	1307.087	0.109	-	-0.220	1.027	-	-	-	31	4.961	59.096	-	FREEWAY_SMOOTH	Urban	F	1011101000011101	0000000000000000	-	car	404.738	51.803	0.000	0.000	180.000	696.000	987.000	-0.000	Terminate	
"Student11Mode3"	"Tanvi_6"	"Nov 30, 2016 10:31:30 AM"	Unknown	119.98573	10/30/0116 10:33.33	00007199	12.907	Inter618t1-1	-0.314	2	2	266.427	24.444	-4.2	0.224	0.000	D	F	2253.4	266.139	0.310	-0.809	935.145	1306.346	0.130	-	-0.229	0.946	-	-	-	31	4.981	64.292	-	FREEWAY_SMOOTH	Urban	F	1011101000011101	0000000000000000	-	car	396.605	47.131	0.000	0.000	180.000	696.000	987.000	-0.000	Terminate	
"Student11Mode3"	"Tanvi_6"	"Nov 30, 2016 10:31:30 AM"	Unknown	120.98576	10/30/0116 10:33.34	00007259	13.741	Inter618t1-1	-0.355	2	2	264.687	24.444	-7.4	0.201	0.000	D	F	1892.4	264.772	0.304	-0.970	921.838	1305.287	0.154	-	-0.402	0.647	-	-	-	31	4.991	68.581	-	FREEWAY_SMOOTH	Urban	F	1011101000011101	0000000000000000	-	car	387.909	43.392	0.000	0.000	180.000	696.000	987.000	-0.000	Terminate	
"Student11Mode3"	"Tanvi_6"	"Nov 30, 2016 10:31:30 AM"	Unknown	121.98577	10/30/0116 10:33.35	00007319	14.326	Inter618t1-1	-0.294	2	2	262.496	24.444	-10.3	0.169	0.000	D	F	1794.5	263.186	0.317	-1.140	907.875	1303.800	0.181	-	-0.520	0.480	-	-	-	31	5.038	72.173	-	FREEWAY_SMOOTH	Urban	F	1011101000011101	0000000000000000	-	car	378.761	40.637	0.000	0.000	180.000	696.000	987.000	-0.000	Terminate	
"Student11Mode3"	"Tanvi_6"	"Nov 30, 2016 10:31:30 AM"	Unknown	122.98579	10/30/0116 10:33.36	00007379	14.658	Inter618t1-1	-0.126	2	2	259.851	24.444	-13.5	0.162	0.000	D	F	1771.2	260.711	0.321	-1.315	893.518	1301.764	0.212	-	-0.741	0.296	-	-	-	31	5.146	75.432	-	FREEWAY_SMOOTH	Urban	F	1111101000011101	0000000000000000	-	car	369.245	38.094	0.000	0.000	180.000	696.000	987.000	-0.000	Terminate	
"Student11Mode3"	"Tanvi_6"	"Nov 30, 2016 10:31:30 AM"	Unknown	123.98581	10/30/0116 10:33.37	00007439	14.952	Inter618t1-1	0.039	2	2	256.728	24.444	-17.1	0.162	0.000	D	F	1789.2	257.323	0.303	-1.482	878.983	1298.950	0.244	-	-1.008	0.288	-	-	-	31	5.209	77.890	-	FREEWAY_SMOOTH	Urban	F	1011101000011101	0000000000000000	-	car	359.298	35.188	0.000	0.000	180.000	696.000	987.000	-0.000	Terminate	
"Student11Mode3"	"Tanvi_6"	"Nov 30, 2016 10:31:30 AM"	Unknown	124.98583	10/30/0116 10:33.38	00007499	15.243	Inter618t1-1	0.123	2	2	253.180	24.444	-18.3	0.166	0.000	D	F	1815.6	253.594	0.191	-1.617	864.377	1295.146	0.266	-	-1.064	0.285	-	-	-	31	5.292	80.662	-	FREEWAY_SMOOTH	Urban	F	1011101000011101	0000000000000000	-	car	348.788	32.325	0.000	0.000	180.000	696.000	987.000	-0.000	Terminate	
"Student11Mode3"	"Tanvi_6"	"Nov 30, 2016 10:31:30 AM"	Unknown	125.98586	10/30/0116 10:33.39	00007559	15.524	Inter618t1-1	0.105	2	2	249.500	24.444	-20.0	0.168	0.000	D	F	1828.0	249.098	0.181	-1.592	849.801	1290.232	0.266	-	-1.270	0.278	-	-	-	31	5.367	83.313	-	FREEWAY_SMOOTH	Urban	F	1011101000011101	0000000000000000	-	car	337.647	29.363	0.000	0.000	180.000	696.000	987.000	-0.000	Terminate	
"Student11Mode3"	"Tanvi_6"	"Nov 30, 2016 10:31:30 AM"	Unknown	126.98587	10/30/0116 10:33.40	00007619	15.786	Inter618t1-1	-0.142	2	2	245.749	24.444	-16.5	0.169	0.000	D	F	1843.7	244.574	0.154	-1.608	835.414	1284.064	0.258	-	-1.131	0.259	-	-	-	31	5.426	85.650	-	FREEWAY_SMOOTH	Urban	F	1111101000011101	0000000000000000	-	car	325.792	26.721	0.000	0.000	180.000	696.000	987.000	-0.000	Terminate	
"Student11Mode3"	"Tanvi_6"	"Nov 30, 2016 10:31:30 AM"	Unknown	127.98589	10/30/0116 10:33.41	00007679	16.044	Inter618t1-1	-0.437	2	2	241.899	24.444	-6.8	0.169	0.000	D	F	1862.4	241.371	0.173	-1.682	821.254	1276.798	0.249	-	-0.621	0.247	-	-	-	31	5.459	87.591	-	FREEWAY_SMOOTH	Urban	F	1011101000011101	0000000000000000	-	car	313.348	24.784	0.000	0.000	180.000	696.000	987.000	-0.000	Terminate	
"Student11Mode3"	"Tanvi_6"	"Nov 30, 2016 10:31:30 AM"	Unknown	128.98592	10/30/0116 10:33.42	00007739	16.278	Inter618t1-1	-0.346	2	2	237.991	24.444	-16.7	0.168	0.000	D	F	1874.2	238.951	0.217	-1.615	807.207	1268.802	0.252	-	-1.069	0.219	-	-	-	31	5.459	88.868	-	FREEWAY_SMOOTH	Urban	F	1011101000011101	0000000000000000	-	car	300.592	23.250	0.000	0.000	180.000	696.000	987.000	-0.000	Terminate	
"Student11Mode3"	"Tanvi_6"	"Nov 30, 2016 10:31:30 AM"	Unknown	129.98593	10/30/0116 10:33.43	00007799	16.262	Inter618t1-1	-0.168	2	2	234.043	24.444	-21.0	0.065	0.000	D	F	1701.1	234.131	0.181	-1.557	793.561	1259.849	0.260	-	-1.530	-0.243	-	-	-	31	5.560	90.419	-	FREEWAY_SMOOTH	Urban	F	1011101000011101	0000000000000000	-	car	287.407	21.434	0.000	0.000	180.000	696.000	987.000	-0.000	Terminate	
"Student11Mode3"	"Tanvi_6"	"Nov 30, 2016 10:31:30 AM"	Unknown	130.98595	10/30/0116 10:33.44	00007859	16.145	Inter618t1-1	-0.322	2	2	230.157	24.444	-18.5	0.113	0.000	D	F	1772.4	229.192	0.159	-1.587	780.879	1249.813	0.254	-	-1.278	0.002	-	-	-	31	5.711	92.206	-	FREEWAY_SMOOTH	Urban	F	1011101000011101	0000000000000000	-	car	273.820	19.848	0.000	0.000	180.000	696.000	987.000	-0.000	Terminate	
"Student11Mode3"	"Tanvi_6"	"Nov 30, 2016 10:31:30 AM"	Unknown	131.98598	10/30/0116 10:33.45	00007919	16.268	Inter618t1-1	-0.650	2	2	226.262	24.444	-11.5	0.157	0.000	D	F	1855.9	225.202	0.153	-1.641	769.019	1238.804	0.243	-	-0.905	0.191	-	-	-	31	5.776	93.963	-	FREEWAY_SMOOTH	Urban	F	1011101000011101	0000000000000000	-	car	259.818	18.266	0.000	0.000	180.000	696.000	987.000	-0.000	Terminate	
"Student11Mode3"	"Tanvi_6"	"Nov 30, 2016 10:31:30 AM"	Unknown	132.98599	10/30/0116 10:33.46	00007979	16.427	Inter618t1-1	-0.799	2	2	222.296	24.444	-11.0	0.152	0.000	D	F	1856.8	222.620	0.208	-1.665	757.693	1227.010	0.239	-	-0.711	0.152	-	-	-	31	5.808	95.405	-	FREEWAY_SMOOTH	Urban	F	1011101000011101	0000000000000000	-	car	245.452	16.955	0.000	0.000	180.000	696.000	987.000	-0.000	Terminate	
"Student11Mode3"	"Tanvi_6"	"Nov 30, 2016 10:31:30 AM"	Unknown	133.98601	10/30/0116 10:33.47	00008039	16.575	Inter618t1-1	-0.638	2	2	218.298	24.444	-17.5	0.155	0.000	D	F	1871.4	219.003	0.212	-1.600	746.879	1214.548	0.244	-	-1.203	0.154	-	-	-	31	5.800	96.141	-	FREEWAY_SMOOTH	Urban	F	1011101000011101	0000000000000000	-	car	230.807	15.546	0.000	0.000	180.000	696.000	987.000	-0.000	Terminate	
"Student11Mode3"	"Tanvi_6"	"Nov 30, 2016 10:31:30 AM"	Unknown	134.98604	10/30/0116 10:33.48	00008099	16.713	Inter618t1-1	-0.502	2	2	214.293	24.444	-16.4	0.148	0.000	D	F	1875.0	214.467	0.190	-1.596	736.897	1201.232	0.248	-	-1.277	0.138	-	-	-	31	5.833	97.491	-	FREEWAY_SMOOTH	Urban	F	1011101000011101	0000000000000000	-	car	215.741	14.093	0.000	0.000	180.000	696.000	987.000	-0.000	Terminate	
"Student11Mode3"	"Tanvi_6"	"Nov 30, 2016 10:31:30 AM"	Unknown	135.98605	10/30/0116 10:33.49	00008159	16.837	Inter618t1-1	-0.540	2	2	210.246	24.444	-12.8	0.146	0.000	D	F	1876.0	209.692	0.168	-1.606	727.953	1187.043	0.247	-	-1.204	0.117	-	-	-	31	5.867	98.788	-	FREEWAY_SMOOTH	Urban	F	1011101000011101	0000000000000000	-	car	200.219	12.705	0.000	0.000	180.000	696.000	987.000	-0.000	Terminate	
"Student11Mode3"	"Tanvi_6"	"Nov 30, 2016 10:31:30 AM"	Unknown	136.98607	10/30/0116 10:33.50	00008219	16.943	Inter618t1-1	-0.575	2	2	206.164	24.444	-17.0	0.150	0.000	D	F	1889.2	206.328	0.193	-1.602	719.979	1172.154	0.246	-	-1.201	0.107	-	-	-	31	5.899	99.942	-	FREEWAY_SMOOTH	Urban	F	1011101000011101	0000000000000000	-	car	184.341	11.503	0.000	0.000	180.000	696.000	987.000	-0.000	Terminate	
"Student11Mode3"	"Tanvi_6"	"Nov 30, 2016 10:31:30 AM"	Unknown	137.98610	10/30/0116 10:33.51	00008279	17.044	Inter618t1-1	-0.578	2	2	202.053	24.444	-17.5	0.145	0.000	D	F	1885.7	201.717	0.173	-1.576	713.016	1156.656	0.246	-	-1.388	0.101	-	-	-	31	5.929	101.051	-	FREEWAY_SMOOTH	Urban	F	1011101000011101	0000000000000000	-	car	168.148	10.262	0.000	0.000	180.000	696.000	987.000	-0.000	Terminate	
"Student11Mode3"	"Tanvi_6"	"Nov 30, 2016 10:31:30 AM"	Unknown	138.98611	10/30/0116 10:33.52	00008339	17.133	Inter618t1-1	-0.692	2	2	197.928	24.444	-20.7	0.146	0.000	D	F	1894.2	197.354	0.167	-1.560	707.255	1140.570	0.243	-	-1.482	0.091	-	-	-	31	5.954	102.013	-	FREEWAY_SMOOTH	Urban	F	1011101000011101	0000000000000000	-	car	151.623	9.089	0.000	0.000	180.000	696.000	987.000	-0.000	Terminate	
"Student11Mode3"	"Tanvi_6"	"Nov 30, 2016 10:31:30 AM"	Unknown	139.98613	10/30/0116 10:33.53	00008399	17.217	Inter618t1-1	-0.996	2	2	193.843	24.444	-13.2	0.141	0.000	D	F	1894.4	192.516	0.059	-1.508	702.828	1123.977	0.223	-	-1.137	0.070	-	-	-	31	5.994	103.201	-	FREEWAY_SMOOTH	Urban	F	1011101000011101	0000000000000000	-	car	134.788	7.941	0.000	0.000	180.000	696.000	987.000	-0.000	Terminate	
"Student11Mode3"	"Tanvi_6"	"Nov 30, 2016 10:31:30 AM"	Unknown	140.98616	10/30/0116 10:33.54	00008459	17.284	Inter618t1-1	-1.328	2	2	190.157	24.444	-13.3	0.139	0.000	D	F	1898.9	189.172	0.078	-1.295	699.557	1107.040	0.187	-	-0.997	0.068	-	-	-	-	-	-	-	FREEWAY_SMOOTH	Urban	F	1011101000011101	0000000000000000	-	car	117.734	6.870	0.000	0.000	180.000	696.000	987.000	-0.000	Terminate	
"Student11Mode3"	"Tanvi_6"	"Nov 30, 2016 10:31:30 AM"	Unknown	141.98618	10/30/0116 10:33.55	00008519	17.342	Inter618t1-1	-1.640	2	2	187.055	24.444	-13.6	0.139	0.000	D	F	1904.1	185.804	0.080	-1.052	697.270	1089.880	0.154	-	-1.016	0.061	-	-	-	-	-	-	-	FREEWAY_SMOOTH	Urban	F	1011101000011101	0000000000000000	-	car	100.529	5.820	0.000	0.000	180.000	696.000	987.000	-0.000	Terminate	
"Student11Mode3"	"Tanvi_6"	"Nov 30, 2016 10:31:30 AM"	Unknown	142.98619	10/30/0116 10:33.56	00008579	17.399	Inter618t1-0	1.531	1	2	184.480	24.444	-8.3	0.141	0.000	D	F	1910.7	182.948	0.088	-0.870	695.954	1072.562	0.121	-	-0.641	0.061	-	-	-	-	-	-	-	FREEWAY_SMOOTH	Urban	F	1011101000011101	0000000000000000	-	car	83.202	4.788	0.000	0.000	180.000	696.000	987.000	-0.000	Terminate	
"Student11Mode3"	"Tanvi_6"	"Nov 30, 2016 10:31:30 AM"	Unknown	143.98621	10/30/0116 10:33.57	00008639	16.918	Inter618t1-0	1.043	1	2	182.495	24.444	-8.0	0.000	0.000	D	F	1661.6	180.506	0.087	-0.615	695.400	1055.357	0.095	-	-0.695	-0.619	-	-	-	-	-	-	-	FREEWAY_SMOOTH	Urban	F	1011101000011101	0000000000000000	-	car	66.000	3.902	0.000	0.000	180.000	696.000	987.000	-0.000	Terminate	
"Student11Mode3"	"Tanvi_6"	"Nov 30, 2016 10:31:30 AM"	Unknown	144.98624	10/30/0116 10:33.58	00008699	14.471	Inter618t1-0	0.502	1	2	181.153	24.444	-1.4	0.000	0.299	D	F	1363.6	179.470	0.044	-0.463	695.433	1039.240	0.078	-	-0.128	-4.179	-	-	-	-	-	-	-	FREEWAY_SMOOTH	Urban	F	1011101000011101	0000000000000000	-	car	49.883	3.447	0.000	0.000	180.000	696.000	987.000	-0.000	Terminate	
"Student11Mode3"	"Tanvi_6"	"Nov 30, 2016 10:31:30 AM"	Unknown	145.98625	10/30/0116 10:33.59	00008759	10.468	Inter618t1-0	0.197	1	2	180.470	24.444	3.4	0.000	0.266	D	F	992.4	179.582	0.077	-0.320	695.564	1026.809	0.060	-	0.113	-3.766	-	-	-	-	-	-	-	FREEWAY_SMOOTH	Urban	F	1011101000011101	0000000000000000	-	car	37.452	3.589	0.033	2.000	180.000	696.000	987.000	-0.000	Terminate	
"Student11Mode3"	"Tanvi_6"	"Nov 30, 2016 10:31:30 AM"	Unknown	146.98627	10/30/0116 10:34.00	00008819	6.624	Inter618t1-0	0.125	1	2	180.174	24.444	3.8	0.000	0.275	D	F	627.1	180.132	0.076	-0.194	695.589	1018.259	0.051	-	0.066	-3.837	-	-	-	-	-	-	-	FREEWAY_SMOOTH	Urban	F	1011101000011101	0000000000000000	-	car	29.918	6.516	2.033	2.000	177.073	696.049	985.984	-0.000	Terminate	
"Student11Mode3"	"Tanvi_6"	"Nov 30, 2016 10:31:30 AM"	Unknown	147.98630	10/30/0116 10:34.01	00008879	4.088	Inter618t1-0	0.142	1	2	180.056	24.444	-6.3	0.000	0.000	D	F	525.1	180.331	0.134	-0.102	695.561	1013.294	0.038	-	-0.077	-0.498	-	-	-	-	-	-	-	FREEWAY_SMOOTH	Urban	F	1011101000011101	0000000000000000	-	car	27.969	508.951	4.033	2.000	176.897	696.223	982.973	-0.000	Terminate	
"Student11Mode3"	"Tanvi_6"	"Nov 30, 2016 10:31:30 AM"	Unknown	148.98631	10/30/0116 10:34.02	00008939	3.628	Inter618t1-0	0.127	1	2	180.013	24.444	-7.9	0.034	0.000	D	F	762.1	179.730	0.143	-0.054	695.575	1009.446	0.033	-	-0.043	-0.260	-	-	-	-	-	-	-	FREEWAY_SMOOTH	Urban	F	1011101000011101	0000000000000000	-	car	29.139	-12.111	6.033	2.000	178.868	696.369	977.958	-0.000	Terminate	
"Student11Mode3"	"Tanvi_6"	"Nov 30, 2016 10:31:30 AM"	Unknown	149.98633	10/30/0116 10:34.03	00008999	4.652	Inter618t1-0	0.076	1	2	180.002	24.444	-4.1	0.143	0.000	D	F	1422.4	179.268	0.163	-0.000	695.624	1005.419	0.021	-	-0.036	1.350	-	-	-	-	-	-	-	FREEWAY_SMOOTH	Urban	F	1011101000011101	0000000000000000	-	car	32.127	-9.504	8.033	2.000	179.978	696.400	970.941	-0.000	Terminate	
"Student11Mode3"	"Tanvi_6"	"Nov 30, 2016 10:31:30 AM"	Unknown	150.98636	10/30/0116 10:34.04	00009059	5.934	Inter618t1-0	-0.016	1	2	180.000	24.444	-0.9	0.175	0.000	D	F	1577.2	178.944	0.216	0.001	695.716	1000.129	0.020	-	-0.001	1.336	-	-	-	car	5.243	31.112	-	PAVEMENT_GENERAL	Urban	F	1011101000011101	0000000000000000	-	car	35.851	-8.749	10.033	2.000	180.010	696.397	961.924	-0.000	Terminate	
"Student11Mode3"	"Tanvi_6"	"Nov 30, 2016 10:31:30 AM"	Unknown	151.98637	10/30/0116 10:34.05	00009119	7.418	Inter686t1-0	0.582	1	1	180.000	11.111	2.7	0.213	0.000	D	F	1778.2	179.353	0.214	-0.008	695.814	993.477	0.019	-	0.045	1.573	-	-	-	car	5.102	37.850	-	PAVEMENT_GENERAL	Urban	F	1011101000011101	0000000000000000	-	car	40.214	-8.716	12.034	2.000	180.003	696.397	950.907	-0.000	Terminate	
"Student11Mode3"	"Tanvi_6"	"Nov 30, 2016 10:31:30 AM"	Unknown	152.98639	10/30/0116 10:34.06	00009179	8.920	Inter686t1-0	0.503	1	1	180.000	11.111	-0.5	0.242	0.000	D	F	1909.1	179.449	0.215	0.002	695.894	985.299	0.020	-	-0.012	1.445	-	-	-	car	4.786	42.690	-	PAVEMENT_GENERAL	Urban	F	1011101000011101	0000000000000000	-	car	45.052	-8.812	14.034	2.000	180.003	696.397	937.890	-0.000	Terminate	
"Student11Mode3"	"Tanvi_6"	"Nov 30, 2016 10:31:30 AM"	Unknown	153.98642	10/30/0116 10:34.07	00009239	10.218	Inter686t1-0	0.407	1	1	180.000	11.111	0.8	0.240	0.000	D	F	2000.9	179.427	0.211	-0.002	695.990	975.716	0.020	-	0.017	1.245	-	-	-	car	4.710	48.124	-	PAVEMENT_GENERAL	Urban	F	1011101000011101	0000000000000000	-	car	50.485	-8.681	16.034	2.000	180.002	696.397	922.873	-0.000	Terminate	
"Student11Mode3"	"Tanvi_6"	"Nov 30, 2016 10:31:30 AM"	Unknown	154.98643	10/30/0116 10:34.08	00009299	11.396	Inter686t1-0	0.332	1	1	180.000	11.111	2.1	0.249	0.000	D	F	2101.2	179.752	0.210	-0.011	696.064	964.900	0.021	-	0.071	1.130	-	-	-	car	4.767	54.325	-	PAVEMENT_GENERAL	Urban	F	1011101000011101	0000000000000000	-	car	56.686	-8.540	18.034	2.000	180.002	696.397	905.855	-0.000	Terminate	
