"Name"	"Project"	"Time"	ZoneName	Time	SystemTime	Frame	Velocity	LaneName	LanePos	LaneIndex	LaneCount	LaneHeading	SpeedLimit	Steer	Accel	Brake	Gear	Horn	SubjectEngineRPM	SubjectHeading	SubjectPitch	SubjectRoll	SubjectX	SubjectY	SubjectZ	Signal	LatAccel	LongAccel	Collision	CollisionAngle	CollisionVelocity	VehAhead	HeadwayTime	HeadwayDist	TTC	TerrainType	CultureType	Slip	DigitalInputs	DigitalInputs2	ActiveTrigger	EntityName	DistToEntity	TimeToEntity	EntityVelocity	EntityAccel	EntityHeading	EntityX	EntityY	EntityZ	GrabData	
"student4mode1"	"Seema_Shokoufeh_Track2"	"Nov 28, 2016 04:53:22 AM"	Unknown	0.98335	10/28/0116 04:53.27	00000059	0.002	Inter625t13-0	-0.088	1	2	0.000	11.111	-3.9	0.000	0.000	P	F	0.0	0.000	0.153	0.001	1503.500	523.206	0.019	-	0.000	0.000	-	-	-	-	-	-	-	PAVEMENT_GENERAL	Urban	F	1011101000001001	0000000000000000	-	-	-	-	-	-	-	-	-	-	Terminate	
"student4mode1"	"Seema_Shokoufeh_Track2"	"Nov 28, 2016 04:53:22 AM"	Unknown	1.98337	10/28/0116 04:53.28	00000119	0.000	Inter625t13-0	-0.088	1	2	0.000	11.111	-3.9	0.000	0.000	P	F	0.0	0.000	0.197	0.000	1503.500	523.208	0.026	-	-0.000	-0.001	-	-	-	-	-	-	-	PAVEMENT_GENERAL	Urban	F	1011101000001001	0000000000000000	-	-	-	-	-	-	-	-	-	-	Terminate	
"student4mode1"	"Seema_Shokoufeh_Track2"	"Nov 28, 2016 04:53:22 AM"	Unknown	2.98339	10/28/0116 04:53.29	00000179	-0.000	Inter625t13-0	-0.088	1	2	0.000	11.111	-3.9	0.000	0.000	P	F	0.0	0.000	0.207	0.000	1503.500	523.208	0.028	-	-0.000	-0.000	-	-	-	-	-	-	-	PAVEMENT_GENERAL	Urban	F	1011101000001001	0000000000000000	-	-	-	-	-	-	-	-	-	-	Terminate	
"student4mode1"	"Seema_Shokoufeh_Track2"	"Nov 28, 2016 04:53:22 AM"	Unknown	3.98341	10/28/0116 04:53.30	00000239	-0.000	Inter625t13-0	-0.088	1	2	0.000	11.111	-3.9	0.000	0.000	P	F	0.0	0.000	0.210	0.000	1503.500	523.208	0.028	-	-0.000	-0.000	-	-	-	-	-	-	-	PAVEMENT_GENERAL	Urban	F	1011101000001001	0000000000000000	-	-	-	-	-	-	-	-	-	-	Terminate	
"student4mode1"	"Seema_Shokoufeh_Track2"	"Nov 28, 2016 04:53:22 AM"	Unknown	4.98343	10/28/0116 04:53.31	00000299	-0.000	Inter625t13-0	-0.088	1	2	0.000	11.111	-3.9	0.000	0.000	P	F	0.0	0.000	0.210	0.000	1503.500	523.208	0.028	-	-0.000	0.000	-	-	-	-	-	-	-	PAVEMENT_GENERAL	Urban	F	1011101000001001	0000000000000000	-	-	-	-	-	-	-	-	-	-	Terminate	
"student4mode1"	"Seema_Shokoufeh_Track2"	"Nov 28, 2016 04:53:22 AM"	Unknown	5.98345	10/28/0116 04:53.32	00000359	-0.000	Inter625t13-0	-0.088	1	2	0.000	11.111	-4.2	0.000	0.000	P	F	0.0	0.000	0.209	0.000	1503.500	523.208	0.028	-	0.000	0.000	-	-	-	-	-	-	-	PAVEMENT_GENERAL	Urban	F	1011101000001001	0000000000000000	-	-	-	-	-	-	-	-	-	-	Terminate	
"student4mode1"	"Seema_Shokoufeh_Track2"	"Nov 28, 2016 04:53:22 AM"	Unknown	6.98347	10/28/0116 04:53.33	00000419	-0.000	Inter625t13-0	-0.088	1	2	0.000	11.111	-3.7	0.000	1.000	P	F	0.0	0.000	0.209	0.000	1503.500	523.208	0.028	-	0.000	0.000	-	-	-	-	-	-	-	PAVEMENT_GENERAL	Urban	F	1011101000001001	0000000000000000	-	-	-	-	-	-	-	-	-	-	Terminate	
"student4mode1"	"Seema_Shokoufeh_Track2"	"Nov 28, 2016 04:53:22 AM"	Unknown	7.98349	10/28/0116 04:53.34	00000479	-0.000	Inter625t13-0	-0.088	1	2	0.000	11.111	-2.7	0.000	0.866	D	F	0.0	0.000	0.209	0.000	1503.500	523.208	0.028	-	-0.000	0.000	-	-	-	-	-	-	-	PAVEMENT_GENERAL	Urban	F	1011101000001001	0000000000000000	-	-	-	-	-	-	-	-	-	-	Terminate	
"student4mode1"	"Seema_Shokoufeh_Track2"	"Nov 28, 2016 04:53:22 AM"	Unknown	8.98351	10/28/0116 04:53.35	00000539	-0.000	Inter625t13-0	-0.088	1	2	0.000	11.111	-3.6	0.000	0.000	D	F	0.0	0.000	0.209	0.000	1503.500	523.208	0.028	-	0.000	0.000	-	-	-	-	-	-	-	PAVEMENT_GENERAL	Urban	F	1011101000001001	0000000000000000	-	-	-	-	-	-	-	-	-	-	Terminate	
"student4mode1"	"Seema_Shokoufeh_Track2"	"Nov 28, 2016 04:53:22 AM"	Unknown	9.98353	10/28/0116 04:53.36	00000599	-0.000	Inter625t13-0	-0.088	1	2	0.000	11.111	-5.4	0.000	0.000	D	F	0.0	0.000	0.209	0.000	1503.500	523.208	0.028	-	0.000	0.000	-	-	-	-	-	-	-	PAVEMENT_GENERAL	Urban	F	1011101000001001	0000000000000000	-	-	-	-	-	-	-	-	-	-	Terminate	
"student4mode1"	"Seema_Shokoufeh_Track2"	"Nov 28, 2016 04:53:22 AM"	Unknown	10.98355	10/28/0116 04:53.37	00000659	-0.000	Inter625t13-0	-0.088	1	2	0.000	11.111	7.0	0.573	0.000	D	F	0.0	0.000	0.209	-0.000	1503.500	523.208	0.028	-	0.000	0.000	-	-	-	-	-	-	-	PAVEMENT_GENERAL	Urban	F	1111101000001001	0000000000000000	-	-	-	-	-	-	-	-	-	-	Terminate	
"student4mode1"	"Seema_Shokoufeh_Track2"	"Nov 28, 2016 04:53:22 AM"	Unknown	11.98357	10/28/0116 04:53.38	00000719	-0.000	Inter625t13-0	-0.088	1	2	0.000	11.111	5.5	0.926	0.000	D	F	0.0	0.000	0.209	-0.000	1503.500	523.208	0.028	-	-0.000	0.000	-	-	-	-	-	-	-	PAVEMENT_GENERAL	Urban	F	1011101000001001	0000000000000000	-	-	-	-	-	-	-	-	-	-	Terminate	
"student4mode1"	"Seema_Shokoufeh_Track2"	"Nov 28, 2016 04:53:22 AM"	Unknown	12.98359	10/28/0116 04:53.39	00000779	0.000	Inter625t13-0	-0.088	1	2	0.000	11.111	3.0	0.473	0.000	D	F	44.4	0.000	0.209	-0.000	1503.500	523.208	0.028	-	0.000	0.001	-	-	-	-	-	-	-	PAVEMENT_GENERAL	Urban	F	1011101000001011	0000000000000000	-	-	-	-	-	-	-	-	-	-	Terminate	
"student4mode1"	"Seema_Shokoufeh_Track2"	"Nov 28, 2016 04:53:22 AM"	Unknown	13.98361	10/28/0116 04:53.40	00000839	1.077	Inter625t13-0	-0.087	1	2	0.000	11.111	3.6	0.014	0.000	D	F	377.8	0.032	0.183	-0.000	1503.501	523.666	0.017	-	0.005	0.366	-	-	-	-	-	-	-	PAVEMENT_GENERAL	Urban	F	1011101000001001	0000000000000000	-	-	-	-	-	-	-	-	-	-	Terminate	
"student4mode1"	"Seema_Shokoufeh_Track2"	"Nov 28, 2016 04:53:22 AM"	Unknown	14.98363	10/28/0116 04:53.41	00000899	3.519	Inter625t13-0	-0.064	1	2	0.000	11.111	19.0	0.206	0.000	D	F	1696.0	0.584	0.217	-0.018	1503.524	525.611	0.011	-	0.125	3.190	-	-	-	-	-	-	-	PAVEMENT_GENERAL	Urban	F	1011101000001001	0000000000000000	-	-	-	-	-	-	-	-	-	-	Terminate	
"student4mode1"	"Seema_Shokoufeh_Track2"	"Nov 28, 2016 04:53:22 AM"	Unknown	15.98365	10/28/0116 04:53.42	00000959	6.307	Inter625t13-0	0.056	1	2	0.000	11.111	1.6	0.185	0.000	D	F	2054.4	1.362	0.228	0.004	1503.644	530.663	0.016	-	0.014	2.146	-	-	-	-	-	-	-	PAVEMENT_GENERAL	Urban	F	1111101000001001	0000000000000000	-	-	-	-	-	-	-	-	-	-	Terminate	
"student4mode1"	"Seema_Shokoufeh_Track2"	"Nov 28, 2016 04:53:22 AM"	Unknown	16.98367	10/28/0116 04:53.43	00001019	6.152	Inter625t49-0	0.207	1	1	0.006	11.111	-1.5	0.021	0.000	D	F	996.3	1.325	0.196	0.002	1503.795	536.987	0.028	-	-0.022	-0.353	-	-	-	-	-	-	-	PAVEMENT_GENERAL	Urban	F	1011101000001001	0000000000000000	-	-	-	-	-	-	-	-	-	-	Terminate	
"student4mode1"	"Seema_Shokoufeh_Track2"	"Nov 28, 2016 04:53:22 AM"	Unknown	17.98369	10/28/0116 04:53.44	00001079	6.247	Inter625t49-0	0.335	1	1	0.007	11.111	-2.1	0.164	0.000	D	F	1562.6	1.155	0.211	0.002	1503.924	543.119	0.025	-	-0.030	0.781	-	-	-	-	-	-	-	PAVEMENT_GENERAL	Urban	F	1011101000001001	0000000000000000	-	-	-	-	-	-	-	-	-	-	Terminate	
"student4mode1"	"Seema_Shokoufeh_Track2"	"Nov 28, 2016 04:53:22 AM"	Unknown	18.98371	10/28/0116 04:53.45	00001139	7.298	Inter625t49-0	0.455	1	1	0.008	11.111	4.6	0.157	0.000	D	F	1601.3	1.047	0.211	-0.014	1504.045	549.902	0.022	-	0.087	0.982	-	-	-	-	-	-	-	PAVEMENT_GENERAL	Urban	F	1011101000001001	0000000000000000	-	-	-	-	-	-	-	-	-	-	Terminate	
"student4mode1"	"Seema_Shokoufeh_Track2"	"Nov 28, 2016 04:53:22 AM"	Unknown	19.98373	10/28/0116 04:53.46	00001199	8.906	Inter625t49-0	0.635	1	1	0.006	11.111	-3.0	0.383	0.000	D	F	2004.0	1.274	0.219	0.013	1504.226	557.909	0.018	-	-0.072	1.844	-	-	-	-	-	-	-	PAVEMENT_GENERAL	Urban	F	1011101000001001	0000000000000000	-	-	-	-	-	-	-	-	-	-	Terminate	
"student4mode1"	"Seema_Shokoufeh_Track2"	"Nov 28, 2016 04:53:22 AM"	Unknown	20.98375	10/28/0116 04:53.47	00001259	10.696	Inter625t49-0	0.804	1	1	0.005	11.111	-1.9	0.000	0.000	N	F	2034.8	0.818	0.206	0.010	1504.396	567.688	0.015	-	-0.067	1.457	-	-	-	-	-	-	-	PAVEMENT_GENERAL	Urban	F	1011101000001001	0000000000000000	-	-	-	-	-	-	-	-	-	-	Terminate	
"student4mode1"	"Seema_Shokoufeh_Track2"	"Nov 28, 2016 04:53:22 AM"	Unknown	21.98377	10/28/0116 04:53.48	00001319	10.571	Inter625t49-0	0.935	1	1	0.005	11.111	1.3	0.000	0.000	N	F	1064.1	0.664	0.193	-0.004	1504.528	578.428	0.028	-	0.030	-0.463	-	-	-	-	-	-	-	PAVEMENT_GENERAL	Urban	F	1011101000001001	0000000000000000	-	-	-	-	-	-	-	-	-	-	Terminate	
"student4mode1"	"Seema_Shokoufeh_Track2"	"Nov 28, 2016 04:53:22 AM"	Unknown	22.98379	10/28/0116 04:53.49	00001379	10.099	Inter625t15-0	1.078	1	2	0.000	11.111	4.4	0.000	0.000	N	F	741.8	0.970	0.195	-0.018	1504.672	588.763	0.029	-	0.133	-0.473	-	-	-	12	21.019	212.280	-	PAVEMENT_GENERAL	Urban	F	1011101000001001	0000000000000000	-	-	-	-	-	-	-	-	-	-	Terminate	
"student4mode1"	"Seema_Shokoufeh_Track2"	"Nov 28, 2016 04:53:22 AM"	Unknown	23.98381	10/28/0116 04:53.50	00001439	8.129	Inter625t15-0	1.319	1	2	0.000	11.111	11.4	0.000	0.087	N	F	556.4	2.003	0.162	-0.033	1504.912	597.844	0.028	-	0.227	-1.529	-	-	-	12	27.199	221.092	-	PAVEMENT_GENERAL	Urban	F	1011101000001001	0000000000000000	-	-	-	-	-	-	-	-	-	-	Terminate	
"student4mode1"	"Seema_Shokoufeh_Track2"	"Nov 28, 2016 04:53:22 AM"	Unknown	24.98383	10/28/0116 04:53.51	00001499	6.203	Inter614t1-0	1.769	1	2	0.000	11.111	25.4	0.000	0.152	N	F	477.5	4.720	0.163	-0.045	1505.362	605.133	0.033	-	0.350	-2.371	-	-	-	12	37.353	231.699	-	PAVEMENT_GENERAL	Urban	F	1011101000001001	0000000000000000	-	-	-	-	-	-	-	-	-	-	Terminate	
"student4mode1"	"Seema_Shokoufeh_Track2"	"Nov 28, 2016 04:53:22 AM"	Unknown	25.98385	10/28/0116 04:53.52	00001559	4.903	Inter614t1-1	-1.176	2	2	0.000	11.111	34.3	0.000	0.000	N	F	477.5	7.873	0.213	-0.044	1506.017	610.525	0.029	-	0.312	-0.456	-	-	-	-	-	-	-	PAVEMENT_GENERAL	Urban	F	1011101000001001	0000000000000000	-	-	-	-	-	-	-	-	-	-	Terminate	
"student4mode1"	"Seema_Shokoufeh_Track2"	"Nov 28, 2016 04:53:22 AM"	Unknown	26.98387	10/28/0116 04:53.53	00001619	4.449	Inter614t1-1	-0.266	2	2	0.000	11.111	73.1	0.000	0.000	N	F	477.5	12.464	0.196	-0.084	1506.928	615.111	0.028	-	0.614	-0.475	-	-	-	-	-	-	-	PAVEMENT_GENERAL	Urban	F	1011101000001001	0000000000000000	-	-	-	-	-	-	-	-	-	-	Terminate	
"student4mode1"	"Seema_Shokoufeh_Track2"	"Nov 28, 2016 04:53:22 AM"	Unknown	27.98389	10/28/0116 04:53.54	00001679	4.005	Inter614t1-1	0.970	2	2	0.000	11.111	-3.7	0.000	0.000	N	F	477.5	17.214	0.200	0.025	1508.163	619.153	0.028	-	-0.205	-0.447	-	-	-	-	-	-	-	PAVEMENT_GENERAL	Urban	F	1011101000001001	0000000000000000	-	-	-	-	-	-	-	-	-	-	Terminate	
"student4mode1"	"Seema_Shokoufeh_Track2"	"Nov 28, 2016 04:53:22 AM"	Unknown	28.98391	10/28/0116 04:53.55	00001739	3.556	-	-	SH	2	-	-	-47.7	0.000	0.000	N	F	477.5	14.707	0.199	0.024	1509.162	622.799	0.028	-	-0.209	-0.451	-	-	-	-	-	-	-	PAVEMENT_GENERAL	Urban	F	1011101000001001	0000000000000000	-	-	-	-	-	-	-	-	-	-	Terminate	
"student4mode1"	"Seema_Shokoufeh_Track2"	"Nov 28, 2016 04:53:22 AM"	Unknown	29.98393	10/28/0116 04:53.56	00001799	3.110	-	-	SH	2	-	-	-54.9	0.000	0.000	N	F	477.5	11.094	0.199	0.024	1509.819	626.068	0.028	-	-0.186	-0.450	-	-	-	-	-	-	-	PAVEMENT_GENERAL	Urban	F	1011101000001001	0000000000000000	-	-	-	-	-	-	-	-	-	-	Terminate	
"student4mode1"	"Seema_Shokoufeh_Track2"	"Nov 28, 2016 04:53:22 AM"	Unknown	30.98395	10/28/0116 04:53.57	00001859	2.666	-	-	SH	2	-	-	-54.5	0.000	0.000	N	F	477.5	7.810	0.199	0.016	1510.208	628.931	0.028	-	-0.130	-0.448	-	-	-	-	-	-	-	PAVEMENT_GENERAL	Urban	F	1011101000001001	0000000000000000	-	-	-	-	-	-	-	-	-	-	Terminate	
"student4mode1"	"Seema_Shokoufeh_Track2"	"Nov 28, 2016 04:53:22 AM"	Unknown	31.98397	10/28/0116 04:53.58	00001919	2.225	-	-	SH	2	-	-	-21.5	0.000	0.000	N	F	477.5	6.020	0.200	0.007	1510.447	631.365	0.028	-	-0.059	-0.444	-	-	-	-	-	-	-	PAVEMENT_GENERAL	Urban	F	1011101000001001	0000000000000000	-	-	-	-	-	-	-	-	-	-	Terminate	
"student4mode1"	"Seema_Shokoufeh_Track2"	"Nov 28, 2016 04:53:22 AM"	Unknown	32.98399	10/28/0116 04:53.59	00001979	1.782	-	-	SH	2	-	-	-29.0	0.000	0.000	N	F	477.5	4.989	0.200	0.006	1510.612	633.362	0.028	-	-0.051	-0.442	-	-	-	-	-	-	-	PAVEMENT_GENERAL	Urban	F	1011101000001001	0000000000000000	-	-	-	-	-	-	-	-	-	-	Terminate	
"student4mode1"	"Seema_Shokoufeh_Track2"	"Nov 28, 2016 04:53:22 AM"	Unknown	33.98401	10/28/0116 04:54.00	00002039	1.217	-	-	SH	2	-	-	-29.9	0.000	0.000	N	F	477.5	3.284	0.383	0.004	1510.676	634.875	0.034	-	0.071	-0.606	-	-	-	-	-	-	-	CURB	Urban	F	1011101000001001	0000000000000000	-	-	-	-	-	-	-	-	-	-	Terminate	
"student4mode1"	"Seema_Shokoufeh_Track2"	"Nov 28, 2016 04:53:22 AM"	Unknown	34.98403	10/28/0116 04:54.01	00002099	0.628	-	-	SH	2	-	-	-23.0	0.000	0.000	N	F	477.5	2.343	0.404	0.022	1510.693	635.790	0.035	-	-0.002	-0.543	-	-	-	-	-	-	-	-	Urban	F	1111101000001001	0000000000000000	-	-	-	-	-	-	-	-	-	-	Terminate	
"student4mode1"	"Seema_Shokoufeh_Track2"	"Nov 28, 2016 04:53:22 AM"	Unknown	35.98405	10/28/0116 04:54.02	00002159	0.244	-	-	SH	2	-	-	18.7	0.000	0.000	N	F	477.5	1.962	0.363	0.019	1510.697	636.203	0.033	-	-0.043	-0.193	-	-	-	-	-	-	-	-	Urban	F	1011101000001001	0000000000000000	-	-	-	-	-	-	-	-	-	-	Terminate	
"student4mode1"	"Seema_Shokoufeh_Track2"	"Nov 28, 2016 04:53:22 AM"	Unknown	36.98407	10/28/0116 04:54.03	00002219	-0.001	-	-	SH	2	-	-	27.5	0.000	0.955	P	F	477.5	1.872	0.304	0.006	1510.695	636.274	0.032	-	0.021	-0.002	-	-	-	-	-	-	-	-	Urban	F	1011101000001001	0000000000000000	-	-	-	-	-	-	-	-	-	-	Terminate	
"student4mode1"	"Seema_Shokoufeh_Track2"	"Nov 28, 2016 04:53:22 AM"	Unknown	37.98409	10/28/0116 04:54.04	00002279	0.001	-	-	SH	2	-	-	27.5	0.000	0.000	P	F	477.5	1.835	0.258	0.002	1510.693	636.273	0.030	-	-0.050	0.060	-	-	-	-	-	-	-	-	Urban	F	1111101000001001	0000000000000000	-	-	-	-	-	-	-	-	-	-	Terminate	
"student4mode1"	"Seema_Shokoufeh_Track2"	"Nov 28, 2016 04:53:22 AM"	Unknown	38.98411	10/28/0116 04:54.05	00002339	-0.001	-	-	SH	2	-	-	28.0	0.000	0.000	P	F	477.5	1.815	0.236	0.001	1510.692	636.272	0.029	-	0.021	-0.017	-	-	-	-	-	-	-	-	Urban	F	1011101000001001	0000000000000000	-	-	-	-	-	-	-	-	-	-	Terminate	
"student4mode1"	"Seema_Shokoufeh_Track2"	"Nov 28, 2016 04:53:22 AM"	Unknown	39.98413	10/28/0116 04:54.06	00002399	-0.001	-	-	SH	2	-	-	30.5	0.000	0.000	P	F	477.5	1.804	0.223	-0.001	1510.691	636.272	0.028	-	-0.002	-0.002	-	-	-	-	-	-	-	-	Urban	F	1011101000001001	0000000000000000	-	-	-	-	-	-	-	-	-	-	Terminate	
"student4mode1"	"Seema_Shokoufeh_Track2"	"Nov 28, 2016 04:53:22 AM"	Unknown	40.98415	10/28/0116 04:54.07	00002459	-0.000	-	-	SH	2	-	-	8.0	0.000	0.000	P	F	477.5	1.798	0.217	-0.002	1510.691	636.272	0.028	-	0.002	0.003	-	-	-	-	-	-	-	-	Urban	F	1011101000001001	0000000000000000	-	-	-	-	-	-	-	-	-	-	Terminate	
"student4mode1"	"Seema_Shokoufeh_Track2"	"Nov 28, 2016 04:53:22 AM"	Unknown	41.98417	10/28/0116 04:54.08	00002519	0.000	-	-	SH	2	-	-	11.9	0.000	0.000	P	F	477.5	1.795	0.215	-0.004	1510.691	636.271	0.028	-	0.007	0.005	-	-	-	-	-	-	-	-	Urban	F	1011101000001001	0000000000000000	-	-	-	-	-	-	-	-	-	-	Terminate	
"student4mode1"	"Seema_Shokoufeh_Track2"	"Nov 28, 2016 04:53:22 AM"	Unknown	42.98419	10/28/0116 04:54.09	00002579	-0.000	-	-	SH	2	-	-	13.2	0.000	0.000	P	F	477.5	1.792	0.210	0.004	1510.690	636.271	0.028	-	0.017	-0.021	-	-	-	-	-	-	-	-	Urban	F	1011101000001001	0000000000000000	-	-	-	-	-	-	-	-	-	-	Terminate	
"student4mode1"	"Seema_Shokoufeh_Track2"	"Nov 28, 2016 04:53:22 AM"	Unknown	43.98421	10/28/0116 04:54.10	00002639	-0.000	-	-	SH	2	-	-	8.1	0.000	0.000	P	F	477.5	1.792	0.209	-0.000	1510.690	636.271	0.028	-	0.000	-0.000	-	-	-	-	-	-	-	-	Urban	F	1011101000001001	0000000000000000	-	-	-	-	-	-	-	-	-	-	Terminate	
"student4mode1"	"Seema_Shokoufeh_Track2"	"Nov 28, 2016 04:53:22 AM"	Unknown	44.98423	10/28/0116 04:54.11	00002699	0.000	-	-	SH	2	-	-	-25.0	0.000	0.000	P	F	477.5	1.791	0.210	-0.001	1510.690	636.271	0.028	-	0.001	0.001	-	-	-	-	-	-	-	-	Urban	F	1011101000001001	0000000000000000	-	-	-	-	-	-	-	-	-	-	Terminate	
"student4mode1"	"Seema_Shokoufeh_Track2"	"Nov 28, 2016 04:53:22 AM"	Unknown	45.98425	10/28/0116 04:54.12	00002759	-0.000	-	-	SH	2	-	-	-24.6	0.000	0.000	P	F	477.5	1.791	0.209	0.000	1510.690	636.271	0.028	-	-0.000	0.000	-	-	-	-	-	-	-	-	Urban	F	1011101000001001	0000000000000000	-	-	-	-	-	-	-	-	-	-	Terminate	
"student4mode1"	"Seema_Shokoufeh_Track2"	"Nov 28, 2016 04:53:22 AM"	Unknown	46.98427	10/28/0116 04:54.13	00002819	-0.000	-	-	SH	2	-	-	-25.0	0.000	0.000	P	F	477.5	1.791	0.209	0.000	1510.690	636.271	0.028	-	0.000	0.000	-	-	-	-	-	-	-	-	Urban	F	1011101000001001	0000000000000000	-	-	-	-	-	-	-	-	-	-	Terminate	
"student4mode1"	"Seema_Shokoufeh_Track2"	"Nov 28, 2016 04:53:22 AM"	Unknown	47.98429	10/28/0116 04:54.14	00002879	-0.000	-	-	SH	2	-	-	-25.0	0.000	0.000	P	F	477.5	1.791	0.209	0.000	1510.690	636.271	0.028	-	-0.000	0.000	-	-	-	-	-	-	-	-	Urban	F	1011101000001001	0000000000000000	-	-	-	-	-	-	-	-	-	-	Terminate	
