"Name"	"Project"	"Time"	ZoneName	Time	SystemTime	Frame	Velocity	LaneName	LanePos	LaneIndex	LaneCount	LaneHeading	SpeedLimit	Steer	Accel	Brake	Gear	Horn	SubjectEngineRPM	SubjectHeading	SubjectPitch	SubjectRoll	SubjectX	SubjectY	SubjectZ	Signal	LatAccel	LongAccel	Collision	CollisionAngle	CollisionVelocity	VehAhead	HeadwayTime	HeadwayDist	TTC	TerrainType	CultureType	Slip	DigitalInputs	DigitalInputs2	ActiveTrigger	EntityName	DistToEntity	TimeToEntity	EntityVelocity	EntityAccel	EntityHeading	EntityX	EntityY	EntityZ	GrabData	
"student4mode1"	"Seema_Shokoufeh_Track2"	"Nov 28, 2016 04:54:29 AM"	Unknown	0.98335	10/28/0116 04:54.34	00000059	0.002	Inter625t13-0	-0.088	1	2	0.000	11.111	-7.6	0.000	0.000	P	F	0.0	0.000	0.153	0.002	1503.500	523.206	0.019	-	0.000	0.000	-	-	-	-	-	-	-	PAVEMENT_GENERAL	Urban	F	1011101000001001	0000000000000000	-	-	-	-	-	-	-	-	-	-	Terminate	
"student4mode1"	"Seema_Shokoufeh_Track2"	"Nov 28, 2016 04:54:29 AM"	Unknown	1.98337	10/28/0116 04:54.35	00000119	0.000	Inter625t13-0	-0.088	1	2	0.000	11.111	-5.8	0.000	0.000	P	F	0.0	0.000	0.197	0.000	1503.500	523.208	0.026	-	-0.000	-0.001	-	-	-	-	-	-	-	PAVEMENT_GENERAL	Urban	F	1011101000001001	0000000000000000	-	-	-	-	-	-	-	-	-	-	Terminate	
"student4mode1"	"Seema_Shokoufeh_Track2"	"Nov 28, 2016 04:54:29 AM"	Unknown	2.98339	10/28/0116 04:54.36	00000179	-0.000	Inter625t13-0	-0.088	1	2	0.000	11.111	-2.3	0.000	0.000	P	F	0.0	0.000	0.207	0.000	1503.500	523.208	0.028	-	0.000	-0.000	-	-	-	-	-	-	-	PAVEMENT_GENERAL	Urban	F	1011101000001001	0000000000000000	-	-	-	-	-	-	-	-	-	-	Terminate	
"student4mode1"	"Seema_Shokoufeh_Track2"	"Nov 28, 2016 04:54:29 AM"	Unknown	3.98341	10/28/0116 04:54.37	00000239	-0.000	Inter625t13-0	-0.088	1	2	0.000	11.111	-9.7	0.000	0.000	P	F	0.0	0.000	0.210	0.000	1503.500	523.208	0.028	-	-0.000	-0.000	-	-	-	-	-	-	-	PAVEMENT_GENERAL	Urban	F	1011101000001001	0000000000000000	-	-	-	-	-	-	-	-	-	-	Terminate	
"student4mode1"	"Seema_Shokoufeh_Track2"	"Nov 28, 2016 04:54:29 AM"	Unknown	4.98343	10/28/0116 04:54.38	00000299	-0.000	Inter625t13-0	-0.088	1	2	0.000	11.111	-7.5	0.000	0.000	P	F	211.1	0.000	0.209	0.000	1503.500	523.208	0.028	-	-0.000	-0.000	-	-	-	-	-	-	-	PAVEMENT_GENERAL	Urban	F	1011101000001011	0000000000000000	-	-	-	-	-	-	-	-	-	-	Terminate	
"student4mode1"	"Seema_Shokoufeh_Track2"	"Nov 28, 2016 04:54:29 AM"	Unknown	5.98345	10/28/0116 04:54.39	00000359	-0.000	Inter625t13-0	-0.088	1	2	0.000	11.111	-7.5	0.000	0.000	P	F	477.5	0.000	0.209	0.000	1503.500	523.208	0.028	-	0.000	0.000	-	-	-	-	-	-	-	PAVEMENT_GENERAL	Urban	F	1011101000001001	0000000000000000	-	-	-	-	-	-	-	-	-	-	Terminate	
"student4mode1"	"Seema_Shokoufeh_Track2"	"Nov 28, 2016 04:54:29 AM"	Unknown	6.98347	10/28/0116 04:54.40	00000419	-0.000	Inter625t13-0	-0.088	1	2	0.000	11.111	-7.4	0.000	0.000	P	F	477.5	0.000	0.209	0.000	1503.500	523.208	0.028	-	-0.000	0.000	-	-	-	-	-	-	-	PAVEMENT_GENERAL	Urban	F	1011101000001001	0000000000000000	-	-	-	-	-	-	-	-	-	-	Terminate	
"student4mode1"	"Seema_Shokoufeh_Track2"	"Nov 28, 2016 04:54:29 AM"	Unknown	7.98349	10/28/0116 04:54.41	00000479	-0.000	Inter625t13-0	-0.088	1	2	0.000	11.111	-7.4	0.000	0.000	P	F	477.5	0.000	0.209	0.000	1503.500	523.208	0.028	-	-0.000	0.000	-	-	-	-	-	-	-	PAVEMENT_GENERAL	Urban	F	1011101000001001	0000000000000000	-	-	-	-	-	-	-	-	-	-	Terminate	
"student4mode1"	"Seema_Shokoufeh_Track2"	"Nov 28, 2016 04:54:29 AM"	Unknown	8.98351	10/28/0116 04:54.42	00000539	-0.000	Inter625t13-0	-0.088	1	2	0.000	11.111	-7.4	0.000	0.000	P	F	477.5	0.000	0.209	0.000	1503.500	523.208	0.028	-	-0.000	0.000	-	-	-	-	-	-	-	PAVEMENT_GENERAL	Urban	F	1011101000001001	0000000000000000	-	-	-	-	-	-	-	-	-	-	Terminate	
"student4mode1"	"Seema_Shokoufeh_Track2"	"Nov 28, 2016 04:54:29 AM"	Unknown	9.98353	10/28/0116 04:54.43	00000599	-0.000	Inter625t13-0	-0.088	1	2	0.000	11.111	-7.4	0.000	0.000	P	F	477.5	0.000	0.209	0.000	1503.500	523.208	0.028	-	-0.000	0.000	-	-	-	-	-	-	-	PAVEMENT_GENERAL	Urban	F	1011101000001001	0000000000000000	-	-	-	-	-	-	-	-	-	-	Terminate	
"student4mode1"	"Seema_Shokoufeh_Track2"	"Nov 28, 2016 04:54:29 AM"	Unknown	10.98355	10/28/0116 04:54.44	00000659	-0.000	Inter625t13-0	-0.088	1	2	0.000	11.111	-7.4	0.000	0.000	P	F	477.5	0.000	0.209	0.000	1503.500	523.208	0.028	-	-0.000	0.000	-	-	-	-	-	-	-	PAVEMENT_GENERAL	Urban	F	1011101000001001	0000000000000000	-	-	-	-	-	-	-	-	-	-	Terminate	
"student4mode1"	"Seema_Shokoufeh_Track2"	"Nov 28, 2016 04:54:29 AM"	Unknown	11.98357	10/28/0116 04:54.45	00000719	-0.000	Inter625t13-0	-0.088	1	2	0.000	11.111	-7.4	0.000	0.000	P	F	477.5	0.000	0.209	0.000	1503.500	523.208	0.028	-	-0.000	0.000	-	-	-	-	-	-	-	PAVEMENT_GENERAL	Urban	F	1011101000001001	0000000000000000	-	-	-	-	-	-	-	-	-	-	Terminate	
"student4mode1"	"Seema_Shokoufeh_Track2"	"Nov 28, 2016 04:54:29 AM"	Unknown	12.98359	10/28/0116 04:54.46	00000779	-0.000	Inter625t13-0	-0.088	1	2	0.000	11.111	-7.4	0.000	0.000	P	F	477.5	0.000	0.209	0.000	1503.500	523.208	0.028	-	-0.000	0.000	-	-	-	-	-	-	-	PAVEMENT_GENERAL	Urban	F	1011101000001001	0000000000000000	-	-	-	-	-	-	-	-	-	-	Terminate	
"student4mode1"	"Seema_Shokoufeh_Track2"	"Nov 28, 2016 04:54:29 AM"	Unknown	13.98361	10/28/0116 04:54.47	00000839	-0.000	Inter625t13-0	-0.088	1	2	0.000	11.111	-7.4	0.000	0.000	P	F	477.5	0.000	0.209	0.000	1503.500	523.208	0.028	-	-0.000	0.000	-	-	-	-	-	-	-	PAVEMENT_GENERAL	Urban	F	1011101000001001	0000000000000000	-	-	-	-	-	-	-	-	-	-	Terminate	
"student4mode1"	"Seema_Shokoufeh_Track2"	"Nov 28, 2016 04:54:29 AM"	Unknown	14.98363	10/28/0116 04:54.48	00000899	-0.000	Inter625t13-0	-0.088	1	2	0.000	11.111	-7.4	0.000	0.000	P	F	477.5	0.000	0.209	0.000	1503.500	523.208	0.028	-	-0.000	0.000	-	-	-	-	-	-	-	PAVEMENT_GENERAL	Urban	F	1011101000001001	0000000000000000	-	-	-	-	-	-	-	-	-	-	Terminate	
"student4mode1"	"Seema_Shokoufeh_Track2"	"Nov 28, 2016 04:54:29 AM"	Unknown	15.98365	10/28/0116 04:54.49	00000959	-0.000	Inter625t13-0	-0.088	1	2	0.000	11.111	-7.4	0.000	0.000	P	F	477.5	0.000	0.209	-0.000	1503.500	523.208	0.028	-	-0.000	0.000	-	-	-	-	-	-	-	PAVEMENT_GENERAL	Urban	F	1011101000001001	0000000000000000	-	-	-	-	-	-	-	-	-	-	Terminate	
"student4mode1"	"Seema_Shokoufeh_Track2"	"Nov 28, 2016 04:54:29 AM"	Unknown	16.98367	10/28/0116 04:54.50	00001019	-0.000	Inter625t13-0	-0.088	1	2	0.000	11.111	-7.4	0.000	0.000	P	F	477.5	0.000	0.209	-0.000	1503.500	523.208	0.028	-	-0.000	0.000	-	-	-	-	-	-	-	PAVEMENT_GENERAL	Urban	F	1011101000001001	0000000000000000	-	-	-	-	-	-	-	-	-	-	Terminate	
"student4mode1"	"Seema_Shokoufeh_Track2"	"Nov 28, 2016 04:54:29 AM"	Unknown	17.98369	10/28/0116 04:54.51	00001079	-0.000	Inter625t13-0	-0.088	1	2	0.000	11.111	-8.3	0.000	0.000	P	F	477.5	0.000	0.209	-0.000	1503.500	523.208	0.028	-	-0.000	0.000	-	-	-	-	-	-	-	PAVEMENT_GENERAL	Urban	F	1011101000001001	0000000000000000	-	-	-	-	-	-	-	-	-	-	Terminate	
"student4mode1"	"Seema_Shokoufeh_Track2"	"Nov 28, 2016 04:54:29 AM"	Unknown	18.98371	10/28/0116 04:54.52	00001139	-0.000	Inter625t13-0	-0.088	1	2	0.000	11.111	-11.6	0.000	0.000	P	F	477.5	0.000	0.209	-0.000	1503.500	523.208	0.028	-	-0.000	0.000	-	-	-	-	-	-	-	PAVEMENT_GENERAL	Urban	F	1011101000001001	0000000000000000	-	-	-	-	-	-	-	-	-	-	Terminate	
"student4mode1"	"Seema_Shokoufeh_Track2"	"Nov 28, 2016 04:54:29 AM"	Unknown	19.98373	10/28/0116 04:54.53	00001199	-0.000	Inter625t13-0	-0.088	1	2	0.000	11.111	-7.2	0.000	0.000	P	F	477.5	0.000	0.209	-0.000	1503.500	523.208	0.028	-	-0.000	0.000	-	-	-	-	-	-	-	PAVEMENT_GENERAL	Urban	F	1011101000001011	0000000000000000	-	-	-	-	-	-	-	-	-	-	Terminate	
"student4mode1"	"Seema_Shokoufeh_Track2"	"Nov 28, 2016 04:54:29 AM"	Unknown	20.98375	10/28/0116 04:54.54	00001259	-0.000	Inter625t13-0	-0.088	1	2	0.000	11.111	-9.1	0.000	0.000	P	F	477.5	0.000	0.209	-0.000	1503.500	523.208	0.028	-	-0.000	0.000	-	-	-	-	-	-	-	PAVEMENT_GENERAL	Urban	F	1011101000001001	0000000000000000	-	-	-	-	-	-	-	-	-	-	Terminate	
"student4mode1"	"Seema_Shokoufeh_Track2"	"Nov 28, 2016 04:54:29 AM"	Unknown	21.98377	10/28/0116 04:54.55	00001319	-0.000	Inter625t13-0	-0.088	1	2	0.000	11.111	-7.4	0.000	0.000	P	F	477.5	0.000	0.209	-0.000	1503.500	523.208	0.028	-	-0.000	0.000	-	-	-	-	-	-	-	PAVEMENT_GENERAL	Urban	F	1011101000001001	0000000000000000	-	-	-	-	-	-	-	-	-	-	Terminate	
"student4mode1"	"Seema_Shokoufeh_Track2"	"Nov 28, 2016 04:54:29 AM"	Unknown	22.98379	10/28/0116 04:54.56	00001379	-0.000	Inter625t13-0	-0.088	1	2	0.000	11.111	-11.3	0.000	1.000	P	F	477.5	0.000	0.209	-0.000	1503.500	523.208	0.028	-	-0.000	0.000	-	-	-	-	-	-	-	PAVEMENT_GENERAL	Urban	F	1111101000001001	0000000000000000	-	-	-	-	-	-	-	-	-	-	Terminate	
"student4mode1"	"Seema_Shokoufeh_Track2"	"Nov 28, 2016 04:54:29 AM"	Unknown	23.98381	10/28/0116 04:54.57	00001439	-0.000	Inter625t13-0	-0.088	1	2	0.000	11.111	-9.6	0.000	1.000	P	F	477.5	0.000	0.209	-0.000	1503.500	523.208	0.028	-	-0.000	0.000	-	-	-	-	-	-	-	PAVEMENT_GENERAL	Urban	F	1011101000001001	0000000000000000	-	-	-	-	-	-	-	-	-	-	Terminate	
"student4mode1"	"Seema_Shokoufeh_Track2"	"Nov 28, 2016 04:54:29 AM"	Unknown	24.98383	10/28/0116 04:54.58	00001499	-0.000	Inter625t13-0	-0.088	1	2	0.000	11.111	-7.9	0.000	0.982	N	F	477.5	0.000	0.209	-0.000	1503.500	523.208	0.028	-	0.000	-0.000	-	-	-	-	-	-	-	PAVEMENT_GENERAL	Urban	F	1011101000001001	0000000000000000	-	-	-	-	-	-	-	-	-	-	Terminate	
"student4mode1"	"Seema_Shokoufeh_Track2"	"Nov 28, 2016 04:54:29 AM"	Unknown	25.98385	10/28/0116 04:54.59	00001559	0.000	Inter625t13-0	-0.088	1	2	0.000	11.111	-6.7	0.000	0.636	D	F	477.5	0.000	0.209	0.000	1503.500	523.208	0.028	-	0.000	-0.000	-	-	-	-	-	-	-	PAVEMENT_GENERAL	Urban	F	1011101000001001	0000000000000000	-	-	-	-	-	-	-	-	-	-	Terminate	
"student4mode1"	"Seema_Shokoufeh_Track2"	"Nov 28, 2016 04:54:29 AM"	Unknown	26.98387	10/28/0116 04:55.00	00001619	0.000	Inter625t13-0	-0.088	1	2	0.000	11.111	-7.1	0.000	0.507	D	F	477.5	0.000	0.209	0.000	1503.500	523.208	0.028	-	-0.000	0.000	-	-	-	-	-	-	-	PAVEMENT_GENERAL	Urban	F	1011101000001001	0000000000000000	-	-	-	-	-	-	-	-	-	-	Terminate	
"student4mode1"	"Seema_Shokoufeh_Track2"	"Nov 28, 2016 04:54:29 AM"	Unknown	27.98389	10/28/0116 04:55.01	00001679	0.000	Inter625t13-0	-0.088	1	2	0.000	11.111	-1.7	0.000	0.134	D	F	477.5	0.000	0.209	-0.000	1503.500	523.208	0.028	-	-0.000	0.000	-	-	-	-	-	-	-	PAVEMENT_GENERAL	Urban	F	1011101000001001	0000000000000000	-	-	-	-	-	-	-	-	-	-	Terminate	
"student4mode1"	"Seema_Shokoufeh_Track2"	"Nov 28, 2016 04:54:29 AM"	Unknown	28.98391	10/28/0116 04:55.02	00001739	0.000	Inter625t13-0	-0.088	1	2	0.000	11.111	-1.2	0.000	0.000	D	F	477.5	0.000	0.208	0.000	1503.500	523.208	0.028	-	-0.000	0.002	-	-	-	-	-	-	-	PAVEMENT_GENERAL	Urban	F	1011101000001001	0000000000000000	-	-	-	-	-	-	-	-	-	-	Terminate	
"student4mode1"	"Seema_Shokoufeh_Track2"	"Nov 28, 2016 04:54:29 AM"	Unknown	29.98393	10/28/0116 04:55.03	00001799	0.192	Inter625t13-0	-0.088	1	2	0.000	11.111	-0.9	0.062	0.000	D	F	1188.2	0.000	0.223	0.001	1503.500	523.227	0.017	-	-0.007	1.383	-	-	-	-	-	-	-	PAVEMENT_GENERAL	Urban	F	1111101000001001	0000000000000000	-	-	-	-	-	-	-	-	-	-	Terminate	
"student4mode1"	"Seema_Shokoufeh_Track2"	"Nov 28, 2016 04:54:29 AM"	Unknown	30.98395	10/28/0116 04:55.04	00001859	0.471	Inter625t13-0	-0.087	1	2	0.000	11.111	10.2	0.005	0.000	D	F	477.5	0.037	0.194	-0.001	1503.501	523.648	0.023	-	0.002	0.065	-	-	-	-	-	-	-	PAVEMENT_GENERAL	Urban	F	1011101000001001	0000000000000000	-	-	-	-	-	-	-	-	-	-	Terminate	
"student4mode1"	"Seema_Shokoufeh_Track2"	"Nov 28, 2016 04:54:29 AM"	Unknown	31.98397	10/28/0116 04:55.05	00001919	0.976	Inter625t13-0	-0.082	1	2	0.000	11.111	10.8	0.044	0.000	D	F	865.2	0.177	0.214	-0.001	1503.506	524.260	0.022	-	0.009	0.977	-	-	-	-	-	-	-	PAVEMENT_GENERAL	Urban	F	1011101000001001	0000000000000000	-	-	-	-	-	-	-	-	-	-	Terminate	
"student4mode1"	"Seema_Shokoufeh_Track2"	"Nov 28, 2016 04:54:29 AM"	Unknown	32.98399	10/28/0116 04:55.06	00001979	1.985	Inter625t13-0	-0.064	1	2	0.000	11.111	7.6	0.051	0.000	D	F	995.3	0.488	0.210	-0.002	1503.524	525.761	0.022	-	0.015	0.904	-	-	-	-	-	-	-	PAVEMENT_GENERAL	Urban	F	1011101000001001	0000000000000000	-	-	-	-	-	-	-	-	-	-	Terminate	
"student4mode1"	"Seema_Shokoufeh_Track2"	"Nov 28, 2016 04:54:29 AM"	Unknown	33.98401	10/28/0116 04:55.07	00002039	3.217	Inter625t13-0	-0.038	1	2	0.000	11.111	-0.8	0.086	0.000	D	F	1311.0	0.552	0.215	0.001	1503.550	528.292	0.019	-	-0.000	1.484	-	-	-	-	-	-	-	PAVEMENT_GENERAL	Urban	F	1011101000001001	0000000000000000	-	-	-	-	-	-	-	-	-	-	Terminate	
"student4mode1"	"Seema_Shokoufeh_Track2"	"Nov 28, 2016 04:54:29 AM"	Unknown	34.98403	10/28/0116 04:55.08	00002099	4.177	Inter625t13-0	0.007	1	2	0.000	11.111	3.3	0.074	0.000	D	F	1367.2	0.743	0.209	-0.002	1503.595	532.034	0.022	-	0.018	0.765	-	-	-	-	-	-	-	PAVEMENT_GENERAL	Urban	F	1011101000001001	0000000000000000	-	-	-	-	-	-	-	-	-	-	Terminate	
"student4mode1"	"Seema_Shokoufeh_Track2"	"Nov 28, 2016 04:54:29 AM"	Unknown	35.98405	10/28/0116 04:55.09	00002159	4.860	Inter625t49-0	0.083	1	1	0.006	11.111	3.9	0.049	0.000	D	F	1234.5	1.024	0.209	-0.006	1503.672	536.563	0.023	-	0.040	0.509	-	-	-	-	-	-	-	PAVEMENT_GENERAL	Urban	F	1011101000001001	0000000000000000	-	-	-	-	-	-	-	-	-	-	Terminate	
"student4mode1"	"Seema_Shokoufeh_Track2"	"Nov 28, 2016 04:54:29 AM"	Unknown	36.98407	10/28/0116 04:55.10	00002219	4.889	Inter625t49-0	0.198	1	1	0.007	11.111	-0.1	0.044	0.000	D	F	1035.3	1.440	0.211	0.005	1503.787	541.456	0.026	-	-0.030	0.153	-	-	-	-	-	-	-	PAVEMENT_GENERAL	Urban	F	1011101000001001	0000000000000000	-	-	-	-	-	-	-	-	-	-	Terminate	
"student4mode1"	"Seema_Shokoufeh_Track2"	"Nov 28, 2016 04:54:29 AM"	Unknown	37.98409	10/28/0116 04:55.11	00002279	5.193	Inter625t49-0	0.291	1	1	0.008	11.111	-4.5	0.056	0.000	D	F	1150.6	0.876	0.208	0.003	1503.880	546.482	0.025	-	-0.028	0.374	-	-	-	-	-	-	-	PAVEMENT_GENERAL	Urban	F	1011101000001001	0000000000000000	-	-	-	-	-	-	-	-	-	-	Terminate	
"student4mode1"	"Seema_Shokoufeh_Track2"	"Nov 28, 2016 04:54:29 AM"	Unknown	38.98411	10/28/0116 04:55.12	00002339	5.485	Inter625t49-0	0.359	1	1	0.008	11.111	1.0	0.058	0.000	D	F	1146.7	0.758	0.206	0.000	1503.949	551.822	0.025	-	0.012	0.262	-	-	-	-	-	-	-	PAVEMENT_GENERAL	Urban	F	1011101000001001	0000000000000000	-	-	-	-	-	-	-	-	-	-	Terminate	
"student4mode1"	"Seema_Shokoufeh_Track2"	"Nov 28, 2016 04:54:29 AM"	Unknown	39.98413	10/28/0116 04:55.13	00002399	5.754	Inter625t49-0	0.452	1	1	0.007	11.111	4.9	0.058	0.000	D	F	1179.1	1.089	0.205	-0.007	1504.043	557.442	0.025	-	0.055	0.247	-	-	-	-	-	-	-	PAVEMENT_GENERAL	Urban	F	1011101000001001	0000000000000000	-	-	-	-	-	-	-	-	-	-	Terminate	
"student4mode1"	"Seema_Shokoufeh_Track2"	"Nov 28, 2016 04:54:29 AM"	Unknown	40.98415	10/28/0116 04:55.14	00002459	5.989	Inter625t49-0	0.602	1	1	0.005	11.111	3.9	0.062	0.000	D	F	1196.8	1.599	0.205	-0.007	1504.193	563.313	0.025	-	0.048	0.224	-	-	-	-	-	-	-	PAVEMENT_GENERAL	Urban	F	1011101000001001	0000000000000000	-	-	-	-	-	-	-	-	-	-	Terminate	
"student4mode1"	"Seema_Shokoufeh_Track2"	"Nov 28, 2016 04:54:29 AM"	Unknown	41.98417	10/28/0116 04:55.15	00002519	6.209	Inter625t49-0	0.806	1	1	0.005	11.111	3.8	0.058	0.000	D	F	1210.4	2.060	0.204	-0.007	1504.398	569.411	0.025	-	0.049	0.196	-	-	-	-	-	-	-	PAVEMENT_GENERAL	Urban	F	1011101000001001	0000000000000000	-	-	-	-	-	-	-	-	-	-	Terminate	
"student4mode1"	"Seema_Shokoufeh_Track2"	"Nov 28, 2016 04:54:29 AM"	Unknown	42.98419	10/28/0116 04:55.16	00002579	6.407	Inter625t49-0	1.067	1	1	0.005	11.111	3.7	0.062	0.000	D	F	1232.8	2.510	0.205	-0.006	1504.659	575.715	0.025	-	0.050	0.197	-	-	-	-	-	-	-	PAVEMENT_GENERAL	Urban	F	1011101000001001	0000000000000000	-	-	-	-	-	-	-	-	-	-	Terminate	
"student4mode1"	"Seema_Shokoufeh_Track2"	"Nov 28, 2016 04:54:29 AM"	Unknown	43.98421	10/28/0116 04:55.17	00002639	6.581	Inter625t49-0	1.385	1	1	0.005	11.111	0.8	0.056	0.000	D	F	1233.9	2.927	0.204	-0.001	1504.978	582.204	0.026	-	0.004	0.163	-	-	-	-	-	-	-	PAVEMENT_GENERAL	Urban	F	1011101000001001	0000000000000000	-	-	-	-	-	-	-	-	-	-	Terminate	
"student4mode1"	"Seema_Shokoufeh_Track2"	"Nov 28, 2016 04:54:29 AM"	Unknown	44.98423	10/28/0116 04:55.18	00002699	6.726	Inter625t15-0	1.691	1	2	0.000	11.111	-3.5	0.063	0.000	D	F	1254.5	2.403	0.204	0.003	1505.284	588.843	0.025	-	-0.042	0.171	-	-	-	-	-	-	-	PAVEMENT_GENERAL	Urban	F	1011101000001001	0000000000000000	-	-	-	-	-	-	-	-	-	-	Terminate	
"student4mode1"	"Seema_Shokoufeh_Track2"	"Nov 28, 2016 04:54:29 AM"	Unknown	45.98425	10/28/0116 04:55.19	00002759	6.775	Inter625t15-1	-1.680	2	2	0.000	11.111	-19.9	0.060	0.000	D	F	1221.5	1.504	0.198	0.053	1505.513	595.629	0.027	-	-0.345	-0.115	-	-	-	-	-	-	-	PAVEMENT_GENERAL	Urban	F	1011101000001001	0000000000000000	-	-	-	-	-	-	-	-	-	-	Terminate	
"student4mode1"	"Seema_Shokoufeh_Track2"	"Nov 28, 2016 04:54:29 AM"	Unknown	46.98427	10/28/0116 04:55.20	00002819	7.216	Inter614t1-1	-1.750	2	2	0.000	11.111	-18.0	0.176	0.000	D	F	1670.4	358.297	0.216	0.032	1505.443	602.532	0.022	-	-0.280	1.162	-	-	-	-	-	-	-	PAVEMENT_GENERAL	Urban	F	1011101000001001	0000000000000000	-	-	-	-	-	-	-	-	-	-	Terminate	
"student4mode1"	"Seema_Shokoufeh_Track2"	"Nov 28, 2016 04:54:29 AM"	Unknown	47.98429	10/28/0116 04:55.21	00002879	8.089	Inter614t1-0	1.457	1	2	0.000	11.111	-1.5	0.131	0.000	D	F	1584.4	356.630	0.205	-0.001	1505.050	610.238	0.023	-	-0.023	0.628	-	-	-	-	-	-	-	PAVEMENT_GENERAL	Urban	F	1011101000001001	0000000000000000	-	-	-	-	-	-	-	-	-	-	Terminate	
"student4mode1"	"Seema_Shokoufeh_Track2"	"Nov 28, 2016 04:54:29 AM"	Unknown	48.98431	10/28/0116 04:55.22	00002939	8.831	Inter614t1-0	0.981	1	2	0.000	11.111	2.1	0.215	0.000	D	F	1861.7	356.919	0.221	-0.006	1504.574	618.637	0.021	-	0.047	1.240	-	-	-	-	-	-	-	PAVEMENT_GENERAL	Urban	F	1011101000001001	0000000000000000	-	-	-	-	-	-	-	-	-	-	Terminate	
"student4mode1"	"Seema_Shokoufeh_Track2"	"Nov 28, 2016 04:54:29 AM"	Unknown	49.98433	10/28/0116 04:55.23	00002999	9.877	Inter614t1-0	0.543	1	2	0.000	11.111	4.5	0.129	0.000	D	F	1736.7	357.719	0.195	-0.016	1504.136	628.056	0.023	-	0.133	0.498	-	-	-	-	-	-	-	PAVEMENT_GENERAL	Urban	F	1011101000001001	0000000000000000	-	-	-	-	-	-	-	-	-	-	Terminate	
"student4mode1"	"Seema_Shokoufeh_Track2"	"Nov 28, 2016 04:54:29 AM"	Unknown	50.98435	10/28/0116 04:55.24	00003059	9.930	Inter614t1-0	0.228	1	2	0.000	11.111	5.4	0.194	0.000	D	F	1667.0	358.549	0.216	-0.020	1503.821	637.966	0.025	-	0.157	0.647	-	-	-	-	-	-	-	PAVEMENT_GENERAL	Urban	F	1011101000001001	0000000000000000	-	-	-	-	-	-	-	-	-	-	Terminate	
"student4mode1"	"Seema_Shokoufeh_Track2"	"Nov 28, 2016 04:54:29 AM"	Unknown	51.98437	10/28/0116 04:55.25	00003119	10.678	Inter614t1-0	0.046	1	2	0.000	11.111	3.1	0.185	0.000	D	F	1671.5	359.224	0.207	-0.013	1503.639	648.274	0.023	-	0.093	0.724	-	-	-	-	-	-	-	PAVEMENT_GENERAL	Urban	F	1011101000001001	0000000000000000	-	-	-	-	-	-	-	-	-	-	Terminate	
"student4mode1"	"Seema_Shokoufeh_Track2"	"Nov 28, 2016 04:54:29 AM"	Unknown	52.98439	10/28/0116 04:55.26	00003179	11.344	Inter614t1-0	-0.049	1	2	0.000	11.111	-0.5	0.176	0.000	D	F	1673.1	359.663	0.205	-0.001	1503.544	659.292	0.023	-	0.006	0.620	-	-	-	-	-	-	-	PAVEMENT_GENERAL	Urban	F	1111101000001001	0000000000000000	-	-	-	-	-	-	-	-	-	-	Terminate	
"student4mode1"	"Seema_Shokoufeh_Track2"	"Nov 28, 2016 04:54:29 AM"	Unknown	53.98441	10/28/0116 04:55.27	00003239	11.944	Inter614t1-0	-0.190	1	2	0.000	11.111	-0.7	0.178	0.000	D	F	1690.7	358.873	0.204	0.006	1503.404	670.939	0.024	-	-0.076	0.572	-	-	-	-	-	-	-	PAVEMENT_GENERAL	Urban	F	1011101000001001	0000000000000000	-	-	-	-	-	-	-	-	-	-	Terminate	
"student4mode1"	"Seema_Shokoufeh_Track2"	"Nov 28, 2016 04:54:29 AM"	Unknown	54.98443	10/28/0116 04:55.28	00003299	12.509	Inter614t1-0	-0.434	1	2	0.000	11.111	-2.6	0.183	0.000	D	F	1730.9	358.796	0.204	0.013	1503.159	683.164	0.024	-	-0.085	0.561	-	-	-	-	-	-	-	PAVEMENT_GENERAL	Urban	F	1011101000001001	0000000000000000	-	-	-	-	-	-	-	-	-	-	Terminate	
"student4mode1"	"Seema_Shokoufeh_Track2"	"Nov 28, 2016 04:54:29 AM"	Unknown	55.98445	10/28/0116 04:55.29	00003359	13.048	Inter614t1-0	-0.784	1	2	0.000	11.111	-4.8	0.182	0.000	D	F	1749.6	358.022	0.202	0.027	1502.809	695.942	0.024	-	-0.203	0.512	-	-	-	-	-	-	-	PAVEMENT_GENERAL	Urban	F	1011101000001001	0000000000000000	-	-	-	-	-	-	-	-	-	-	Terminate	
"student4mode1"	"Seema_Shokoufeh_Track2"	"Nov 28, 2016 04:54:29 AM"	Unknown	56.98447	10/28/0116 04:55.30	00003419	13.521	Inter614t1-0	-1.351	1	2	0.000	11.111	-4.9	0.175	0.000	D	F	1757.5	357.088	0.200	0.030	1502.242	709.220	0.024	-	-0.227	0.437	-	-	-	-	-	-	-	PAVEMENT_GENERAL	Urban	F	1011101000001001	0000000000000000	-	-	-	-	-	-	-	-	-	-	Terminate	
"student4mode1"	"Seema_Shokoufeh_Track2"	"Nov 28, 2016 04:54:29 AM"	Unknown	57.98449	10/28/0116 04:55.31	00003479	13.940	-	-	CL	0	-	-	10.0	0.180	0.000	D	F	1758.7	357.132	0.196	-0.049	1501.517	722.939	0.025	-	0.338	0.313	-	-	-	-	-	-	-	PAVEMENT_GENERAL	Urban	F	1011101000001001	0000000000000000	-	-	-	-	-	-	-	-	-	-	Terminate	
"student4mode1"	"Seema_Shokoufeh_Track2"	"Nov 28, 2016 04:54:29 AM"	Unknown	58.98451	10/28/0116 04:55.32	00003539	14.350	-	-	CL	0	-	-	14.4	0.175	0.000	D	F	1790.0	359.609	0.199	-0.096	1501.084	737.074	0.025	-	0.730	0.411	-	-	-	-	-	-	-	PAVEMENT_GENERAL	Urban	F	1011101000001001	0000000000000000	-	-	-	-	-	-	-	-	-	-	Terminate	
"student4mode1"	"Seema_Shokoufeh_Track2"	"Nov 28, 2016 04:54:29 AM"	Unknown	59.98453	10/28/0116 04:55.33	00003599	14.846	-	-	CL	0	-	-	8.3	0.229	0.000	D	F	1946.6	1.900	0.201	-0.060	1501.299	751.642	0.023	-	0.433	0.661	-	-	-	-	-	-	-	PAVEMENT_GENERAL	Urban	F	1011101000001001	0000000000000000	-	-	-	-	-	-	-	-	-	-	Terminate	
"student4mode1"	"Seema_Shokoufeh_Track2"	"Nov 28, 2016 04:54:29 AM"	Unknown	60.98455	10/28/0116 04:55.34	00003659	15.438	Inter614t1-0	-1.658	1	2	0.000	11.111	-6.8	0.196	0.000	D	F	1847.4	2.546	0.204	0.034	1501.936	766.785	0.024	-	-0.217	0.460	-	-	-	-	-	-	-	PAVEMENT_GENERAL	Urban	F	1011101000001001	0000000000000000	-	-	-	-	-	-	-	-	-	-	Terminate	
"student4mode1"	"Seema_Shokoufeh_Track2"	"Nov 28, 2016 04:54:29 AM"	Unknown	61.98457	10/28/0116 04:55.35	00003719	16.118	Inter614t1-0	-1.121	1	2	0.000	11.111	-2.1	0.323	0.000	D	F	2100.6	1.438	0.202	0.012	1502.473	782.521	0.023	-	-0.166	0.801	-	-	-	-	-	-	-	PAVEMENT_GENERAL	Urban	F	1011101000001001	0000000000000000	-	-	-	-	-	-	-	-	-	-	Terminate	
"student4mode1"	"Seema_Shokoufeh_Track2"	"Nov 28, 2016 04:54:29 AM"	Unknown	62.98459	10/28/0116 04:55.36	00003779	16.899	Inter614t1-0	-0.738	1	2	0.000	11.111	-1.6	0.317	0.000	D	F	2135.5	1.094	0.200	0.023	1502.855	799.030	0.023	-	-0.146	0.752	-	-	-	-	-	-	-	PAVEMENT_GENERAL	Urban	F	1011101000001001	0000000000000000	-	-	-	-	-	-	-	-	-	-	Terminate	
"student4mode1"	"Seema_Shokoufeh_Track2"	"Nov 28, 2016 04:54:29 AM"	Unknown	63.98461	10/28/0116 04:55.37	00003839	17.629	Inter612t1-0	-0.476	1	2	0.000	11.111	-3.1	0.340	0.000	D	F	2196.0	0.502	0.199	0.028	1503.117	816.289	0.023	-	-0.209	0.766	-	-	-	-	-	-	-	PAVEMENT_GENERAL	Urban	F	1011101000001001	0000000000000000	-	-	-	-	-	-	-	-	-	-	Terminate	
"student4mode1"	"Seema_Shokoufeh_Track2"	"Nov 28, 2016 04:54:29 AM"	Unknown	64.98463	10/28/0116 04:55.38	00003899	18.389	Inter612t1-0	-0.370	1	2	0.000	11.111	-0.8	0.362	0.000	D	F	2246.7	0.177	0.197	0.005	1503.223	834.300	0.023	-	-0.059	0.746	-	-	-	-	-	-	-	PAVEMENT_GENERAL	Urban	F	1011101000001001	0000000000000000	-	-	-	-	-	-	-	-	-	-	Terminate	
"student4mode1"	"Seema_Shokoufeh_Track2"	"Nov 28, 2016 04:54:29 AM"	Unknown	65.98465	10/28/0116 04:55.39	00003959	19.054	Inter612t1-0	-0.315	1	2	0.000	11.111	-0.1	0.305	0.000	D	F	2244.0	0.184	0.196	-0.003	1503.278	853.040	0.024	-	0.010	0.602	-	-	-	-	-	-	-	PAVEMENT_GENERAL	Urban	F	1011101000001001	0000000000000000	-	-	-	-	-	-	-	-	-	-	Terminate	
"student4mode1"	"Seema_Shokoufeh_Track2"	"Nov 28, 2016 04:54:29 AM"	Unknown	66.98467	10/28/0116 04:55.40	00004019	19.647	Inter612t1-0	-0.266	1	2	0.000	11.111	0.1	0.291	0.000	D	F	2279.2	0.114	0.192	-0.002	1503.327	872.396	0.024	-	0.000	0.533	-	-	-	-	-	-	-	PAVEMENT_GENERAL	Urban	F	1011101000001001	0000000000000000	-	-	-	-	-	-	-	-	-	-	Terminate	
"student4mode1"	"Seema_Shokoufeh_Track2"	"Nov 28, 2016 04:54:29 AM"	Unknown	67.98470	10/28/0116 04:55.41	00004079	20.229	Inter612t1-0	-0.235	1	2	0.000	11.111	-1.4	0.312	0.000	D	F	2342.2	0.000	0.193	0.010	1503.358	892.330	0.024	-	-0.082	0.589	-	-	-	-	-	-	-	PAVEMENT_GENERAL	Urban	F	1011101000001001	0000000000000000	-	-	-	-	-	-	-	-	-	-	Terminate	
"student4mode1"	"Seema_Shokoufeh_Track2"	"Nov 28, 2016 04:54:29 AM"	Unknown	68.98471	10/28/0116 04:55.42	00004139	20.359	Inter612t1-0	-0.316	1	2	0.000	11.111	-3.3	0.000	0.000	D	F	1498.4	359.332	0.173	0.043	1503.277	912.747	0.029	-	-0.312	-0.592	-	-	-	-	-	-	-	PAVEMENT_GENERAL	Urban	F	1011101000001001	0000000000000000	-	-	-	-	-	-	-	-	-	-	Terminate	
"student4mode1"	"Seema_Shokoufeh_Track2"	"Nov 28, 2016 04:54:29 AM"	Unknown	69.98473	10/28/0116 04:55.43	00004199	19.757	Inter612t1-0	-0.633	1	2	0.000	11.111	3.6	0.000	0.000	D	F	1349.1	358.992	0.181	-0.021	1502.960	932.803	0.029	-	0.151	-0.598	-	-	-	-	-	-	-	PAVEMENT_GENERAL	Urban	F	1011101000001001	0000000000000000	-	-	-	-	-	-	-	-	-	-	Terminate	
"student4mode1"	"Seema_Shokoufeh_Track2"	"Nov 28, 2016 04:54:29 AM"	Unknown	70.98476	10/28/0116 04:55.44	00004259	19.178	Inter612t1-0	-0.820	1	2	0.000	11.111	0.9	0.030	0.000	D	F	1343.1	0.027	0.185	-0.027	1502.774	952.262	0.029	-	0.216	-0.479	-	-	-	-	-	-	-	PAVEMENT_GENERAL	Urban	F	1011101000001001	0000000000000000	-	-	-	-	-	-	-	-	-	-	Terminate	
"student4mode1"	"Seema_Shokoufeh_Track2"	"Nov 28, 2016 04:54:29 AM"	Unknown	71.98477	10/28/0116 04:55.45	00004319	18.711	Inter612t1-0	-0.810	1	2	0.000	11.111	-0.7	0.026	0.000	D	F	1316.6	0.002	0.185	0.007	1502.783	971.208	0.029	-	-0.044	-0.461	-	-	-	-	-	-	-	PAVEMENT_GENERAL	Urban	F	1011101000001001	0000000000000000	-	-	-	-	-	-	-	-	-	-	Terminate	
"student4mode1"	"Seema_Shokoufeh_Track2"	"Nov 28, 2016 04:54:29 AM"	Unknown	72.98479	10/28/0116 04:55.46	00004379	18.297	Inter612t1-0	-0.811	1	2	0.000	11.111	0.5	0.049	0.000	D	F	1368.1	0.082	0.187	-0.008	1502.782	989.705	0.028	-	0.061	-0.369	-	-	-	-	-	-	-	PAVEMENT_GENERAL	Urban	F	1011101000001001	0000000000000000	-	-	-	-	-	-	-	-	-	-	Terminate	
"student4mode1"	"Seema_Shokoufeh_Track2"	"Nov 28, 2016 04:54:29 AM"	Unknown	73.98481	10/28/0116 04:55.47	00004439	17.978	Inter613t1-0	-0.794	1	2	0.000	11.111	-0.2	0.081	0.000	D	F	1436.5	0.000	0.188	0.008	1502.800	1007.829	0.028	-	-0.056	-0.228	-	-	-	-	-	-	-	PAVEMENT_GENERAL	Urban	F	1011101000001001	0000000000000000	-	-	-	-	-	-	-	-	-	-	Terminate	
"student4mode1"	"Seema_Shokoufeh_Track2"	"Nov 28, 2016 04:54:29 AM"	Unknown	74.98483	10/28/0116 04:55.48	00004499	17.794	Inter613t1-0	-0.813	1	2	0.000	11.111	-0.4	0.093	0.000	D	F	1475.7	359.907	0.189	0.003	1502.781	1025.708	0.027	-	-0.022	-0.158	-	-	-	-	-	-	-	PAVEMENT_GENERAL	Urban	F	1011101000001001	0000000000000000	-	-	-	-	-	-	-	-	-	-	Terminate	
"student4mode1"	"Seema_Shokoufeh_Track2"	"Nov 28, 2016 04:54:29 AM"	Unknown	75.98486	10/28/0116 04:55.49	00004559	17.623	Inter613t1-0	-0.859	1	2	0.000	11.111	-0.9	0.090	0.000	D	F	1453.5	359.759	0.189	0.007	1502.734	1043.418	0.027	-	-0.053	-0.175	-	-	-	-	-	-	-	PAVEMENT_GENERAL	Urban	F	1011101000001001	0000000000000000	-	-	-	-	-	-	-	-	-	-	Terminate	
"student4mode1"	"Seema_Shokoufeh_Track2"	"Nov 28, 2016 04:54:29 AM"	Unknown	76.98487	10/28/0116 04:55.50	00004619	17.455	Inter613t1-0	-0.952	1	2	0.000	11.111	2.1	0.095	0.000	D	F	1456.4	359.663	0.190	-0.009	1502.641	1060.956	0.027	-	0.057	-0.157	-	-	-	-	-	-	-	PAVEMENT_GENERAL	Urban	F	1011101000001001	0000000000000000	-	-	-	-	-	-	-	-	-	-	Terminate	
"student4mode1"	"Seema_Shokoufeh_Track2"	"Nov 28, 2016 04:54:29 AM"	Unknown	77.98489	10/28/0116 04:55.51	00004679	17.242	Inter613t1-0	-1.007	1	2	0.000	11.111	-1.7	0.069	0.000	D	F	1368.3	359.873	0.188	0.010	1502.586	1078.313	0.028	-	-0.049	-0.254	-	-	-	-	-	-	-	PAVEMENT_GENERAL	Urban	F	1011101000001001	0000000000000000	-	-	-	-	-	-	-	-	-	-	Terminate	
"student4mode1"	"Seema_Shokoufeh_Track2"	"Nov 28, 2016 04:54:29 AM"	Unknown	78.98492	10/28/0116 04:55.52	00004739	16.993	Inter613t1-0	-1.074	1	2	0.000	11.111	-0.9	0.072	0.000	D	F	1360.4	359.687	0.190	0.007	1502.519	1095.429	0.028	-	-0.052	-0.242	-	-	-	-	-	-	-	PAVEMENT_GENERAL	Urban	F	1011101000001001	0000000000000000	-	-	-	-	-	-	-	-	-	-	Terminate	
"student4mode1"	"Seema_Shokoufeh_Track2"	"Nov 28, 2016 04:54:29 AM"	Unknown	79.98493	10/28/0116 04:55.53	00004799	16.751	Inter613t1-0	-1.143	1	2	0.000	11.111	3.1	0.071	0.000	D	F	1348.5	0.071	0.190	-0.028	1502.451	1112.301	0.028	-	0.208	-0.238	-	-	-	-	-	-	-	PAVEMENT_GENERAL	Urban	F	1011101000001001	0000000000000000	-	-	-	-	-	-	-	-	-	-	Terminate	
"student4mode1"	"Seema_Shokoufeh_Track2"	"Nov 28, 2016 04:54:29 AM"	Unknown	80.98495	10/28/0116 04:55.54	00004859	16.511	Inter613t1-0	-1.083	1	2	0.000	11.111	0.7	0.069	0.000	D	F	1332.1	0.255	0.191	-0.001	1502.510	1128.931	0.028	-	0.014	-0.232	-	-	-	-	-	-	-	PAVEMENT_GENERAL	Urban	F	1011101000001001	0000000000000000	-	-	-	-	-	-	-	-	-	-	Terminate	
"student4mode1"	"Seema_Shokoufeh_Track2"	"Nov 28, 2016 04:54:29 AM"	Unknown	81.98497	10/28/0116 04:55.55	00004919	16.270	Inter613t1-0	-0.986	1	2	0.000	11.111	0.3	0.065	0.000	D	F	1307.4	0.463	0.191	-0.003	1502.607	1145.323	0.028	-	0.042	-0.249	-	-	-	-	-	-	-	PAVEMENT_GENERAL	Urban	F	1011101000001001	0000000000000000	-	-	-	-	-	-	-	-	-	-	Terminate	
"student4mode1"	"Seema_Shokoufeh_Track2"	"Nov 28, 2016 04:54:29 AM"	Unknown	82.98499	10/28/0116 04:55.56	00004979	16.043	Inter613t1-0	-0.849	1	2	0.000	11.111	0.1	0.072	0.000	D	F	1320.7	0.487	0.191	0.000	1502.744	1161.478	0.028	-	-0.005	-0.219	-	-	-	-	-	-	-	PAVEMENT_GENERAL	Urban	F	1011101000001001	0000000000000000	-	-	-	-	-	-	-	-	-	-	Terminate	
"student4mode1"	"Seema_Shokoufeh_Track2"	"Nov 28, 2016 04:54:29 AM"	Unknown	83.98502	10/28/0116 04:55.57	00005039	15.826	Inter613t1-0	-0.716	1	2	0.000	11.111	0.1	0.071	0.000	D	F	1315.5	0.461	0.192	0.000	1502.877	1177.411	0.028	-	-0.003	-0.215	-	-	-	-	-	-	-	PAVEMENT_GENERAL	Urban	F	1011101000001001	0000000000000000	-	-	-	-	-	-	-	-	-	-	Terminate	
"student4mode1"	"Seema_Shokoufeh_Track2"	"Nov 28, 2016 04:54:29 AM"	Unknown	84.98503	10/28/0116 04:55.58	00005099	15.658	Inter613t1-0	-0.579	1	2	0.000	11.111	-0.4	0.085	0.000	D	F	1363.2	0.580	0.192	-0.002	1503.014	1193.147	0.027	-	0.019	-0.154	-	-	-	-	-	-	-	PAVEMENT_GENERAL	Urban	F	1011101000001001	0000000000000000	-	-	-	-	-	-	-	-	-	-	Terminate	
"student4mode1"	"Seema_Shokoufeh_Track2"	"Nov 28, 2016 04:54:29 AM"	Unknown	85.98505	10/28/0116 04:55.59	00005159	15.516	Inter746t1-0	-0.435	1	2	0.000	11.111	-0.9	0.078	0.000	D	F	1346.0	0.454	0.193	0.008	1503.158	1208.736	0.027	-	-0.048	-0.153	-	-	-	-	-	-	-	PAVEMENT_GENERAL	Urban	F	1011101000001001	0000000000000000	-	-	-	-	-	-	-	-	-	-	Terminate	
"student4mode1"	"Seema_Shokoufeh_Track2"	"Nov 28, 2016 04:54:29 AM"	Unknown	86.98507	10/28/0116 04:56.00	00005219	15.348	Inter746t1-0	-0.315	1	2	0.000	11.111	1.9	0.072	0.000	D	F	1313.9	0.579	0.193	-0.015	1503.279	1224.172	0.027	-	0.104	-0.184	-	-	-	-	-	-	-	PAVEMENT_GENERAL	Urban	F	1011101000001001	0000000000000000	-	-	-	-	-	-	-	-	-	-	Terminate	
"student4mode1"	"Seema_Shokoufeh_Track2"	"Nov 28, 2016 04:54:29 AM"	Unknown	87.98509	10/28/0116 04:56.01	00005279	15.158	Inter746t1-0	-0.129	1	2	0.000	11.111	0.0	0.067	0.000	D	F	1284.7	0.809	0.193	-0.004	1503.464	1239.427	0.027	-	0.024	-0.202	-	-	-	-	-	-	-	PAVEMENT_GENERAL	Urban	F	1011101000001001	0000000000000000	-	-	-	-	-	-	-	-	-	-	Terminate	
"student4mode1"	"Seema_Shokoufeh_Track2"	"Nov 28, 2016 04:54:29 AM"	Unknown	88.98512	10/28/0116 04:56.02	00005339	14.959	Inter746t1-0	0.080	1	2	0.000	11.111	-1.2	0.067	0.000	D	F	1280.7	0.766	0.193	0.006	1503.673	1254.483	0.027	-	-0.041	-0.196	-	-	-	-	-	-	-	PAVEMENT_GENERAL	Urban	F	1011101000001001	0000000000000000	-	-	-	-	-	-	-	-	-	-	Terminate	
"student4mode1"	"Seema_Shokoufeh_Track2"	"Nov 28, 2016 04:54:29 AM"	Unknown	89.98513	10/28/0116 04:56.03	00005399	14.769	Inter746t1-0	0.252	1	2	0.000	11.111	-1.0	0.067	0.000	D	F	1272.8	0.549	0.193	0.007	1503.845	1269.345	0.027	-	-0.052	-0.187	-	-	-	-	-	-	-	PAVEMENT_GENERAL	Urban	F	1011101000001001	0000000000000000	-	-	-	-	-	-	-	-	-	-	Terminate	
"student4mode1"	"Seema_Shokoufeh_Track2"	"Nov 28, 2016 04:54:29 AM"	Unknown	90.98515	10/28/0116 04:56.04	00005459	14.576	Inter746t1-0	0.368	1	2	0.000	11.111	-0.8	0.026	0.000	D	F	1113.1	0.354	0.192	0.005	1503.961	1284.018	0.027	-	-0.042	-0.252	-	-	-	-	-	-	-	PAVEMENT_GENERAL	Urban	F	1011101000001001	0000000000000000	-	-	-	-	-	-	-	-	-	-	Terminate	
"student4mode1"	"Seema_Shokoufeh_Track2"	"Nov 28, 2016 04:54:29 AM"	Unknown	91.98518	10/28/0116 04:56.05	00005519	14.068	Inter746t1-0	0.435	1	2	0.000	11.111	-0.9	0.000	0.000	D	F	959.5	0.169	0.190	0.007	1504.028	1298.347	0.029	-	-0.050	-0.520	-	-	-	-	-	-	-	PAVEMENT_GENERAL	Urban	F	1011101000001001	0000000000000000	-	-	-	-	-	-	-	-	-	-	Terminate	
"student4mode1"	"Seema_Shokoufeh_Track2"	"Nov 28, 2016 04:54:29 AM"	Unknown	92.98519	10/28/0116 04:56.06	00005579	13.551	Inter746t1-0	0.445	1	2	0.000	11.111	-1.5	0.000	0.000	D	F	924.2	359.881	0.191	0.011	1504.039	1312.155	0.029	-	-0.082	-0.514	Person36	100.0	-8.227	-	-	-	-	PAVEMENT_GENERAL	Urban	F	1011101000001001	0000000000000000	-	-	-	-	-	-	-	-	-	-	Terminate	
"student4mode1"	"Seema_Shokoufeh_Track2"	"Nov 28, 2016 04:54:29 AM"	Unknown	93.98521	10/28/0116 04:56.07	00005639	13.217	Inter746t1-0	0.382	1	2	0.000	11.111	-1.5	0.072	0.000	D	F	1243.5	359.584	0.197	0.008	1503.975	1325.505	0.027	-	-0.064	-0.148	-	-	-	-	-	-	-	PAVEMENT_GENERAL	Urban	F	1011101000001001	0000000000000000	-	-	-	-	-	-	-	-	-	-	Terminate	
"student4mode1"	"Seema_Shokoufeh_Track2"	"Nov 28, 2016 04:54:29 AM"	Unknown	94.98523	10/28/0116 04:56.08	00005699	13.120	Inter746t1-0	0.243	1	2	0.000	11.111	-1.7	0.081	0.000	D	F	1410.9	359.173	0.196	0.013	1503.837	1338.668	0.027	-	-0.094	-0.075	-	-	-	-	-	-	-	PAVEMENT_GENERAL	Urban	F	1011101000001001	0000000000000000	-	-	-	-	-	-	-	-	-	-	Terminate	
"student4mode1"	"Seema_Shokoufeh_Track2"	"Nov 28, 2016 04:54:29 AM"	Unknown	95.98525	10/28/0116 04:56.09	00005759	13.055	Inter746t1-0	0.040	1	2	0.000	11.111	1.1	0.079	0.000	D	F	1470.4	359.110	0.197	-0.005	1503.633	1351.755	0.027	L	0.032	-0.070	-	-	-	-	-	-	-	PAVEMENT_GENERAL	Urban	F	1011101000101001	0000000000000000	-	-	-	-	-	-	-	-	-	-	Terminate	
"student4mode1"	"Seema_Shokoufeh_Track2"	"Nov 28, 2016 04:54:29 AM"	Unknown	96.98528	10/28/0116 04:56.10	00005819	12.848	Inter746t1-0	-0.141	1	2	0.000	11.111	2.0	0.049	0.000	D	F	1389.2	359.344	0.198	-0.010	1503.452	1364.735	0.028	L	0.084	-0.232	-	-	-	-	-	-	-	PAVEMENT_GENERAL	Urban	F	1011101000101001	0000000000000000	-	-	-	-	-	-	-	-	-	-	Terminate	
"student4mode1"	"Seema_Shokoufeh_Track2"	"Nov 28, 2016 04:54:29 AM"	Unknown	97.98529	10/28/0116 04:56.11	00005879	12.650	Inter746t1-0	-0.246	1	2	0.000	11.111	0.6	0.053	0.000	D	F	1375.6	359.694	0.196	-0.005	1503.348	1377.478	0.027	L	0.040	-0.185	-	-	-	-	-	-	-	PAVEMENT_GENERAL	Urban	F	1011101000101001	0000000000000000	-	-	-	-	-	-	-	-	-	-	Terminate	
"student4mode1"	"Seema_Shokoufeh_Track2"	"Nov 28, 2016 04:54:29 AM"	Unknown	98.98531	10/28/0116 04:56.12	00005939	12.215	Inter746t1-0	-0.311	1	2	0.000	11.111	-2.0	0.000	0.000	D	F	1200.1	359.617	0.192	0.012	1503.282	1389.945	0.029	L	-0.081	-0.531	-	-	-	-	-	-	-	PAVEMENT_GENERAL	Urban	F	1011101000101001	0000000000000000	-	-	-	-	-	-	-	-	-	-	Terminate	
"student4mode1"	"Seema_Shokoufeh_Track2"	"Nov 28, 2016 04:54:29 AM"	Unknown	99.98534	10/28/0116 04:56.13	00005999	11.688	Inter749t9-0	-0.452	1	2	0.000	11.111	-1.7	0.000	0.000	D	F	1148.3	359.041	0.193	0.005	1503.141	1401.895	0.029	L	-0.081	-0.524	-	-	-	-	-	-	-	PAVEMENT_GENERAL	Urban	F	1011101000101001	0000000000000000	-	-	-	-	-	-	-	-	-	-	Terminate	
"student4mode1"	"Seema_Shokoufeh_Track2"	"Nov 28, 2016 04:54:29 AM"	Unknown	100.98535	10/28/0116 04:56.14	00006059	11.168	Inter749t9-0	-0.727	1	2	0.000	11.111	-10.6	0.000	0.000	D	F	1097.2	358.012	0.193	0.053	1502.866	1413.319	0.029	L	-0.387	-0.518	-	-	-	-	-	-	-	PAVEMENT_GENERAL	Urban	F	1011101000101001	0000000000000000	-	-	-	-	-	-	-	-	-	-	Terminate	
"student4mode1"	"Seema_Shokoufeh_Track2"	"Nov 28, 2016 04:54:29 AM"	Unknown	101.98537	10/28/0116 04:56.15	00006119	10.654	Inter749t31-0	-0.929	1	1	355.735	11.111	-3.3	0.000	0.000	D	F	1046.9	355.995	0.194	0.016	1502.262	1424.212	0.029	L	-0.157	-0.509	-	-	-	-	-	-	-	PAVEMENT_GENERAL	Urban	F	1011101000101001	0000000000000000	-	-	-	-	-	-	-	-	-	-	Terminate	
"student4mode1"	"Seema_Shokoufeh_Track2"	"Nov 28, 2016 04:54:29 AM"	Unknown	102.98539	10/28/0116 04:56.16	00006179	10.149	Inter749t31-0	-1.081	1	1	354.406	11.111	5.2	0.000	0.000	D	F	997.3	355.859	0.195	-0.022	1501.504	1434.585	0.029	L	0.150	-0.502	-	-	-	-	-	-	-	PAVEMENT_GENERAL	Urban	F	1011101000101001	0000000000000000	-	-	-	-	-	-	-	-	-	-	Terminate	
"student4mode1"	"Seema_Shokoufeh_Track2"	"Nov 28, 2016 04:54:29 AM"	Unknown	103.98541	10/28/0116 04:56.17	00006239	9.772	Inter749t31-0	-0.666	1	1	355.956	11.111	12.8	0.023	0.000	D	F	1046.5	357.472	0.196	-0.051	1500.923	1444.507	0.028	L	0.388	-0.306	-	-	-	-	-	-	-	PAVEMENT_GENERAL	Urban	F	1011101000101001	0000000000000000	-	-	-	-	-	-	-	-	-	-	Terminate	
"student4mode1"	"Seema_Shokoufeh_Track2"	"Nov 28, 2016 04:54:29 AM"	Unknown	104.98544	10/28/0116 04:56.18	00006299	9.320	Inter749t31-0	-0.157	1	1	356.903	11.111	0.9	0.000	0.000	D	F	915.8	358.507	0.196	-0.006	1500.634	1454.063	0.029	L	0.030	-0.491	-	-	-	-	-	-	-	PAVEMENT_GENERAL	Urban	F	1011101000101001	0000000000000000	-	-	-	-	-	-	-	-	-	-	Terminate	
"student4mode1"	"Seema_Shokoufeh_Track2"	"Nov 28, 2016 04:54:29 AM"	Unknown	105.98545	10/28/0116 04:56.19	00006359	8.261	Inter749t31-0	0.110	1	1	356.903	11.111	1.1	0.000	0.173	D	F	792.3	358.684	0.147	-0.004	1500.416	1463.045	0.032	L	0.026	-2.536	-	-	-	-	-	-	-	PAVEMENT_GENERAL	Urban	F	1011101000101001	0000000000000000	-	-	-	-	-	-	-	-	-	-	Terminate	
"student4mode1"	"Seema_Shokoufeh_Track2"	"Nov 28, 2016 04:54:29 AM"	Unknown	106.98547	10/28/0116 04:56.20	00006419	5.367	Inter749t11-0	0.206	LT1	2	0.000	11.111	0.6	0.000	0.215	D	F	512.1	358.821	0.145	-0.002	1500.269	1469.893	0.034	L	0.006	-3.183	-	-	-	-	-	-	-	PAVEMENT_GENERAL	Urban	F	1011101000101001	0000000000000000	-	-	-	-	-	-	-	-	-	-	Terminate	
"student4mode1"	"Seema_Shokoufeh_Track2"	"Nov 28, 2016 04:54:29 AM"	Unknown	107.98550	10/28/0116 04:56.21	00006479	2.600	Inter749t11-0	0.127	LT1	2	0.000	11.111	0.9	0.000	0.137	D	F	477.5	358.849	0.181	-0.001	1500.190	1473.775	0.032	L	0.002	-2.069	-	-	-	-	-	-	-	PAVEMENT_GENERAL	Urban	F	1011101000101001	0000000000000000	-	-	-	-	-	-	-	-	-	-	Terminate	
"student4mode1"	"Seema_Shokoufeh_Track2"	"Nov 28, 2016 04:54:29 AM"	Unknown	108.98551	10/28/0116 04:56.22	00006539	1.706	Inter749t11-0	0.087	LT1	2	0.000	11.111	0.5	0.000	0.000	D	F	477.5	358.877	0.209	-0.000	1500.150	1475.831	0.029	L	0.000	-0.393	-	-	-	-	-	-	-	PAVEMENT_GENERAL	Urban	F	1011101000101001	0000000000000000	-	-	-	-	-	-	-	-	-	-	Terminate	
"student4mode1"	"Seema_Shokoufeh_Track2"	"Nov 28, 2016 04:54:29 AM"	Unknown	109.98553	10/28/0116 04:56.23	00006599	1.388	Inter749t11-0	0.058	LT1	2	0.000	11.111	0.3	0.000	0.000	D	F	477.5	358.890	0.202	0.000	1500.120	1477.366	0.028	L	0.000	-0.259	-	-	-	-	-	-	-	PAVEMENT_GENERAL	Urban	F	1011101000101001	0000000000000000	-	-	-	-	-	-	-	-	-	-	Terminate	
"student4mode1"	"Seema_Shokoufeh_Track2"	"Nov 28, 2016 04:54:29 AM"	Unknown	110.98555	10/28/0116 04:56.24	00006659	1.172	Inter749t11-0	0.033	LT1	2	0.000	11.111	0.1	0.000	0.000	D	F	477.5	358.896	0.203	0.000	1500.096	1478.639	0.027	L	-0.000	-0.181	-	-	-	-	-	-	-	PAVEMENT_GENERAL	Urban	F	1011101000101001	0000000000000000	-	-	-	-	-	-	-	-	-	-	Terminate	
"student4mode1"	"Seema_Shokoufeh_Track2"	"Nov 28, 2016 04:54:29 AM"	Unknown	111.98557	10/28/0116 04:56.25	00006719	1.662	Inter749t11-0	0.010	LT1	2	0.000	11.111	-6.0	0.173	0.000	D	F	1431.6	358.858	0.327	0.001	1500.072	1479.789	0.022	L	-0.027	3.699	-	-	-	-	-	-	-	PAVEMENT_GENERAL	Urban	F	1011101000101001	0000000000000000	-	-	-	-	-	-	-	-	-	-	Terminate	
"student4mode1"	"Seema_Shokoufeh_Track2"	"Nov 28, 2016 04:54:29 AM"	Unknown	112.98560	10/28/0116 04:56.26	00006779	4.403	Inter749t65-0	-0.040	1	1	354.493	11.111	-15.0	0.164	0.000	D	F	1677.9	358.121	0.217	0.017	1499.973	1482.948	0.015	L	-0.125	2.103	-	-	-	-	-	-	-	PAVEMENT_GENERAL	Urban	F	1011101000101001	0000000000000000	-	-	-	-	-	-	-	-	-	-	Terminate	
"student4mode1"	"Seema_Shokoufeh_Track2"	"Nov 28, 2016 04:54:29 AM"	Unknown	113.98561	10/28/0116 04:56.27	00006839	6.189	Inter749t65-0	0.765	1	1	340.246	11.111	-22.4	0.175	0.000	D	F	1829.4	356.001	0.224	0.039	1499.657	1488.268	0.019	L	-0.295	1.783	-	-	-	-	-	-	-	PAVEMENT_GENERAL	Urban	F	1011101000101001	0000000000000000	-	-	-	-	-	-	-	-	-	-	Terminate	
"student4mode1"	"Seema_Shokoufeh_Track2"	"Nov 28, 2016 04:54:29 AM"	Unknown	114.98563	10/28/0116 04:56.28	00006899	7.550	-Inter749t59-0	1.276	-1	1	89.733	11.111	-33.4	0.180	0.000	D	F	1692.4	352.665	0.212	0.083	1498.916	1495.135	0.021	L	-0.623	1.197	-	-	-	Ambient303	8.663	65.402	-	PAVEMENT_GENERAL	Urban	F	1011101000101001	0000000000000000	-	-	-	-	-	-	-	-	-	-	Terminate	
"student4mode1"	"Seema_Shokoufeh_Track2"	"Nov 28, 2016 04:54:29 AM"	Unknown	115.98566	10/28/0116 04:56.29	00006959	8.009	Inter749t75-0	-0.699	1	1	269.734	11.111	-171.8	0.051	0.000	D	F	1114.5	342.327	0.195	0.526	1497.208	1502.904	0.029	L	-3.650	-0.439	-	-	-	-	-	-	-	PAVEMENT_GENERAL	Urban	F	1011101000101001	0000000000000000	-	-	-	-	-	-	-	-	-	-	Terminate	
"student4mode1"	"Seema_Shokoufeh_Track2"	"Nov 28, 2016 04:54:29 AM"	Unknown	116.98567	10/28/0116 04:56.30	00007019	7.609	-Inter749t85-0	0.230	-1	1	179.883	11.111	-247.5	0.000	0.000	D	F	753.4	309.832	0.097	0.631	1492.577	1509.121	0.035	L	-4.816	-1.064	-	-	-	Ambient318	7.667	58.343	-	PAVEMENT_GENERAL	Urban	F	1011101000101001	0000000000000000	-	-	-	-	-	-	-	-	-	-	Terminate	
"student4mode1"	"Seema_Shokoufeh_Track2"	"Nov 28, 2016 04:54:29 AM"	Unknown	117.98569	10/28/0116 04:56.31	00007079	7.108	-	-	INT	0	-	-	-208.3	0.157	0.000	D	F	1456.4	275.940	0.163	0.469	1485.746	1511.339	0.029	L	-3.631	0.343	-	-	-	-	-	-	-	PAVEMENT_GENERAL	Urban	F	1011101000101001	0000000000000000	-	-	-	-	-	-	-	-	-	-	Terminate	
"student4mode1"	"Seema_Shokoufeh_Track2"	"Nov 28, 2016 04:54:29 AM"	Unknown	118.98571	10/28/0116 04:56.32	00007139	7.891	-	-	SH	2	-	-	-9.4	0.212	0.000	D	F	1793.1	255.814	0.255	-6.346	1478.496	1510.103	0.094	-	-0.194	1.571	-	-	-	-	-	-	-	CURB	Urban	F	1011101000001001	0000000000000000	-	-	-	-	-	-	-	-	-	-	Terminate	
"student4mode1"	"Seema_Shokoufeh_Track2"	"Nov 28, 2016 04:54:29 AM"	Unknown	119.98573	10/28/0116 04:56.33	00007199	9.235	Inter749t3-4	1.111	2	2	270.000	11.111	53.8	0.250	0.000	D	F	1937.0	260.583	0.254	-0.396	1470.160	1508.242	0.019	-	1.504	1.396	-	-	-	Ambient318	7.471	68.994	-	PAVEMENT_GENERAL	Urban	F	1011101000001001	0000000000000000	-	-	-	-	-	-	-	-	-	-	Terminate	
"student4mode1"	"Seema_Shokoufeh_Track2"	"Nov 28, 2016 04:54:29 AM"	Unknown	120.98576	10/28/0116 04:56.34	00007259	10.584	Inter749t17-0	0.228	1	1	270.083	11.111	27.4	0.266	0.000	D	F	2055.0	267.506	0.209	-0.123	1460.287	1507.366	0.020	-	0.922	1.288	-	-	-	Ambient318	6.700	70.913	-	PAVEMENT_GENERAL	Urban	F	1011101000001001	0000000000000000	-	-	-	-	-	-	-	-	-	-	Terminate	
"student4mode1"	"Seema_Shokoufeh_Track2"	"Nov 28, 2016 04:54:29 AM"	Unknown	121.98577	10/28/0116 04:56.35	00007319	11.818	Inter749t17-0	0.016	1	1	270.109	11.111	-0.2	0.272	0.000	D	F	2164.1	269.480	0.209	0.018	1449.079	1507.168	0.021	-	0.020	1.167	-	-	-	Ambient318	6.050	71.497	2426.984	PAVEMENT_GENERAL	Urban	F	1011101000001001	0000000000000000	-	-	-	-	-	-	-	-	-	-	Terminate	
"student4mode1"	"Seema_Shokoufeh_Track2"	"Nov 28, 2016 04:54:29 AM"	Unknown	122.98579	10/28/0116 04:56.36	00007379	12.967	Inter749t17-0	-0.128	1	1	270.070	11.111	2.1	0.282	0.000	D	F	2313.3	269.447	0.209	-0.007	1436.685	1507.048	0.021	-	0.059	1.139	-	-	-	Ambient318	5.467	70.895	60.146	PAVEMENT_GENERAL	Urban	F	1011101000001001	0000000000000000	-	-	-	-	-	-	-	-	-	-	Terminate	
"student4mode1"	"Seema_Shokoufeh_Track2"	"Nov 28, 2016 04:54:29 AM"	Unknown	123.98581	10/28/0116 04:56.37	00007439	14.108	Inter749t17-0	-0.246	1	1	270.061	11.111	1.1	0.289	0.000	D	F	2453.4	269.701	0.207	-0.007	1423.145	1506.948	0.021	-	0.058	1.126	-	-	-	Ambient318	4.901	69.148	29.812	PAVEMENT_GENERAL	Urban	F	1011101000001001	0000000000000000	-	-	-	-	-	-	-	-	-	-	Terminate	
"student4mode1"	"Seema_Shokoufeh_Track2"	"Nov 28, 2016 04:54:29 AM"	Unknown	124.98583	10/28/0116 04:56.38	00007499	15.212	Inter749t1-3	-0.307	2	2	270.000	11.111	0.7	0.287	0.000	D	F	2612.8	269.877	0.205	-0.005	1408.483	1506.893	0.021	-	0.039	1.088	-	-	-	Ambient318	4.357	66.277	19.357	PAVEMENT_GENERAL	Urban	F	1011101000001001	0000000000000000	-	-	-	-	-	-	-	-	-	-	Terminate	
"student4mode1"	"Seema_Shokoufeh_Track2"	"Nov 28, 2016 04:54:29 AM"	Unknown	125.98586	10/28/0116 04:56.39	00007559	16.278	Inter747t1-3	-0.332	2	2	270.000	11.111	0.1	0.289	0.000	D	F	2764.2	270.005	0.203	-0.003	1392.733	1506.875	0.022	-	0.023	1.046	-	-	-	Ambient318	3.828	62.312	13.879	PAVEMENT_GENERAL	Urban	F	1011101000001001	0000000000000000	-	-	-	-	-	-	-	-	-	-	Terminate	
"student4mode1"	"Seema_Shokoufeh_Track2"	"Nov 28, 2016 04:54:29 AM"	Unknown	126.98587	10/28/0116 04:56.40	00007619	17.299	Inter747t1-3	-0.334	2	2	270.000	11.111	-0.2	0.280	0.000	D	F	2903.6	269.969	0.201	0.002	1375.940	1506.873	0.022	-	-0.016	0.994	-	-	-	Ambient318	3.313	57.312	10.400	PAVEMENT_GENERAL	Urban	F	1011101000001001	0000000000000000	-	-	-	-	-	-	-	-	-	-	Terminate	
"student4mode1"	"Seema_Shokoufeh_Track2"	"Nov 28, 2016 04:54:29 AM"	Unknown	127.98589	10/28/0116 04:56.41	00007679	17.928	Inter747t1-3	-0.349	2	2	270.000	11.111	-0.2	0.150	0.000	D	F	1988.6	269.922	0.188	0.002	1358.232	1506.858	0.026	-	-0.015	0.140	-	-	-	Ambient318	2.867	51.396	8.371	PAVEMENT_GENERAL	Urban	F	1011101000001001	0000000000000000	-	-	-	-	-	-	-	-	-	-	Terminate	
"student4mode1"	"Seema_Shokoufeh_Track2"	"Nov 28, 2016 04:54:29 AM"	Unknown	128.98592	10/28/0116 04:56.42	00007739	17.891	Inter747t1-3	-0.380	2	2	270.000	11.111	-0.2	0.136	0.000	D	F	1947.5	269.875	0.191	0.002	1340.328	1506.827	0.027	-	-0.015	0.014	-	-	-	Ambient318	2.531	45.283	7.421	PAVEMENT_GENERAL	Urban	F	1011101000001001	0000000000000000	-	-	-	-	-	-	-	-	-	-	Terminate	
"student4mode1"	"Seema_Shokoufeh_Track2"	"Nov 28, 2016 04:54:29 AM"	Unknown	129.98593	10/28/0116 04:56.43	00007799	17.856	Inter747t1-3	-0.432	2	2	270.000	11.111	-1.2	0.078	0.000	D	F	1863.4	269.736	0.189	0.012	1322.448	1506.775	0.027	-	-0.078	-0.098	-	-	-	Ambient318	2.195	39.195	6.460	PAVEMENT_GENERAL	Urban	F	1011101000001001	0000000000000000	-	-	-	-	-	-	-	-	-	-	Terminate	
"student4mode1"	"Seema_Shokoufeh_Track2"	"Nov 28, 2016 04:54:29 AM"	Unknown	130.98595	10/28/0116 04:56.44	00007859	17.350	Inter747t1-3	-0.559	2	2	270.000	11.111	-1.7	0.012	0.000	D	F	1197.2	269.344	0.187	0.018	1304.828	1506.648	0.029	-	-0.138	-0.512	-	-	-	Ambient318	1.923	33.367	5.999	PAVEMENT_GENERAL	Urban	F	1011101000001001	0000000000000000	-	-	-	-	-	-	-	-	-	-	Terminate	
"student4mode1"	"Seema_Shokoufeh_Track2"	"Nov 28, 2016 04:54:29 AM"	Unknown	131.98598	10/28/0116 04:56.45	00007919	16.927	Inter747t1-3	-0.795	2	2	270.000	11.111	-1.6	0.056	0.000	D	F	1310.8	269.113	0.190	0.012	1287.707	1506.412	0.028	L	-0.059	-0.326	-	-	-	Ambient318	1.656	28.038	5.456	PAVEMENT_GENERAL	Urban	F	1011101000101001	0000000000000000	-	-	-	-	-	-	-	-	-	-	Terminate	
"student4mode1"	"Seema_Shokoufeh_Track2"	"Nov 28, 2016 04:54:29 AM"	Unknown	132.98599	10/28/0116 04:56.46	00007979	16.655	Inter747t1-3	-1.102	2	2	270.000	11.111	-1.8	0.058	0.000	D	F	1310.9	268.742	0.190	0.014	1270.919	1506.104	0.028	L	-0.108	-0.281	-	-	-	Ambient318	1.383	23.042	4.734	PAVEMENT_GENERAL	Urban	F	1011101000101001	0000000000000000	-	-	-	-	-	-	-	-	-	-	Terminate	
"student4mode1"	"Seema_Shokoufeh_Track2"	"Nov 28, 2016 04:54:29 AM"	Unknown	133.98601	10/28/0116 04:56.47	00008039	16.385	Inter747t1-3	-1.511	2	2	270.000	11.111	-1.9	0.065	0.000	D	F	1308.9	268.376	0.191	0.014	1254.406	1505.696	0.028	L	-0.110	-0.257	-	-	-	Ambient318	1.118	18.321	3.986	PAVEMENT_GENERAL	Urban	F	1011101000101001	0000000000000000	-	-	-	-	-	-	-	-	-	-	Terminate	
"student4mode1"	"Seema_Shokoufeh_Track2"	"Nov 28, 2016 04:54:29 AM"	Unknown	134.98604	10/28/0116 04:56.48	00008099	16.133	Inter747t1-2	1.580	1	2	270.000	11.111	-1.7	0.063	0.000	D	F	1297.4	268.002	0.191	0.013	1238.156	1505.187	0.028	L	-0.099	-0.252	-	-	-	Ambient318	0.711	11.478	2.642	PAVEMENT_GENERAL	Urban	F	1011101000101001	0000000000000000	-	-	-	-	-	-	-	-	-	-	Terminate	
"student4mode1"	"Seema_Shokoufeh_Track2"	"Nov 28, 2016 04:54:29 AM"	Unknown	135.98605	10/28/0116 04:56.49	00008159	15.874	Inter747t1-2	0.989	1	2	270.000	11.111	0.3	0.060	0.000	D	F	1276.0	267.798	0.191	-0.000	1222.162	1504.596	0.028	-	-0.004	-0.261	-	-	-	Ambient318	0.755	11.989	2.934	PAVEMENT_GENERAL	Urban	F	1011101000001001	0000000000000000	-	-	-	-	-	-	-	-	-	-	Terminate	
"student4mode1"	"Seema_Shokoufeh_Track2"	"Nov 28, 2016 04:54:29 AM"	Unknown	136.98607	10/28/0116 04:56.50	00008219	15.620	Inter747t1-2	0.407	1	2	270.000	11.111	1.3	0.060	0.000	D	F	1269.2	268.007	0.192	-0.009	1206.427	1504.014	0.028	-	0.070	-0.249	-	-	-	-	-	-	-	PAVEMENT_GENERAL	Urban	F	1011101000001001	0000000000000000	-	-	-	-	-	-	-	-	-	-	Terminate	
"student4mode1"	"Seema_Shokoufeh_Track2"	"Nov 28, 2016 04:54:29 AM"	Unknown	137.98610	10/28/0116 04:56.51	00008279	15.374	Inter748t1-2	-0.076	1	2	270.000	11.111	2.1	0.062	0.000	D	F	1261.1	268.524	0.192	-0.016	1190.938	1503.530	0.028	-	0.138	-0.240	-	-	-	-	-	-	-	PAVEMENT_GENERAL	Urban	F	1011101000001001	0000000000000000	-	-	-	-	-	-	-	-	-	-	Terminate	
"student4mode1"	"Seema_Shokoufeh_Track2"	"Nov 28, 2016 04:54:29 AM"	Unknown	138.98611	10/28/0116 04:56.52	00008339	15.135	Inter748t1-2	-0.424	1	2	270.000	11.111	-0.4	0.060	0.000	D	F	1253.6	268.867	0.192	-0.002	1175.688	1503.183	0.028	-	0.027	-0.237	-	-	-	-	-	-	-	PAVEMENT_GENERAL	Urban	F	1011101000001001	0000000000000000	-	-	-	-	-	-	-	-	-	-	Terminate	
"student4mode1"	"Seema_Shokoufeh_Track2"	"Nov 28, 2016 04:54:29 AM"	Unknown	139.98613	10/28/0116 04:56.53	00008399	14.900	Inter748t1-2	-0.702	1	2	270.000	11.111	4.0	0.060	0.000	D	F	1248.0	269.175	0.193	-0.025	1160.674	1502.905	0.028	-	0.183	-0.228	-	-	-	-	-	-	-	PAVEMENT_GENERAL	Urban	F	1011101000001001	0000000000000000	-	-	-	-	-	-	-	-	-	-	Terminate	
"student4mode1"	"Seema_Shokoufeh_Track2"	"Nov 28, 2016 04:54:29 AM"	Unknown	140.98616	10/28/0116 04:56.54	00008459	14.657	Inter748t1-2	-0.813	1	2	270.000	11.111	-0.4	0.055	0.000	D	F	1201.7	269.845	0.193	-0.004	1145.893	1502.794	0.028	-	0.025	-0.258	-	-	-	-	-	-	-	PAVEMENT_GENERAL	Urban	F	1011101000001001	0000000000000000	-	-	-	-	-	-	-	-	-	-	Terminate	
"student4mode1"	"Seema_Shokoufeh_Track2"	"Nov 28, 2016 04:54:29 AM"	Unknown	141.98618	10/28/0116 04:56.55	00008519	14.406	Inter748t1-2	-0.856	1	2	270.000	11.111	-0.2	0.055	0.000	D	F	1204.6	269.837	0.193	0.000	1131.362	1502.751	0.028	-	-0.003	-0.245	-	-	-	-	-	-	-	PAVEMENT_GENERAL	Urban	F	1011101000001001	0000000000000000	-	-	-	-	-	-	-	-	-	-	Terminate	
"student4mode1"	"Seema_Shokoufeh_Track2"	"Nov 28, 2016 04:54:29 AM"	Unknown	142.98619	10/28/0116 04:56.56	00008579	14.156	Inter748t1-2	-0.911	1	2	270.000	11.111	-1.2	0.053	0.000	D	F	1187.5	269.652	0.193	0.010	1117.080	1502.695	0.028	-	-0.070	-0.248	-	-	-	-	-	-	-	PAVEMENT_GENERAL	Urban	F	1011101000001001	0000000000000000	-	-	-	-	-	-	-	-	-	-	Terminate	
"student4mode1"	"Seema_Shokoufeh_Track2"	"Nov 28, 2016 04:54:29 AM"	Unknown	143.98621	10/28/0116 04:56.57	00008639	13.911	Inter748t1-2	-1.010	1	2	270.000	11.111	2.1	0.053	0.000	D	F	1173.1	269.622	0.194	-0.012	1103.048	1502.596	0.028	-	0.077	-0.243	-	-	-	-	-	-	-	PAVEMENT_GENERAL	Urban	F	1011101000001001	0000000000000000	-	-	-	-	-	-	-	-	-	-	Terminate	
"student4mode1"	"Seema_Shokoufeh_Track2"	"Nov 28, 2016 04:54:29 AM"	Unknown	144.98624	10/28/0116 04:56.58	00008699	13.676	Inter748t1-2	-1.063	1	2	270.000	11.111	0.5	0.060	0.000	D	F	1190.6	269.892	0.194	-0.003	1089.256	1502.544	0.028	-	0.028	-0.223	-	-	-	-	-	-	-	PAVEMENT_GENERAL	Urban	F	1011101000001001	0000000000000000	-	-	-	-	-	-	-	-	-	-	Terminate	
"student4mode1"	"Seema_Shokoufeh_Track2"	"Nov 28, 2016 04:54:29 AM"	Unknown	145.98625	10/28/0116 04:56.59	00008759	13.524	Inter748t1-2	-1.069	1	2	270.000	11.111	0.8	0.074	0.000	D	F	1269.1	270.107	0.196	-0.005	1075.667	1502.537	0.027	-	0.050	-0.097	-	-	-	-	-	-	-	PAVEMENT_GENERAL	Urban	F	1011101000001001	0000000000000000	-	-	-	-	-	-	-	-	-	-	Terminate	
"student4mode1"	"Seema_Shokoufeh_Track2"	"Nov 28, 2016 04:54:29 AM"	Unknown	146.98627	10/28/0116 04:57.00	00008819	13.401	Inter748t1-2	-1.027	1	2	270.000	11.111	0.5	0.076	0.000	D	F	1271.0	270.255	0.196	-0.002	1062.207	1502.579	0.027	-	0.024	-0.108	-	-	-	-	-	-	-	PAVEMENT_GENERAL	Urban	F	1011101000001001	0000000000000000	-	-	-	-	-	-	-	-	-	-	Terminate	
"student4mode1"	"Seema_Shokoufeh_Track2"	"Nov 28, 2016 04:54:29 AM"	Unknown	147.98630	10/28/0116 04:57.01	00008879	13.304	Inter748t1-2	-0.954	1	2	270.000	11.111	-0.0	0.074	0.000	D	F	1254.1	270.374	0.196	-0.001	1048.855	1502.653	0.027	-	0.010	-0.110	-	-	-	-	-	-	-	PAVEMENT_GENERAL	Urban	F	1011101000001001	0000000000000000	-	-	-	-	-	-	-	-	-	-	Terminate	
"student4mode1"	"Seema_Shokoufeh_Track2"	"Nov 28, 2016 04:54:29 AM"	Unknown	148.98631	10/28/0116 04:57.02	00008939	13.187	Inter748t1-2	-0.879	1	2	270.000	11.111	1.5	0.074	0.000	D	F	1256.2	270.322	0.196	-0.004	1035.610	1502.728	0.027	-	0.048	-0.108	-	-	-	-	-	-	-	PAVEMENT_GENERAL	Urban	F	1011101000001001	0000000000000000	-	-	-	-	-	-	-	-	-	-	Terminate	
"student4mode1"	"Seema_Shokoufeh_Track2"	"Nov 28, 2016 04:54:29 AM"	Unknown	149.98633	10/28/0116 04:57.03	00008999	13.093	Inter748t1-2	-0.775	1	2	270.000	11.111	0.6	0.078	0.000	D	F	1265.1	270.543	0.196	-0.004	1022.472	1502.832	0.027	-	0.029	-0.087	-	-	-	-	-	-	-	PAVEMENT_GENERAL	Urban	F	1011101000001001	0000000000000000	-	-	-	-	-	-	-	-	-	-	Terminate	
"student4mode1"	"Seema_Shokoufeh_Track2"	"Nov 28, 2016 04:54:29 AM"	Unknown	150.98636	10/28/0116 04:57.04	00009059	13.007	Inter748t1-2	-0.620	1	2	270.000	11.111	1.7	0.081	0.000	D	F	1422.2	270.939	0.197	-0.014	1009.424	1502.986	0.027	-	0.107	-0.075	-	-	-	-	-	-	-	PAVEMENT_GENERAL	Urban	F	1011101000001001	0000000000000000	-	-	-	-	-	-	-	-	-	-	Terminate	
"student4mode1"	"Seema_Shokoufeh_Track2"	"Nov 28, 2016 04:54:29 AM"	Unknown	151.98637	10/28/0116 04:57.05	00009119	12.948	Inter752t1-2	-1.108	1	2	269.985	24.444	-1.0	0.086	0.000	D	F	1487.2	270.771	0.586	-0.056	996.448	1503.190	0.038	-	-0.065	0.003	-	-	-	-	-	-	-	FREEWAY_SMOOTH	Urban	F	1011101000001001	0000000000000000	-	-	-	-	-	-	-	-	-	-	Terminate	
"student4mode1"	"Seema_Shokoufeh_Track2"	"Nov 28, 2016 04:54:29 AM"	Unknown	152.98639	10/28/0116 04:57.06	00009179	12.979	Inter752t1-2	-0.948	1	2	269.812	24.444	-1.1	0.102	0.000	D	F	1532.3	270.510	0.345	-0.363	983.498	1503.334	0.044	-	-0.075	0.152	-	-	-	-	-	-	-	FREEWAY_SMOOTH	Urban	F	1011101000001001	0000000000000000	-	-	-	-	-	-	-	-	-	-	Terminate	
"student4mode1"	"Seema_Shokoufeh_Track2"	"Nov 28, 2016 04:54:29 AM"	Unknown	153.98642	10/28/0116 04:57.07	00009239	13.154	Inter752t1-2	-0.786	1	2	269.320	24.444	-5.2	0.139	0.000	D	F	1641.7	270.051	0.301	-0.669	970.447	1503.398	0.066	-	-0.227	0.314	-	-	-	-	-	-	-	FREEWAY_SMOOTH	Urban	F	1011101000001001	0000000000000000	-	-	-	-	-	-	-	-	-	-	Terminate	
"student4mode1"	"Seema_Shokoufeh_Track2"	"Nov 28, 2016 04:54:29 AM"	Unknown	154.98643	10/28/0116 04:57.08	00009299	13.503	Inter752t1-2	-0.727	1	2	268.495	24.444	-9.5	0.176	0.000	D	F	1756.1	268.243	0.288	-0.968	957.136	1503.203	0.086	-	-0.497	0.493	-	-	-	-	-	-	-	FREEWAY_SMOOTH	Urban	F	1011101000001001	0000000000000000	-	-	-	-	-	-	-	-	-	-	Terminate	
"student4mode1"	"Seema_Shokoufeh_Track2"	"Nov 28, 2016 04:54:29 AM"	Unknown	155.98645	10/28/0116 04:57.09	00009359	14.033	Inter752t1-2	-0.893	1	2	267.312	24.444	-0.1	0.190	0.000	D	F	1818.1	266.579	0.266	-1.358	943.387	1502.530	0.103	-	-0.162	0.540	-	-	-	-	-	-	-	FREEWAY_SMOOTH	Urban	F	1111101000001001	0000000000000000	-	-	-	-	-	-	-	-	-	-	Terminate	
"student4mode1"	"Seema_Shokoufeh_Track2"	"Nov 28, 2016 04:54:29 AM"	Unknown	156.98647	10/28/0116 04:57.10	00009419	14.594	Inter752t1-2	-0.951	1	2	265.724	24.444	-5.5	0.194	0.000	D	F	1856.4	265.987	0.294	-1.681	929.102	1501.596	0.122	-	-0.336	0.537	-	-	-	-	-	-	-	FREEWAY_SMOOTH	Urban	F	1011101000001001	0000000000000000	-	-	-	-	-	-	-	-	-	-	Terminate	
"student4mode1"	"Seema_Shokoufeh_Track2"	"Nov 28, 2016 04:54:29 AM"	Unknown	157.98650	10/28/0116 04:57.11	00009479	15.108	Inter752t1-2	-0.866	1	2	263.694	24.444	-6.1	0.192	0.000	D	F	1871.3	264.266	0.308	-2.042	914.303	1500.300	0.146	-	-0.444	0.488	-	-	-	-	-	-	-	FREEWAY_SMOOTH	Urban	F	1011101000001001	0000000000000000	-	-	-	-	-	-	-	-	-	-	Terminate	
"student4mode1"	"Seema_Shokoufeh_Track2"	"Nov 28, 2016 04:54:29 AM"	Unknown	158.98651	10/28/0116 04:57.12	00009539	15.647	Inter752t1-2	-0.682	1	2	261.177	24.444	-11.4	0.228	0.000	D	F	1977.2	261.894	0.324	-2.380	899.058	1498.447	0.176	-	-0.779	0.634	-	-	-	-	-	-	-	FREEWAY_SMOOTH	Urban	F	1011101000001001	0000000000000000	-	-	-	-	-	-	-	-	-	-	Terminate	
"student4mode1"	"Seema_Shokoufeh_Track2"	"Nov 28, 2016 04:54:29 AM"	Unknown	159.98653	10/28/0116 04:57.13	00009599	16.269	Inter752t1-2	-0.519	1	2	258.127	24.444	-15.3	0.220	0.000	D	F	1995.1	258.470	0.310	-2.737	883.333	1495.723	0.209	-	-1.077	0.595	-	-	-	-	-	-	-	FREEWAY_SMOOTH	Urban	F	1011101000001001	0000000000000000	-	-	-	-	-	-	-	-	-	-	Terminate	
"student4mode1"	"Seema_Shokoufeh_Track2"	"Nov 28, 2016 04:54:29 AM"	Unknown	160.98656	10/28/0116 04:57.14	00009659	16.849	Inter752t1-2	-0.460	1	2	254.531	24.444	-15.6	0.233	0.000	D	F	2038.9	254.501	0.293	-3.131	867.236	1491.841	0.239	-	-1.193	0.567	-	-	-	-	-	-	-	FREEWAY_SMOOTH	Urban	F	1011101000001001	0000000000000000	-	-	-	-	-	-	-	-	-	-	Terminate	
"student4mode1"	"Seema_Shokoufeh_Track2"	"Nov 28, 2016 04:54:29 AM"	Unknown	161.98657	10/28/0116 04:57.15	00009719	17.382	Inter752t1-2	-0.427	1	2	250.304	24.444	-15.5	0.231	0.000	D	F	2065.7	250.389	0.206	-3.343	850.916	1486.663	0.258	-	-1.242	0.487	-	-	-	-	-	-	-	FREEWAY_SMOOTH	Urban	F	1011101000001001	0000000000000000	-	-	-	-	-	-	-	-	-	-	Terminate	
"student4mode1"	"Seema_Shokoufeh_Track2"	"Nov 28, 2016 04:54:29 AM"	Unknown	162.98659	10/28/0116 04:57.16	00009779	17.852	Inter752t1-2	-0.320	1	2	245.881	24.444	-15.6	0.235	0.000	D	F	2093.3	246.246	0.222	-3.343	834.547	1480.147	0.265	-	-1.286	0.461	-	-	-	-	-	-	-	FREEWAY_SMOOTH	Urban	F	1011101000001001	0000000000000000	-	-	-	-	-	-	-	-	-	-	Terminate	
"student4mode1"	"Seema_Shokoufeh_Track2"	"Nov 28, 2016 04:54:29 AM"	Unknown	163.98662	10/28/0116 04:57.17	00009839	18.291	Inter752t1-2	-0.108	1	2	241.362	24.444	-15.0	0.231	0.000	D	F	2123.9	242.064	0.236	-3.341	818.282	1472.268	0.277	-	-1.304	0.426	-	-	-	-	-	-	-	FREEWAY_SMOOTH	Urban	F	1011101000001001	0000000000000000	-	-	-	-	-	-	-	-	-	-	Terminate	
"student4mode1"	"Seema_Shokoufeh_Track2"	"Nov 28, 2016 04:54:29 AM"	Unknown	164.98663	10/28/0116 04:57.18	00009899	18.708	Inter752t1-2	0.254	1	2	236.779	24.444	-17.2	0.229	0.000	D	F	2153.6	237.865	0.267	-3.318	802.255	1463.028	0.299	-	-1.453	0.409	-	-	-	-	-	-	-	FREEWAY_SMOOTH	Urban	F	1011101000001001	0000000000000000	-	-	-	-	-	-	-	-	-	-	Terminate	
"student4mode1"	"Seema_Shokoufeh_Track2"	"Nov 28, 2016 04:54:29 AM"	Unknown	165.98665	10/28/0116 04:57.19	00009959	19.101	Inter752t1-2	0.730	1	2	232.051	24.444	-16.7	0.229	0.000	D	F	2182.9	233.434	0.279	-3.321	786.642	1452.371	0.328	-	-1.448	0.390	-	-	-	-	-	-	-	FREEWAY_SMOOTH	Urban	F	1011101000001001	0000000000000000	-	-	-	-	-	-	-	-	-	-	Terminate	
"student4mode1"	"Seema_Shokoufeh_Track2"	"Nov 28, 2016 04:54:29 AM"	Unknown	166.98668	10/28/0116 04:57.20	00010019	19.473	Inter752t1-2	1.250	1	2	227.291	24.444	-23.9	0.229	0.000	D	F	2207.9	227.966	0.236	-3.233	771.647	1440.242	0.359	-	-2.111	0.368	-	-	-	-	-	-	-	FREEWAY_SMOOTH	Urban	F	1111101000001001	0000000000000000	-	-	-	-	-	-	-	-	-	-	Terminate	
"student4mode1"	"Seema_Shokoufeh_Track2"	"Nov 28, 2016 04:54:29 AM"	Unknown	167.98669	10/28/0116 04:57.21	00010079	19.830	Inter752t1-2	1.378	1	2	222.364	24.444	-23.6	0.224	0.000	D	F	2230.6	221.485	0.134	-3.221	757.751	1426.357	0.367	-	-2.214	0.375	-	-	-	-	-	-	-	FREEWAY_SMOOTH	Urban	F	1011101000001001	0000000000000000	-	-	-	-	-	-	-	-	-	-	Terminate	
"student4mode1"	"Seema_Shokoufeh_Track2"	"Nov 28, 2016 04:54:29 AM"	Unknown	168.98671	10/28/0116 04:57.22	00010139	20.190	Inter752t1-2	1.033	1	2	217.383	24.444	-20.4	0.231	0.000	D	F	2264.6	215.544	0.082	-3.246	745.236	1410.754	0.346	-	-1.982	0.383	-	-	-	-	-	-	-	FREEWAY_SMOOTH	Urban	F	1011101000001001	0000000000000000	-	-	-	-	-	-	-	-	-	-	Terminate	
