ZoneName	Time	SystemTime	Frame	Velocity	LaneName	LanePos	LaneIndex	LaneCount	LaneHeading	SpeedLimit	Steer	Accel	Brake	Gear	Horn	SubjectEngineRPM	SubjectHeading	SubjectPitch	SubjectRoll	SubjectX	SubjectY	SubjectZ	Signal	LatAccel	LongAccel	Collision	CollisionAngle	CollisionVelocity	VehAhead	HeadwayTime	HeadwayDist	TTC	TerrainType	CultureType	Slip	DigitalInputs	DigitalInputs2	ActiveTrigger	EntityName	DistToEntity	TimeToEntity	EntityVelocity	EntityAccel	EntityHeading	EntityX	EntityY	EntityZ	GrabData	
Unknown	0.98335	10/30/0116 10:36.16	00000059	0.002	Inter625t13-0	-0.088	1	2	0.000	11.111	-1.1	0.000	0.000	P	F	0.0	0.000	0.153	0.000	1503.500	523.206	0.019	-	0.000	0.000	-	-	-	-	-	-	-	PAVEMENT_GENERAL	Urban	F	1011101000011101	0000000000000000	-	-	-	-	-	-	-	-	-	-	Terminate	
Unknown	1.98337	10/30/0116 10:36.17	00000119	0.000	Inter625t13-0	-0.088	1	2	0.000	11.111	-5.8	0.000	0.000	P	F	0.0	0.000	0.197	-0.000	1503.500	523.208	0.026	-	-0.000	-0.001	-	-	-	-	-	-	-	PAVEMENT_GENERAL	Urban	F	1011101000011101	0000000000000000	-	-	-	-	-	-	-	-	-	-	Terminate	
Unknown	2.98339	10/30/0116 10:36.18	00000179	-0.000	Inter625t13-0	-0.088	1	2	0.000	11.111	2.4	0.000	0.000	P	F	0.0	0.000	0.207	0.000	1503.500	523.208	0.028	-	-0.000	-0.000	-	-	-	-	-	-	-	PAVEMENT_GENERAL	Urban	F	1011101000011101	0000000000000000	-	-	-	-	-	-	-	-	-	-	Terminate	
Unknown	3.98341	10/30/0116 10:36.19	00000239	-0.000	Inter625t13-0	-0.088	1	2	0.000	11.111	0.0	0.000	0.000	P	F	188.9	0.000	0.209	-0.000	1503.500	523.208	0.028	-	0.000	0.000	-	-	-	-	-	-	-	PAVEMENT_GENERAL	Urban	F	1011101000011111	0000000000000000	-	-	-	-	-	-	-	-	-	-	Terminate	
Unknown	4.98343	10/30/0116 10:36.20	00000299	-0.000	Inter625t13-0	-0.088	1	2	0.000	11.111	-2.3	0.000	0.000	P	F	477.5	0.000	0.209	0.000	1503.500	523.208	0.028	-	-0.000	0.000	-	-	-	-	-	-	-	PAVEMENT_GENERAL	Urban	F	1011101000011101	0000000000000000	-	-	-	-	-	-	-	-	-	-	Terminate	
Unknown	5.98345	10/30/0116 10:36.21	00000359	-0.000	Inter625t13-0	-0.088	1	2	0.000	11.111	1.5	0.000	0.194	P	F	477.5	0.000	0.209	-0.000	1503.500	523.208	0.028	-	0.000	0.000	-	-	-	-	-	-	-	PAVEMENT_GENERAL	Urban	F	1111101000011101	0000000000000000	-	-	-	-	-	-	-	-	-	-	Terminate	
Unknown	6.98347	10/30/0116 10:36.22	00000419	-0.000	Inter625t13-0	-0.088	1	2	0.000	11.111	0.6	0.000	0.743	N	F	477.5	0.000	0.209	-0.000	1503.500	523.208	0.028	-	0.000	0.000	-	-	-	-	-	-	-	PAVEMENT_GENERAL	Urban	F	1011101000011101	0000000000000000	-	-	-	-	-	-	-	-	-	-	Terminate	
Unknown	7.98349	10/30/0116 10:36.23	00000479	-0.000	Inter625t13-0	-0.088	1	2	0.000	11.111	3.6	0.000	0.558	D	F	477.5	0.000	0.209	-0.000	1503.500	523.208	0.028	-	-0.000	0.000	-	-	-	-	-	-	-	PAVEMENT_GENERAL	Urban	F	1011101000011101	0000000000000000	-	-	-	-	-	-	-	-	-	-	Terminate	
Unknown	8.98351	10/30/0116 10:36.24	00000539	0.001	Inter625t13-0	-0.088	1	2	0.000	11.111	-2.5	0.000	0.000	D	F	477.5	0.000	0.208	0.000	1503.500	523.208	0.028	-	-0.000	0.003	-	-	-	-	-	-	-	PAVEMENT_GENERAL	Urban	F	1011101000011101	0000000000000000	-	-	-	-	-	-	-	-	-	-	Terminate	
Unknown	9.98353	10/30/0116 10:36.25	00000599	1.914	Inter625t13-0	-0.091	1	2	0.000	11.111	-7.3	0.157	0.000	D	F	1403.3	359.920	0.240	0.004	1503.497	523.795	0.011	-	-0.028	3.202	-	-	-	-	-	-	-	PAVEMENT_GENERAL	Urban	F	1011101000011101	0000000000000000	-	-	-	-	-	-	-	-	-	-	Terminate	
Unknown	10.98355	10/30/0116 10:36.26	00000659	5.281	Inter625t13-0	-0.124	1	2	0.000	11.111	2.4	0.369	0.000	D	F	2068.0	359.486	0.233	-0.016	1503.464	527.393	0.011	-	0.057	3.257	-	-	-	-	-	-	-	PAVEMENT_GENERAL	Urban	F	1011101000011101	0000000000000000	-	-	-	-	-	-	-	-	-	-	Terminate	
Unknown	11.98357	10/30/0116 10:36.27	00000719	8.318	Inter625t49-0	-0.178	1	1	0.005	11.111	0.8	0.453	0.000	D	F	2690.2	359.558	0.229	-0.005	1503.410	534.231	0.013	-	0.019	2.888	-	-	-	-	-	-	-	PAVEMENT_GENERAL	Urban	F	1011101000011101	0000000000000000	-	-	-	-	-	-	-	-	-	-	Terminate	
Unknown	12.98359	10/30/0116 10:36.28	00000779	11.149	Inter625t49-0	-0.228	1	1	0.007	11.111	4.2	0.467	0.000	D	F	3307.7	359.947	0.227	-0.015	1503.361	543.972	0.013	-	0.136	2.975	-	-	-	-	-	-	-	PAVEMENT_GENERAL	Urban	F	1011101000011101	0000000000000000	-	-	-	-	-	-	-	-	-	-	Terminate	
Unknown	13.98361	10/30/0116 10:36.29	00000839	13.106	Inter625t49-0	-0.194	1	1	0.007	11.111	-3.0	0.450	0.000	D	F	2425.9	0.044	0.210	0.022	1503.396	556.232	0.019	-	-0.145	1.510	-	-	-	-	-	-	-	PAVEMENT_GENERAL	Urban	F	1011101000011101	0000000000000000	-	-	-	-	-	-	-	-	-	-	Terminate	
Unknown	14.98363	10/30/0116 10:36.30	00000899	14.564	Inter625t49-0	-0.190	1	1	0.005	11.111	-0.9	0.439	0.000	D	F	2585.4	0.080	0.209	0.003	1503.402	570.074	0.020	-	-0.010	1.429	-	-	-	-	-	-	-	PAVEMENT_GENERAL	Urban	F	1011101000011101	0000000000000000	-	-	-	-	-	-	-	-	-	-	Terminate	
Unknown	15.98365	10/30/0116 10:36.31	00000959	15.968	Inter625t15-0	-0.204	1	2	0.000	11.111	0.7	0.414	0.000	D	F	2769.5	359.810	0.207	-0.001	1503.390	585.344	0.020	-	-0.015	1.376	-	-	-	-	-	-	-	PAVEMENT_GENERAL	Urban	F	1011101000011101	0000000000000000	-	-	-	-	-	-	-	-	-	-	Terminate	
Unknown	16.98367	10/30/0116 10:36.32	00001019	17.229	Inter614t1-0	-0.234	1	2	0.000	11.111	1.1	0.228	0.000	D	F	2447.0	0.025	0.198	-0.011	1503.359	601.975	0.021	-	0.080	0.871	-	-	-	-	-	-	-	PAVEMENT_GENERAL	Urban	F	1011101000011101	0000000000000000	-	-	-	-	-	-	-	-	-	-	Terminate	
Unknown	17.98369	10/30/0116 10:36.33	00001079	17.273	Inter614t1-0	-0.213	1	2	0.000	11.111	-0.4	0.314	0.000	D	F	2153.0	0.101	0.194	0.002	1503.380	619.197	0.024	-	-0.010	0.596	-	-	-	-	-	-	-	PAVEMENT_GENERAL	Urban	F	1011101000011101	0000000000000000	-	-	-	-	-	-	-	-	-	-	Terminate	
Unknown	18.98371	10/30/0116 10:36.34	00001139	18.012	Inter614t1-0	-0.195	1	2	0.000	11.111	-1.4	0.409	0.000	D	F	2239.2	0.000	0.198	0.013	1503.398	636.827	0.023	-	-0.071	0.798	-	-	-	-	-	-	-	PAVEMENT_GENERAL	Urban	F	1011101000011101	0000000000000000	-	-	-	-	-	-	-	-	-	-	Terminate	
Unknown	19.98373	10/30/0116 10:36.35	00001199	19.076	Inter614t1-0	-0.255	1	2	0.000	11.111	1.0	0.451	0.000	D	F	3190.9	359.566	0.202	0.012	1503.338	655.312	0.021	-	-0.064	1.305	-	-	-	-	-	-	-	PAVEMENT_GENERAL	Urban	F	1011101000011101	0000000000000000	-	-	-	-	-	-	-	-	-	-	Terminate	
Unknown	20.98375	10/30/0116 10:36.36	00001259	20.329	Inter614t1-0	-0.336	1	2	0.000	11.111	0.6	0.414	0.000	D	F	3386.8	0.000	0.199	-0.007	1503.257	675.017	0.021	-	0.079	1.232	-	-	-	-	-	-	-	PAVEMENT_GENERAL	Urban	F	1011101000011101	0000000000000000	-	-	-	-	-	-	-	-	-	-	Terminate	
Unknown	21.98377	10/30/0116 10:36.37	00001319	21.551	Inter614t1-0	-0.361	1	2	0.000	11.111	-0.4	0.501	0.000	D	F	3575.1	359.844	0.198	0.006	1503.232	695.953	0.021	-	-0.053	1.283	-	-	-	-	-	-	-	PAVEMENT_GENERAL	Urban	F	1011101000011101	0000000000000000	-	-	-	-	-	-	-	-	-	-	Terminate	
Unknown	22.98379	10/30/0116 10:36.38	00001379	22.669	Inter614t1-0	-0.413	1	2	0.000	11.111	1.4	0.242	0.000	D	F	2594.6	0.000	0.185	-0.015	1503.180	718.118	0.023	-	0.110	0.646	-	-	-	-	-	-	-	PAVEMENT_GENERAL	Urban	F	1011101000011101	0000000000000000	-	-	-	-	-	-	-	-	-	-	Terminate	
Unknown	23.98381	10/30/0116 10:36.39	00001439	22.146	Inter614t1-0	-0.398	1	2	0.000	11.111	-0.2	0.000	0.000	D	F	1525.0	0.078	0.176	0.000	1503.195	740.574	0.030	-	-0.009	-0.637	-	-	-	-	-	-	-	PAVEMENT_GENERAL	Urban	F	1011101000011101	0000000000000000	-	-	-	-	-	-	-	-	-	-	Terminate	
Unknown	24.98383	10/30/0116 10:36.40	00001499	21.887	Inter614t1-0	-0.390	1	2	0.000	11.111	0.5	0.245	0.000	D	F	1972.1	359.934	0.186	0.002	1503.203	762.499	0.026	-	-0.017	0.174	-	-	-	12	3.501	76.621	19.126	PAVEMENT_GENERAL	Urban	F	1011101000011101	0000000000000000	-	-	-	-	-	-	-	-	-	-	Terminate	
Unknown	25.98385	10/30/0116 10:36.41	00001559	21.530	Inter614t1-0	-0.366	1	2	0.000	11.111	1.1	0.000	0.000	D	F	1467.8	0.358	0.177	-0.022	1503.227	784.299	0.030	-	0.184	-0.628	-	-	-	12	3.413	73.486	42.833	PAVEMENT_GENERAL	Urban	F	1011101000011101	0000000000000000	-	-	-	-	-	-	-	-	-	-	Terminate	
Unknown	26.98387	10/30/0116 10:36.42	00001619	21.249	Inter612t1-0	-0.221	1	2	0.000	11.111	-1.3	0.153	0.000	D	F	1751.5	0.328	0.185	0.015	1503.372	805.622	0.027	-	-0.095	-0.071	-	-	-	12	3.422	72.703	482.049	PAVEMENT_GENERAL	Urban	F	1011101000011101	0000000000000000	-	-	-	-	-	-	-	-	-	-	Terminate	
Unknown	27.98389	10/30/0116 10:36.43	00001679	21.265	Inter612t1-0	-0.113	1	2	0.000	11.111	-1.2	0.164	0.000	D	F	1775.9	0.223	0.184	0.010	1503.480	826.875	0.027	-	-0.064	-0.003	-	-	-	12	3.429	72.909	-	PAVEMENT_GENERAL	Urban	F	1011101000011101	0000000000000000	-	-	-	-	-	-	-	-	-	-	Terminate	
Unknown	28.98391	10/30/0116 10:36.44	00001739	20.962	Inter612t1-0	-0.067	1	2	0.000	11.111	1.1	0.019	0.000	D	F	1431.2	0.044	0.176	-0.005	1503.527	848.045	0.029	-	0.023	-0.586	-	-	-	12	3.517	73.716	-	PAVEMENT_GENERAL	Urban	F	1011101000011101	0000000000000000	-	-	-	-	-	-	-	-	-	-	Terminate	
Unknown	29.98393	10/30/0116 10:36.45	00001799	20.661	Inter612t1-0	-0.033	1	2	0.000	11.111	1.5	0.085	0.000	D	F	1572.0	0.125	0.183	-0.006	1503.560	868.847	0.028	-	0.053	-0.275	-	-	-	12	3.642	75.252	-	PAVEMENT_GENERAL	Urban	F	1011101000011101	0000000000000000	-	-	-	-	-	-	-	-	-	-	Terminate	
Unknown	30.98395	10/30/0116 10:36.47	00001859	20.329	Inter612t1-0	0.023	1	2	0.000	11.111	-0.8	0.053	0.000	D	F	1490.2	0.103	0.183	0.008	1503.616	889.360	0.029	-	-0.060	-0.403	-	-	-	12	3.792	77.093	-	PAVEMENT_GENERAL	Urban	F	1011101000011101	0000000000000000	-	-	-	-	-	-	-	-	-	-	Terminate	
Unknown	31.98397	10/30/0116 10:36.48	00001919	20.046	Inter612t1-0	0.070	1	2	0.000	11.111	1.1	0.108	0.000	D	F	1597.8	0.273	0.185	-0.011	1503.664	909.524	0.028	-	0.098	-0.184	-	-	-	12	3.955	79.282	-	PAVEMENT_GENERAL	Urban	F	1011101000011101	0000000000000000	-	-	-	-	-	-	-	-	-	-	Terminate	
Unknown	32.98399	10/30/0116 10:36.49	00001979	19.922	Inter612t1-0	0.145	1	2	0.000	11.111	-3.0	0.125	0.000	D	F	1626.0	0.000	0.186	0.028	1503.738	929.505	0.027	-	-0.204	-0.121	-	-	-	12	4.099	81.654	-	PAVEMENT_GENERAL	Urban	F	1011101000011101	0000000000000000	-	-	-	-	-	-	-	-	-	-	Terminate	
Unknown	33.98401	10/30/0116 10:36.50	00002039	19.774	Inter612t1-0	0.097	1	2	0.000	11.111	3.2	0.116	0.000	D	F	1605.6	0.019	0.187	-0.043	1503.690	949.356	0.027	-	0.248	-0.142	-	-	-	12	4.256	84.157	-	PAVEMENT_GENERAL	Urban	F	1011101000011101	0000000000000000	-	-	-	-	-	-	-	-	-	-	Terminate	
Unknown	34.98403	10/30/0116 10:36.51	00002099	19.643	Inter612t1-0	0.106	1	2	0.000	11.111	0.8	0.125	0.000	D	F	1622.8	359.901	0.187	0.007	1503.700	969.062	0.027	-	-0.048	-0.112	-	-	-	12	4.419	86.804	-	PAVEMENT_GENERAL	Urban	F	1011101000011101	0000000000000000	-	-	-	-	-	-	-	-	-	-	Terminate	
Unknown	35.98405	10/30/0116 10:36.52	00002159	19.600	Inter612t1-0	0.064	1	2	0.000	11.111	1.1	0.164	0.000	D	F	1706.2	359.733	0.188	0.001	1503.657	988.679	0.027	-	-0.028	-0.016	-	-	-	12	4.568	89.541	-	PAVEMENT_GENERAL	Urban	F	1011101000011101	0000000000000000	-	-	-	-	-	-	-	-	-	-	Terminate	
Unknown	36.98407	10/30/0116 10:36.53	00002219	19.909	Inter613t1-0	0.009	1	2	0.000	11.111	-2.2	0.295	0.000	D	F	1946.0	359.837	0.191	0.011	1503.602	1008.407	0.025	-	-0.098	0.399	-	-	-	12	4.629	92.166	-	PAVEMENT_GENERAL	Urban	F	1011101000011101	0000000000000000	-	-	-	-	-	-	-	-	-	-	Terminate	
Unknown	37.98409	10/30/0116 10:36.54	00002279	20.346	Inter613t1-0	-0.113	1	2	0.000	11.111	1.9	0.383	0.000	D	F	2281.2	359.544	0.194	-0.013	1503.480	1028.518	0.024	-	0.055	0.590	-	-	-	12	4.640	94.409	-	PAVEMENT_GENERAL	Urban	F	1011101000011101	0000000000000000	-	-	-	-	-	-	-	-	-	-	Terminate	
Unknown	38.98411	10/30/0116 10:36.55	00002339	21.003	Inter613t1-0	-0.232	1	2	0.000	11.111	0.6	0.386	0.000	D	F	2433.2	359.793	0.192	-0.004	1503.361	1049.189	0.024	-	0.051	0.663	-	-	-	12	4.575	96.092	-	PAVEMENT_GENERAL	Urban	F	1011101000011101	0000000000000000	-	-	-	-	-	-	-	-	-	-	Terminate	
Unknown	39.98413	10/30/0116 10:36.56	00002399	21.674	Inter613t1-0	-0.271	1	2	0.000	11.111	0.3	0.556	0.000	D	F	2514.9	0.074	0.193	-0.009	1503.323	1070.521	0.023	-	0.077	0.727	-	-	-	12	4.481	97.113	-	PAVEMENT_GENERAL	Urban	F	1011101000011101	0000000000000000	-	-	-	-	-	-	-	-	-	-	Terminate	
Unknown	40.98415	10/30/0116 10:36.57	00002459	22.403	Inter613t1-0	-0.250	1	2	0.000	11.111	1.2	0.503	0.000	D	F	2567.7	0.077	0.190	-0.009	1503.344	1092.563	0.024	-	0.055	0.700	-	-	-	12	4.349	97.425	1912.776	PAVEMENT_GENERAL	Urban	F	1011101000011101	0000000000000000	-	-	-	-	-	-	-	-	-	-	Terminate	
Unknown	41.98417	10/30/0116 10:36.58	00002519	23.085	Inter613t1-0	-0.190	1	2	0.000	11.111	-1.8	0.457	0.000	D	F	2615.6	0.084	0.189	0.018	1503.404	1115.310	0.024	-	-0.128	0.666	-	-	-	12	4.203	97.031	132.360	PAVEMENT_GENERAL	Urban	F	1011101000011101	0000000000000000	-	-	-	-	-	-	-	-	-	-	Terminate	
Unknown	42.98419	10/30/0116 10:36.59	00002579	23.738	Inter613t1-0	-0.160	1	2	0.000	11.111	0.3	0.459	0.000	D	F	2666.5	0.149	0.187	-0.009	1503.433	1138.723	0.024	-	0.063	0.649	-	-	-	12	4.043	95.972	69.263	PAVEMENT_GENERAL	Urban	F	1011101000011101	0000000000000000	-	-	-	-	-	-	-	-	-	-	Terminate	
Unknown	43.98421	10/30/0116 10:37.00	00002639	24.379	Inter613t1-0	-0.085	1	2	0.000	11.111	0.5	0.427	0.000	D	F	2717.8	0.255	0.185	-0.006	1503.508	1162.784	0.024	-	0.047	0.624	-	-	-	12	3.867	94.264	46.502	PAVEMENT_GENERAL	Urban	F	1011101000011101	0000000000000000	-	-	-	-	-	-	-	-	-	-	Terminate	
Unknown	44.98423	10/30/0116 10:37.01	00002699	24.913	Inter613t1-0	0.040	1	2	0.000	11.111	0.7	0.169	0.000	D	F	2335.4	0.366	0.176	-0.007	1503.633	1187.459	0.025	-	0.056	0.194	-	-	-	12	3.691	91.943	35.904	PAVEMENT_GENERAL	Urban	F	1011101000011101	0000000000000000	-	-	-	-	-	-	-	-	-	-	Terminate	
Unknown	45.98425	10/30/0116 10:37.02	00002759	24.343	Inter746t1-0	0.177	1	2	0.000	11.111	-1.2	0.000	0.000	D	F	1667.1	0.120	0.172	0.019	1503.770	1212.130	0.030	-	-0.166	-0.677	-	-	-	12	3.682	89.625	45.018	PAVEMENT_GENERAL	Urban	F	1011101000011101	0000000000000000	-	-	-	-	-	-	-	-	-	-	Terminate	
Unknown	46.98427	10/30/0116 10:37.03	00002819	23.798	Inter746t1-0	0.213	1	2	0.000	11.111	1.7	0.030	0.000	D	F	1626.0	0.064	0.174	-0.004	1503.807	1236.182	0.029	-	0.053	-0.550	-	-	-	12	3.695	87.926	60.804	PAVEMENT_GENERAL	Urban	F	1011101000011101	0000000000000000	-	-	-	-	-	-	-	-	-	-	Terminate	
Unknown	47.98429	10/30/0116 10:37.04	00002879	23.726	Inter746t1-0	0.268	1	2	0.000	11.111	0.9	0.169	0.000	D	F	1894.3	0.137	0.180	-0.001	1503.861	1259.889	0.026	-	0.015	0.037	-	-	-	12	3.649	86.573	62.987	PAVEMENT_GENERAL	Urban	F	1011101000011101	0000000000000000	-	-	-	-	-	-	-	-	-	-	Terminate	
Unknown	48.98431	10/30/0116 10:37.05	00002939	23.699	Inter746t1-0	0.352	1	2	0.000	11.111	0.9	0.250	0.000	D	F	2033.1	0.284	0.180	-0.005	1503.946	1283.570	0.026	-	0.055	0.161	-	-	-	12	3.597	85.245	63.283	PAVEMENT_GENERAL	Urban	F	1011101000011101	0000000000000000	-	-	-	-	-	-	-	-	-	-	Terminate	
Unknown	49.98433	10/30/0116 10:37.06	00002999	23.871	Inter746t1-0	0.452	1	2	0.000	11.111	0.1	0.247	0.000	D	F	2034.9	0.132	0.182	0.005	1504.045	1307.355	0.026	-	-0.041	0.162	-	-	-	12	3.511	83.814	55.164	PAVEMENT_GENERAL	Urban	F	1011101000011101	0000000000000000	-	-	-	-	-	-	-	-	-	-	Terminate	
Unknown	50.98435	10/30/0116 10:37.07	00003059	24.016	Inter746t1-0	0.494	1	2	0.000	11.111	-1.4	0.180	0.000	D	F	1927.8	359.942	0.180	0.015	1504.088	1331.302	0.026	-	-0.124	0.066	-	-	-	12	3.382	81.214	17.927	PAVEMENT_GENERAL	Urban	F	1011101000011101	0000000000000000	-	-	-	-	-	-	-	-	-	-	Terminate	
Unknown	51.98437	10/30/0116 10:37.08	00003119	23.444	Inter746t1-0	0.427	1	2	0.000	11.111	-1.5	0.000	0.000	D	F	1598.3	359.558	0.174	0.029	1504.020	1355.071	0.030	-	-0.202	-0.661	-	-	-	12	3.198	74.963	9.419	PAVEMENT_GENERAL	Urban	F	1011101000011101	0000000000000000	-	-	-	-	-	-	-	-	-	-	Terminate	
Unknown	52.98439	10/30/0116 10:37.09	00003179	20.890	Inter746t1-0	0.213	1	2	0.000	11.111	1.6	0.000	0.313	D	F	1365.6	359.339	0.119	-0.004	1503.806	1377.630	0.038	-	0.015	-4.123	-	-	-	12	3.159	65.990	7.452	PAVEMENT_GENERAL	Urban	F	1011101000011101	0000000000000000	-	-	-	-	-	-	-	-	-	-	Terminate	
Unknown	53.98441	10/30/0116 10:37.10	00003239	16.874	Inter746t1-0	-0.016	1	2	0.000	11.111	0.3	0.000	0.057	D	F	1143.3	359.034	0.186	0.011	1503.577	1396.221	0.032	L	-0.106	-1.320	-	-	-	12	3.494	58.957	10.289	PAVEMENT_GENERAL	Urban	F	1011101000111101	0000000000000000	-	-	-	-	-	-	-	-	-	-	Terminate	
Unknown	54.98443	10/30/0116 10:37.11	00003299	16.200	Inter749t9-0	-0.351	1	2	0.000	11.111	-22.6	0.000	0.000	D	F	1104.5	357.806	0.184	0.176	1503.243	1412.708	0.029	L	-1.184	-0.559	-	-	-	-	-	-	-	PAVEMENT_GENERAL	Urban	F	1011101000111101	0000000000000000	-	-	-	-	-	-	-	-	-	-	Terminate	
Unknown	55.98445	10/30/0116 10:37.12	00003359	15.642	Inter749t31-0	-0.983	1	1	355.052	11.111	4.5	0.000	0.000	D	F	1066.7	353.448	0.185	0.007	1501.972	1428.571	0.029	-	-0.208	-0.541	-	-	-	12	2.765	43.251	3.846	PAVEMENT_GENERAL	Urban	F	1011101000011101	0000000000000000	-	-	-	-	-	-	-	-	-	-	Terminate	
Unknown	56.98447	10/30/0116 10:37.13	00003419	14.611	Inter749t31-0	-1.093	1	1	355.852	11.111	27.2	0.000	0.200	D	F	972.5	357.056	0.113	-0.188	1500.564	1443.804	0.032	-	1.402	-2.843	-	-	-	12	2.071	30.264	2.110	PAVEMENT_GENERAL	Urban	F	1011101000011101	0000000000000000	-	-	-	-	-	-	-	-	-	-	Terminate	
Unknown	57.98449	10/30/0116 10:37.14	00003479	9.797	Inter749t31-0	-0.281	1	1	356.903	11.111	-9.1	0.000	0.391	D	F	897.1	1.148	0.037	0.011	1500.397	1456.149	0.040	-	0.028	-5.064	-	-	-	12	1.836	17.982	1.836	PAVEMENT_GENERAL	Urban	F	1011101000011101	0000000000000000	-	-	-	-	-	-	-	-	-	-	Terminate	
Unknown	58.98451	10/30/0116 10:37.15	00003539	4.837	Inter749t31-0	0.148	1	1	356.903	11.111	0.4	0.000	0.391	D	F	477.5	359.741	0.070	-0.020	1500.431	1463.462	0.039	-	0.040	-4.960	-	-	-	12	2.208	10.682	2.208	PAVEMENT_GENERAL	Urban	F	1011101000011101	0000000000000000	-	-	-	-	-	-	-	-	-	-	Terminate	
Unknown	59.98453	10/30/0116 10:37.16	00003599	0.382	Inter749t31-0	0.275	1	1	356.903	11.111	2.2	0.000	0.334	D	F	477.5	359.865	0.177	0.002	1500.425	1465.925	0.038	-	-0.005	-2.961	-	-	-	12	15.282	5.843	15.282	PAVEMENT_GENERAL	Urban	F	1011101000011101	0000000000000000	-	-	-	-	-	-	-	-	-	-	Terminate	
Unknown	60.98455	10/30/0116 10:37.17	00003659	-0.001	Inter749t31-0	0.277	1	1	356.903	11.111	-3.9	0.000	0.000	D	F	477.5	359.866	0.238	0.000	1500.425	1465.962	0.032	L	0.000	0.005	-	-	-	12	-	5.806	-	PAVEMENT_GENERAL	Urban	F	1011101000111101	0000000000000000	-	-	-	-	-	-	-	-	-	-	Terminate	
Unknown	61.98457	10/30/0116 10:37.18	00003719	0.011	Inter749t31-0	0.277	1	1	356.903	11.111	-1.5	0.000	0.000	D	F	477.5	359.865	0.205	0.000	1500.425	1465.967	0.025	L	0.001	0.000	-	-	-	12	533.479	5.801	533.479	PAVEMENT_GENERAL	Urban	F	1011101000111101	0000000000000000	-	-	-	-	-	-	-	-	-	-	Terminate	
Unknown	62.98459	10/30/0116 10:37.19	00003779	0.057	Inter749t31-0	0.279	1	1	356.903	11.111	9.3	0.000	0.000	D	F	477.5	359.877	0.203	0.000	1500.425	1465.989	0.024	L	-0.002	0.132	-	-	-	12	100.808	5.779	100.808	PAVEMENT_GENERAL	Urban	F	1011101000111101	0000000000000000	-	-	-	-	-	-	-	-	-	-	Terminate	
Unknown	63.98461	10/30/0116 10:37.20	00003839	0.256	Inter749t31-0	0.286	1	1	356.903	11.111	3.8	0.000	0.000	D	F	477.5	359.869	0.206	-0.001	1500.425	1466.141	0.025	L	0.007	0.205	-	-	-	12	21.970	5.628	21.970	PAVEMENT_GENERAL	Urban	F	1011101000111101	0000000000000000	-	-	-	-	-	-	-	-	-	-	Terminate	
Unknown	64.98463	10/30/0116 10:37.21	00003899	0.411	Inter749t31-0	0.305	1	1	356.903	11.111	5.0	0.000	0.000	D	F	477.5	359.911	0.204	-0.000	1500.425	1466.483	0.026	L	0.001	0.109	-	-	-	12	12.851	5.286	12.851	PAVEMENT_GENERAL	Urban	F	1011101000111101	0000000000000000	-	-	-	-	-	-	-	-	-	-	Terminate	
Unknown	65.98465	10/30/0116 10:37.22	00003959	0.483	Inter749t31-0	0.329	1	1	356.903	11.111	-2.2	0.000	0.000	D	F	477.5	359.923	0.204	0.001	1500.425	1466.935	0.026	L	-0.003	0.046	-	-	-	12	9.998	4.834	9.998	PAVEMENT_GENERAL	Urban	F	1011101000111101	0000000000000000	-	-	-	-	-	-	-	-	-	-	Terminate	
Unknown	66.98467	10/30/0116 10:37.23	00004019	0.516	Inter749t31-0	0.356	1	1	356.903	11.111	-0.4	0.000	0.000	D	F	477.5	359.921	0.204	-0.000	1500.424	1467.436	0.026	L	0.000	0.027	-	-	-	12	8.402	4.333	8.402	PAVEMENT_GENERAL	Urban	F	1011101000111101	0000000000000000	-	-	-	-	-	-	-	-	-	-	Terminate	
Unknown	67.98470	10/30/0116 10:37.24	00004079	0.006	Inter749t11-0	0.361	LT1	2	0.000	11.111	-0.8	0.000	0.000	D	F	477.5	359.919	0.222	0.000	1500.424	1467.605	0.028	L	-0.000	0.033	-	-	-	12	-	6.520	-	PAVEMENT_GENERAL	Urban	F	1011101000111101	0000000000000000	-	-	-	-	-	-	-	-	-	-	Terminate	
Unknown	68.98471	10/30/0116 10:37.25	00004139	0.087	Inter749t11-0	0.361	LT1	2	0.000	11.111	-0.9	0.000	0.000	D	F	477.5	359.918	0.207	0.000	1500.424	1467.637	0.025	L	-0.000	0.172	-	-	-	12	74.624	6.489	74.624	PAVEMENT_GENERAL	Urban	F	1011101000111101	0000000000000000	-	-	-	-	-	-	-	-	-	-	Terminate	
Unknown	69.98473	10/30/0116 10:37.26	00004199	0.292	Inter749t11-0	0.361	LT1	2	0.000	11.111	-0.9	0.000	0.024	D	F	477.5	359.915	0.205	0.000	1500.423	1467.827	0.025	L	-0.000	0.153	-	-	-	12	21.610	6.302	21.610	PAVEMENT_GENERAL	Urban	F	1011101000111101	0000000000000000	-	-	-	-	-	-	-	-	-	-	Terminate	
Unknown	70.98476	10/30/0116 10:37.27	00004259	-0.000	Inter749t11-0	0.361	LT1	2	0.000	11.111	-0.9	0.000	0.284	D	F	477.5	359.913	0.211	0.000	1500.423	1467.908	0.028	L	0.000	-0.002	-	-	-	12	-	6.416	-	PAVEMENT_GENERAL	Urban	F	1011101000111101	0000000000000000	-	-	-	-	-	-	-	-	-	-	Terminate	
Unknown	71.98477	10/30/0116 10:37.28	00004319	0.002	Inter749t11-0	0.361	LT1	2	0.000	11.111	-0.9	0.025	0.000	D	F	480.4	359.913	0.209	0.000	1500.423	1467.909	0.027	L	-0.000	0.011	-	-	-	12	-	8.297	-	PAVEMENT_GENERAL	Urban	F	1011101000111101	0000000000000000	-	-	-	-	-	-	-	-	-	-	Terminate	
Unknown	72.98479	10/30/0116 10:37.29	00004379	1.825	Inter749t11-0	0.360	LT1	2	0.000	11.111	-0.9	0.125	0.000	D	F	1332.1	359.901	0.235	0.000	1500.422	1468.482	0.013	L	-0.002	2.898	-	-	-	12	6.368	11.624	-	PAVEMENT_GENERAL	Urban	F	1011101000111101	0000000000000000	-	-	-	-	-	-	-	-	-	-	Terminate	
Unknown	73.98481	10/30/0116 10:37.30	00004439	4.482	Inter749t11-0	0.350	LT1	2	0.000	11.111	-1.2	0.180	0.000	D	F	1724.0	359.833	0.219	0.002	1500.413	1471.681	0.015	L	-0.010	2.265	-	-	-	12	3.194	14.315	-	PAVEMENT_GENERAL	Urban	F	1111101000111101	0000000000000000	-	-	-	-	-	-	-	-	-	-	Terminate	
Unknown	74.98483	10/30/0116 10:37.31	00004499	6.599	Inter749t11-0	0.310	LT1	2	0.000	11.111	-10.2	0.192	0.000	D	F	1902.0	359.408	0.226	0.024	1500.373	1477.276	0.017	L	-0.170	1.918	-	-	-	12	2.509	16.558	-	PAVEMENT_GENERAL	Urban	F	1011101000111101	0000000000000000	-	-	-	-	-	-	-	-	-	-	Terminate	
Unknown	75.98486	10/30/0116 10:37.32	00004559	8.087	Inter749t65-0	0.298	1	1	349.338	11.111	-32.6	0.201	0.000	D	F	1789.6	356.703	0.214	0.092	1500.106	1484.649	0.020	L	-0.674	1.339	-	-	-	12	2.256	18.245	-	PAVEMENT_GENERAL	Urban	F	1011101000111101	0000000000000000	-	-	-	-	-	-	-	-	-	-	Terminate	
Unknown	76.98487	10/30/0116 10:37.33	00004619	9.227	-Inter749t61-0	-0.461	-1	1	89.733	11.111	-128.2	0.185	0.000	D	F	1822.1	348.711	0.208	0.458	1499.011	1493.272	0.023	L	-3.233	0.786	-	-	-	12	2.452	22.625	-	PAVEMENT_GENERAL	Urban	F	1011101000111101	0000000000000000	-	-	-	-	-	-	-	-	-	-	Terminate	
Unknown	77.98489	10/30/0116 10:37.34	00004679	9.842	Inter749t75-0	-1.793	1	1	269.734	11.111	-199.2	0.138	0.000	D	F	1752.0	321.255	0.171	0.719	1494.826	1501.799	0.031	L	-5.495	0.002	-	-	-	12	2.585	25.439	-	PAVEMENT_GENERAL	Urban	F	1011101000111101	0000000000000000	-	-	-	-	-	-	-	-	-	-	Terminate	
Unknown	78.98492	10/30/0116 10:37.35	00004739	9.237	Inter749t77-0	-0.255	1	1	269.734	11.111	-211.0	0.035	0.000	D	F	1053.2	286.621	0.085	0.758	1486.852	1506.900	0.039	L	-5.777	-0.828	-	-	-	-	-	-	-	PAVEMENT_GENERAL	Urban	F	1111101000111101	0000000000000000	-	-	-	-	-	-	-	-	-	-	Terminate	
Unknown	79.98493	10/30/0116 10:37.36	00004799	9.472	Inter749t3-4	0.057	2	2	270.000	11.111	-1.4	0.125	0.000	D	F	1457.0	265.830	0.199	-0.002	1477.616	1507.188	0.024	-	-0.222	0.405	-	-	-	-	-	-	-	PAVEMENT_GENERAL	Urban	F	1011101000011101	0000000000000000	-	-	-	-	-	-	-	-	-	-	Terminate	
Unknown	80.98495	10/30/0116 10:37.37	00004859	9.864	Inter749t3-4	-0.298	2	2	270.000	11.111	-4.7	0.129	0.000	D	F	1473.2	269.579	0.201	0.038	1467.952	1506.832	0.025	-	-0.063	0.379	-	-	-	-	-	-	-	PAVEMENT_GENERAL	Urban	F	1011101000011101	0000000000000000	-	-	-	-	-	-	-	-	-	-	Terminate	
Unknown	81.98497	10/30/0116 10:37.38	00004919	10.252	Inter749t17-0	-0.542	1	1	270.090	11.111	0.7	0.127	0.000	D	F	1477.3	267.729	0.203	-0.002	1457.893	1506.599	0.025	-	-0.064	0.367	-	-	-	-	-	-	-	PAVEMENT_GENERAL	Urban	F	1011101000011101	0000000000000000	-	-	-	-	-	-	-	-	-	-	Terminate	
Unknown	82.98499	10/30/0116 10:37.39	00004979	10.614	Inter749t17-0	-0.863	1	1	270.104	11.111	3.6	0.127	0.000	D	F	1504.7	268.795	0.203	0.007	1447.464	1506.292	0.025	-	0.093	0.360	-	-	-	-	-	-	-	PAVEMENT_GENERAL	Urban	F	1011101000011101	0000000000000000	-	-	-	-	-	-	-	-	-	-	Terminate	
Unknown	83.98502	10/30/0116 10:37.40	00005039	11.125	Inter749t17-0	-0.973	1	1	270.070	11.111	4.3	0.171	0.000	D	F	1639.9	270.069	0.205	-0.015	1436.617	1506.204	0.024	-	0.144	0.581	-	-	-	-	-	-	-	PAVEMENT_GENERAL	Urban	F	1011101000011101	0000000000000000	-	-	-	-	-	-	-	-	-	-	Terminate	
Unknown	84.98503	10/30/0116 10:37.41	00005099	11.682	Inter749t17-0	-0.905	1	1	270.061	11.111	-4.0	0.162	0.000	D	F	1640.9	270.533	0.203	0.021	1425.208	1506.286	0.024	-	-0.097	0.503	-	-	-	-	-	-	-	PAVEMENT_GENERAL	Urban	F	1011101000011101	0000000000000000	-	-	-	-	-	-	-	-	-	-	Terminate	
Unknown	85.98505	10/30/0116 10:37.42	00005159	12.168	Inter749t1-3	-0.910	2	2	270.000	11.111	3.5	0.178	0.000	D	F	1697.5	269.644	0.204	-0.014	1413.282	1506.290	0.024	-	0.048	0.515	-	-	-	-	-	-	-	PAVEMENT_GENERAL	Urban	F	1011101000011101	0000000000000000	-	-	-	-	-	-	-	-	-	-	Terminate	
Unknown	86.98507	10/30/0116 10:37.43	00005219	12.808	Inter749t1-3	-0.867	2	2	270.000	11.111	-0.2	0.215	0.000	D	F	1820.6	270.825	0.204	-0.003	1400.810	1506.333	0.023	-	0.104	0.724	-	-	-	-	-	-	-	PAVEMENT_GENERAL	Urban	F	1011101000011101	0000000000000000	-	-	-	-	-	-	-	-	-	-	Terminate	
Unknown	87.98509	10/30/0116 10:37.44	00005279	13.550	Inter747t1-3	-0.755	2	2	270.000	11.111	-1.7	0.263	0.000	D	F	1910.9	270.053	0.206	0.012	1387.631	1506.452	0.023	-	-0.145	0.796	-	-	-	-	-	-	-	PAVEMENT_GENERAL	Urban	F	1011101000011101	0000000000000000	-	-	-	-	-	-	-	-	-	-	Terminate	
Unknown	88.98512	10/30/0116 10:37.45	00005339	14.405	Inter747t1-3	-0.739	2	2	270.000	11.111	0.0	0.323	0.000	D	F	2009.2	270.172	0.205	-0.003	1373.663	1506.468	0.022	-	0.030	0.909	-	-	-	-	-	-	-	PAVEMENT_GENERAL	Urban	F	1011101000011101	0000000000000000	-	-	-	-	-	-	-	-	-	-	Terminate	
Unknown	89.98513	10/30/0116 10:37.46	00005399	15.343	Inter747t1-3	-0.691	2	2	270.000	11.111	-0.8	0.437	0.000	D	F	2501.2	270.153	0.210	0.007	1358.801	1506.516	0.022	-	-0.042	1.164	-	-	-	-	-	-	-	PAVEMENT_GENERAL	Urban	F	1011101000011101	0000000000000000	-	-	-	-	-	-	-	-	-	-	Terminate	
Unknown	90.98515	10/30/0116 10:37.47	00005459	16.690	Inter747t1-3	-0.656	2	2	270.000	11.111	0.5	0.466	0.000	D	F	2878.5	270.164	0.207	-0.005	1342.800	1506.551	0.020	-	0.036	1.390	-	-	-	-	-	-	-	PAVEMENT_GENERAL	Urban	F	1011101000011101	0000000000000000	-	-	-	-	-	-	-	-	-	-	Terminate	
Unknown	91.98518	10/30/0116 10:37.48	00005519	18.119	Inter747t1-3	-0.609	2	2	270.000	11.111	-1.4	0.642	0.000	D	F	3111.8	270.049	0.205	0.013	1325.405	1506.598	0.020	-	-0.093	1.488	-	-	-	-	-	-	-	PAVEMENT_GENERAL	Urban	F	1011101000011101	0000000000000000	-	-	-	-	-	-	-	-	-	-	Terminate	
Unknown	92.98519	10/30/0116 10:37.49	00005579	19.591	Inter747t1-3	-0.634	2	2	270.000	11.111	3.1	0.638	0.000	D	F	3324.3	269.830	0.203	-0.016	1306.547	1506.573	0.020	-	0.079	1.457	-	-	-	-	-	-	-	PAVEMENT_GENERAL	Urban	F	1011101000011101	0000000000000000	-	-	-	-	-	-	-	-	-	-	Terminate	
Unknown	93.98521	10/30/0116 10:37.50	00005639	21.029	Inter747t1-3	-0.588	2	2	270.000	11.111	0.2	0.640	0.000	D	F	3526.5	270.537	0.199	-0.021	1286.234	1506.618	0.020	-	0.160	1.420	-	-	-	-	-	-	-	PAVEMENT_GENERAL	Urban	F	1011101000011101	0000000000000000	-	-	-	-	-	-	-	-	-	-	Terminate	
Unknown	94.98523	10/30/0116 10:37.51	00005699	22.429	Inter747t1-3	-0.465	2	2	270.000	11.111	1.5	0.640	0.000	D	F	3718.6	269.940	0.196	0.012	1264.502	1506.742	0.020	-	-0.112	1.381	-	-	-	-	-	-	-	PAVEMENT_GENERAL	Urban	F	1011101000011101	0000000000000000	-	-	-	-	-	-	-	-	-	-	Terminate	
Unknown	95.98525	10/30/0116 10:37.52	00005759	23.790	Inter747t1-3	-0.485	2	2	270.000	11.111	-0.4	0.638	0.000	D	F	3899.0	269.723	0.194	0.013	1241.389	1506.722	0.021	-	-0.132	1.342	-	-	-	-	-	-	-	PAVEMENT_GENERAL	Urban	F	1011101000011101	0000000000000000	-	-	-	-	-	-	-	-	-	-	Terminate	
Unknown	96.98528	10/30/0116 10:37.53	00005819	25.101	Inter747t1-3	-0.587	2	2	270.000	11.111	1.2	0.638	0.000	D	F	4067.1	269.704	0.190	-0.001	1216.938	1506.620	0.021	-	-0.002	1.282	-	-	-	-	-	-	-	PAVEMENT_GENERAL	Urban	F	1011101000011101	0000000000000000	-	-	-	-	-	-	-	-	-	-	Terminate	
Unknown	97.98529	10/30/0116 10:37.54	00005879	26.271	Inter748t1-3	-0.682	2	2	270.000	11.111	-1.7	0.637	0.000	D	F	3043.6	269.851	0.179	0.006	1191.208	1506.525	0.023	-	-0.042	0.800	-	-	-	-	-	-	-	PAVEMENT_GENERAL	Urban	F	1111101000011101	0000000000000000	-	-	-	-	-	-	-	-	-	-	Terminate	
Unknown	98.98531	10/30/0116 10:37.55	00005939	26.972	Inter748t1-3	-0.787	2	2	270.000	11.111	0.9	0.637	0.000	D	F	2987.0	269.730	0.180	-0.002	1164.578	1506.420	0.024	-	0.022	0.672	-	-	-	-	-	-	-	PAVEMENT_GENERAL	Urban	F	1011101000011101	0000000000000000	-	-	-	-	-	-	-	-	-	-	Terminate	
Unknown	99.98534	10/30/0116 10:37.56	00005999	27.630	Inter748t1-3	-0.893	2	2	270.000	11.111	1.3	0.623	0.000	D	F	3045.2	269.798	0.178	-0.003	1137.275	1506.313	0.024	-	0.035	0.649	-	-	-	-	-	-	-	PAVEMENT_GENERAL	Urban	F	1011101000011101	0000000000000000	-	-	-	-	-	-	-	-	-	-	Terminate	
Unknown	100.98535	10/30/0116 10:37.57	00006059	28.268	Inter748t1-3	-0.931	2	2	270.000	11.111	1.4	0.610	0.000	D	F	3103.4	270.131	0.177	-0.020	1109.324	1506.276	0.024	-	0.134	0.628	-	-	-	-	-	-	-	PAVEMENT_GENERAL	Urban	F	1011101000011101	0000000000000000	-	-	-	-	-	-	-	-	-	-	Terminate	
Unknown	101.98537	10/30/0116 10:37.58	00006119	28.729	Inter748t1-3	-0.885	2	2	270.000	11.111	-1.6	0.000	0.000	D	F	2323.0	269.916	0.132	0.024	1080.758	1506.322	0.026	-	-0.191	-0.678	-	-	-	-	-	-	-	PAVEMENT_GENERAL	Urban	F	1011101000011101	0000000000000000	-	-	-	-	-	-	-	-	-	-	Terminate	
Unknown	102.98539	10/30/0116 10:37.59	00006179	27.983	Inter748t1-3	-0.927	2	2	270.000	11.111	6.2	0.000	0.000	D	F	1914.0	270.394	0.162	-0.098	1052.400	1506.280	0.031	-	0.656	-0.749	-	-	-	-	-	-	-	PAVEMENT_GENERAL	Urban	F	1011101000011101	0000000000000000	-	-	-	-	-	-	-	-	-	-	Terminate	
Unknown	103.98541	10/30/0116 10:38.00	00006239	27.239	Inter748t1-3	-0.511	2	2	270.000	11.111	-1.7	0.000	0.000	D	F	1856.9	271.381	0.165	0.007	1024.794	1506.696	0.031	-	0.063	-0.733	-	-	-	-	-	-	-	PAVEMENT_GENERAL	Urban	F	1011101000011101	0000000000000000	-	-	-	-	-	-	-	-	-	-	Terminate	
Unknown	104.98544	10/30/0116 10:38.01	00006299	26.486	Inter752t1-3	-0.711	2	2	269.997	24.444	-6.1	0.000	0.000	D	F	1810.1	270.394	0.252	0.056	997.930	1507.188	0.033	-	-0.604	-0.850	-	-	-	-	-	-	-	FREEWAY_SMOOTH	Urban	F	1011101000011101	0000000000000000	-	-	-	-	-	-	-	-	-	-	Terminate	
Unknown	105.98545	10/30/0116 10:38.02	00006359	25.807	Inter752t1-3	-0.774	2	2	269.382	24.444	-3.5	0.000	0.000	D	F	1759.2	268.334	0.330	-0.567	971.787	1507.027	0.107	-	-0.770	-0.666	-	-	-	-	-	-	-	FREEWAY_SMOOTH	Urban	F	1011101000011101	0000000000000000	-	-	-	-	-	-	-	-	-	-	Terminate	
Unknown	106.98547	10/30/0116 10:38.03	00006419	25.161	Inter752t1-3	-1.046	2	2	267.612	24.444	-3.9	0.000	0.000	D	F	1715.3	267.340	0.335	-1.235	946.320	1506.113	0.179	-	-0.466	-0.648	-	-	-	-	-	-	-	FREEWAY_SMOOTH	Urban	F	1011101000011101	0000000000000000	-	-	-	-	-	-	-	-	-	-	Terminate	
Unknown	107.98550	10/30/0116 10:38.04	00006479	24.747	Inter752t1-3	-0.825	2	2	264.772	24.444	-13.1	0.090	0.000	D	F	1815.2	265.586	0.372	-1.743	921.425	1504.688	0.257	-	-1.227	-0.355	-	-	-	-	-	-	-	FREEWAY_SMOOTH	Urban	F	1011101000011101	0000000000000000	-	-	-	-	-	-	-	-	-	-	Terminate	
Unknown	108.98551	10/30/0116 10:38.05	00006539	24.405	Inter752t1-3	-0.499	2	2	260.941	24.444	-18.2	0.108	0.000	D	F	1825.2	260.187	0.315	-2.202	897.008	1501.952	0.345	-	-2.459	-0.281	-	-	-	-	-	-	-	FREEWAY_SMOOTH	Urban	F	1011101000011101	0000000000000000	-	-	-	-	-	-	-	-	-	-	Terminate	
Unknown	109.98553	10/30/0116 10:38.06	00006599	24.123	Inter752t1-3	-0.689	2	2	256.162	24.444	-14.6	0.097	0.000	D	F	1795.9	254.364	0.255	-2.786	873.278	1496.925	0.409	-	-2.421	-0.273	-	-	-	-	-	-	-	FREEWAY_SMOOTH	Urban	F	1011101000011101	0000000000000000	-	-	-	-	-	-	-	-	-	-	Terminate	
Unknown	110.98555	10/30/0116 10:38.07	00006659	23.885	Inter752t1-3	-0.910	2	2	250.447	24.444	-17.5	0.132	0.000	D	F	1828.7	249.900	0.104	-3.215	850.374	1489.780	0.448	-	-2.143	-0.223	-	-	-	-	-	-	-	FREEWAY_SMOOTH	Urban	F	1011101000011101	0000000000000000	-	-	-	-	-	-	-	-	-	-	Terminate	
Unknown	111.98557	10/30/0116 10:38.08	00006719	23.676	Inter752t1-3	-0.690	2	2	244.599	24.444	-22.2	0.145	0.000	D	F	1843.6	244.791	0.184	-3.184	828.348	1480.828	0.461	-	-2.440	-0.179	-	-	-	-	-	-	-	FREEWAY_SMOOTH	Urban	F	1011101000011101	0000000000000000	-	-	-	-	-	-	-	-	-	-	Terminate	
Unknown	112.98560	10/30/0116 10:38.09	00006779	23.399	Inter752t1-3	-0.525	2	2	238.825	24.444	-19.1	0.111	0.000	D	F	1769.8	237.634	0.101	-3.163	807.581	1469.747	0.472	-	-2.734	-0.259	-	-	-	-	-	-	-	FREEWAY_SMOOTH	Urban	F	1011101000011101	0000000000000000	-	-	-	-	-	-	-	-	-	-	Terminate	
Unknown	113.98561	10/30/0116 10:38.10	00006839	23.119	Inter752t1-3	-0.666	2	2	233.077	24.444	-12.7	0.113	0.000	D	F	1756.9	232.376	0.143	-3.276	788.444	1456.543	0.463	-	-1.812	-0.249	-	-	-	-	-	-	-	FREEWAY_SMOOTH	Urban	F	1011101000011101	0000000000000000	-	-	-	-	-	-	-	-	-	-	Terminate	
Unknown	114.98563	10/30/0116 10:38.11	00006899	22.859	Inter752t1-3	-0.342	2	2	227.376	24.444	-24.9	0.106	0.000	D	F	1734.2	228.690	0.263	-3.230	770.617	1442.025	0.482	-	-2.025	-0.279	-	-	-	-	-	-	-	FREEWAY_SMOOTH	Urban	F	1011101000011101	0000000000000000	-	-	-	-	-	-	-	-	-	-	Terminate	
Unknown	115.98566	10/30/0116 10:38.12	00006959	22.537	Inter752t1-3	0.007	2	2	221.834	24.444	-15.6	0.111	0.000	D	F	1717.7	220.594	0.089	-3.162	754.497	1426.069	0.504	-	-2.697	-0.242	-	-	-	-	-	-	-	FREEWAY_SMOOTH	Urban	F	1011101000011101	0000000000000000	-	-	-	-	-	-	-	-	-	-	Terminate	
Unknown	116.98567	10/30/0116 10:38.13	00007019	22.273	Inter752t1-3	-0.210	2	2	216.328	24.444	-21.3	0.111	0.000	D	F	1706.6	214.411	0.064	-3.167	740.614	1408.493	0.491	-	-2.637	-0.230	-	-	-	-	-	-	-	FREEWAY_SMOOTH	Urban	F	1011101000011101	0000000000000000	-	-	-	-	-	-	-	-	-	-	Terminate	
Unknown	117.98569	10/30/0116 10:38.14	00007079	22.036	Inter752t1-3	-0.697	2	2	210.834	24.444	-4.4	0.122	0.000	D	F	1719.0	209.468	0.102	-3.378	728.841	1389.735	0.461	-	-1.233	-0.199	-	-	-	-	-	-	-	FREEWAY_SMOOTH	Urban	F	1011101000011101	0000000000000000	-	-	-	-	-	-	-	-	-	-	Terminate	
Unknown	118.98571	10/30/0116 10:38.15	00007139	21.846	Inter752t1-3	-0.457	2	2	205.398	24.444	-18.4	0.123	0.000	D	F	1715.1	207.367	0.312	-3.321	718.348	1370.462	0.475	-	-1.364	-0.204	-	-	-	-	-	-	-	FREEWAY_SMOOTH	Urban	F	1011101000011101	0000000000000000	-	-	-	-	-	-	-	-	-	-	Terminate	
Unknown	119.98573	10/30/0116 10:38.16	00007199	21.604	Inter752t1-3	0.149	2	2	200.093	24.444	-34.9	0.125	0.000	D	F	1702.1	198.967	0.108	-3.028	709.462	1350.646	0.513	-	-3.662	-0.186	-	-	-	-	-	-	-	FREEWAY_SMOOTH	Urban	F	1011101000011101	0000000000000000	-	-	-	-	-	-	-	-	-	-	Terminate	
Unknown	120.98576	10/30/0116 10:38.17	00007259	21.377	Inter752t1-3	-0.384	2	2	194.886	24.444	-6.3	0.122	0.000	D	F	1691.6	192.768	-0.107	-3.052	703.597	1329.986	0.441	-	-1.236	-0.201	-	-	-	-	-	-	-	FREEWAY_SMOOTH	Urban	F	1011101000011101	0000000000000000	-	-	-	-	-	-	-	-	-	-	Terminate	
Unknown	121.98577	10/30/0116 10:38.18	00007319	21.170	Inter752t1-3	-0.592	2	2	190.451	24.444	-16.4	0.131	0.000	D	F	1691.9	190.781	0.026	-2.518	699.205	1309.171	0.365	-	-1.193	-0.199	-	-	-	-	-	-	-	FREEWAY_SMOOTH	Urban	F	1011101000011101	0000000000000000	-	-	-	-	-	-	-	-	-	-	Terminate	
Unknown	122.98579	10/30/0116 10:38.19	00007379	20.976	Inter752t1-3	-0.588	2	2	186.815	24.444	-11.6	0.150	0.000	D	F	1731.7	185.897	-0.033	-1.980	696.100	1288.338	0.300	-	-1.376	-0.127	-	-	-	-	-	-	-	FREEWAY_SMOOTH	Urban	F	1011101000011101	0000000000000000	-	-	-	-	-	-	-	-	-	-	Terminate	
Unknown	123.98581	10/30/0116 10:38.20	00007439	20.512	Inter752t1-3	-0.799	2	2	183.973	24.444	-7.2	0.000	0.000	D	F	1398.5	183.053	-0.023	-1.518	694.405	1267.612	0.232	-	-0.952	-0.662	-	-	-	-	-	-	-	FREEWAY_SMOOTH	Urban	F	1011101000011101	0000000000000000	-	-	-	-	-	-	-	-	-	-	Terminate	
Unknown	124.98583	10/30/0116 10:38.21	00007499	20.134	Inter752t1-3	-0.928	2	2	181.927	24.444	-5.7	0.120	0.000	D	F	1630.1	182.085	0.022	-1.097	693.531	1247.346	0.166	-	-0.316	-0.214	-	-	-	-	-	-	-	FREEWAY_SMOOTH	Urban	F	1011101000011101	0000000000000000	-	-	-	-	-	-	-	-	-	-	Terminate	
Unknown	125.98586	10/30/0116 10:38.22	00007559	19.882	Inter752t1-3	-1.003	2	2	180.622	24.444	-12.2	0.099	0.000	D	F	1572.3	179.238	-0.008	-0.489	693.193	1227.332	0.106	-	-1.144	-0.267	-	-	-	-	-	-	-	FREEWAY_SMOOTH	Urban	F	1011101000011101	0000000000000000	-	-	-	-	-	-	-	-	-	-	Terminate	
Unknown	126.98587	10/30/0116 10:38.23	00007619	19.683	Inter752t1-3	-1.765	2	2	180.037	24.444	-0.9	0.141	0.000	D	F	1669.8	177.167	0.028	-0.117	693.866	1207.579	0.045	-	-0.132	-0.087	-	-	-	-	-	-	-	FREEWAY_SMOOTH	Urban	F	1011101000011101	0000000000000000	-	-	-	-	-	-	-	-	-	-	Terminate	
Unknown	127.98589	10/30/0116 10:38.24	00007679	19.760	Inter754t3-2	1.560	1	2	180.000	11.111	4.4	0.254	0.000	D	F	1907.1	177.250	0.193	-0.016	694.833	1187.916	0.026	-	0.159	0.301	-	-	-	Ambient351	2.594	51.248	5.917	PAVEMENT_GENERAL	Urban	F	1011101000011101	0000000000000000	-	-	-	-	-	-	-	-	-	-	Terminate	
Unknown	128.98592	10/30/0116 10:38.25	00007739	20.066	Inter754t3-2	0.756	1	2	180.000	11.111	5.5	0.236	0.000	D	F	1900.6	178.245	0.190	-0.050	695.637	1168.016	0.025	-	0.337	0.295	-	-	-	Ambient329	9.633	193.292	21.300	PAVEMENT_GENERAL	Urban	F	1011101000011101	0000000000000000	-	-	-	-	-	-	-	-	-	-	Terminate	
Unknown	129.98593	10/30/0116 10:38.26	00007799	20.364	Inter754t3-2	0.303	1	2	180.000	11.111	-0.1	0.245	0.000	D	F	1921.4	179.252	0.189	-0.007	696.090	1147.807	0.025	-	0.135	0.301	-	-	-	Ambient329	9.039	184.074	19.640	PAVEMENT_GENERAL	Urban	F	1011101000011101	0000000000000000	-	-	-	-	-	-	-	-	-	-	Terminate	
Unknown	130.98595	10/30/0116 10:38.27	00007859	20.659	Inter754t3-2	0.015	1	2	180.000	11.111	2.9	0.245	0.000	D	F	1930.1	179.379	0.189	-0.030	696.378	1127.296	0.025	-	0.199	0.287	-	-	-	Ambient351	1.269	26.219	2.743	PAVEMENT_GENERAL	Urban	F	1011101000011101	0000000000000000	-	-	-	-	-	-	-	-	-	-	Terminate	
Unknown	131.98598	10/30/0116 10:38.28	00007919	20.941	Inter754t3-2	-0.168	1	2	180.000	11.111	1.5	0.249	0.000	D	F	1941.3	179.586	0.189	-0.011	696.561	1106.497	0.025	-	0.057	0.278	-	-	-	Ambient351	0.789	16.518	1.678	PAVEMENT_GENERAL	Urban	F	1011101000011101	0000000000000000	-	-	-	-	-	-	-	-	-	-	Terminate	
Unknown	132.98599	10/30/0116 10:38.29	00007979	21.209	Inter754t9-0	-0.298	1	1	179.991	11.111	-2.9	0.245	0.000	D	F	1947.4	179.644	0.188	0.018	696.693	1085.421	0.026	-	-0.105	0.261	-	-	-	Ambient351	0.309	6.543	0.647	PAVEMENT_GENERAL	Urban	F	1011101000011101	0000000000000000	-	-	-	-	-	-	-	-	-	-	Terminate	
Unknown	133.98601	10/30/0116 10:38.30	00008039	21.464	Inter754t9-0	-0.458	1	1	179.989	11.111	2.5	0.236	0.000	D	F	1947.4	179.601	0.187	-0.019	696.856	1064.083	0.026	-	0.115	0.242	-	-	-	Ambient351	-0.174	-3.736	-0.341	PAVEMENT_GENERAL	Urban	F	1011101000011101	0000000000000000	-	-	-	-	-	-	-	-	-	-	Terminate	
Unknown	134.98604	10/30/0116 10:38.31	00008099	21.688	Inter754t9-0	-0.526	1	1	179.994	11.111	1.0	0.229	0.000	D	F	1950.6	179.983	0.187	-0.005	696.928	1042.506	0.026	-	0.049	0.219	-	-	-	Ambient329	6.163	133.667	12.496	PAVEMENT_GENERAL	Urban	F	1011101000011101	0000000000000000	-	-	-	-	-	-	-	-	-	-	Terminate	
Unknown	135.98605	10/30/0116 10:38.32	00008159	21.901	Inter754t9-0	-0.490	1	1	179.996	11.111	-2.2	0.228	0.000	D	F	1955.6	180.220	0.186	0.013	696.893	1020.711	0.026	-	-0.039	0.208	-	-	-	Ambient329	5.505	120.561	11.051	PAVEMENT_GENERAL	Urban	F	1011101000011101	0000000000000000	-	-	-	-	-	-	-	-	-	-	Terminate	
Unknown	136.98607	10/30/0116 10:38.33	00008219	22.096	Inter686t1-0	-0.452	1	1	180.000	11.111	-1.1	0.217	0.000	D	F	1937.5	180.045	0.185	0.008	696.848	998.709	0.026	-	-0.057	0.163	-	-	-	Ambient329	5.065	111.906	10.078	PAVEMENT_GENERAL	Urban	F	1011101000011101	0000000000000000	-	-	-	-	-	-	-	-	-	-	Terminate	
Unknown	137.98610	10/30/0116 10:38.34	00008279	22.194	Inter686t1-0	-0.450	1	1	180.000	11.111	-1.6	0.150	0.000	D	F	1776.2	179.992	0.179	0.006	696.846	976.548	0.027	-	-0.044	-0.088	-	-	-	Ambient329	4.539	100.734	8.992	PAVEMENT_GENERAL	Urban	F	1011101000011101	0000000000000000	-	-	-	-	-	-	-	-	-	-	Terminate	
Unknown	138.98611	10/30/0116 10:38.35	00008339	22.082	Inter686t1-0	-0.511	1	1	180.000	11.111	2.2	0.141	0.000	D	F	1764.1	179.670	0.182	-0.001	696.907	954.412	0.027	-	0.003	-0.107	-	-	-	Ambient329	4.057	89.588	8.078	PAVEMENT_GENERAL	Urban	F	1011101000011101	0000000000000000	-	-	-	-	-	-	-	-	-	-	Terminate	
Unknown	139.98613	10/30/0116 10:38.36	00008399	21.933	Inter686t1-0	-0.551	1	1	180.000	11.111	2.2	0.131	0.000	D	F	1734.7	180.192	0.182	-0.023	696.947	932.400	0.028	-	0.178	-0.160	-	-	-	Ambient329	3.582	78.566	7.181	PAVEMENT_GENERAL	Urban	F	1011101000011101	0000000000000000	-	-	-	-	-	-	-	-	-	-	Terminate	
Unknown	140.98616	10/30/0116 10:38.37	00008459	21.768	Inter686t1-0	-0.453	1	1	180.000	11.111	-0.3	0.116	0.000	D	F	1699.3	180.272	0.182	0.002	696.849	910.539	0.028	-	-0.023	-0.197	-	-	-	Ambient329	3.110	67.696	6.282	PAVEMENT_GENERAL	Urban	F	1011101000011101	0000000000000000	-	-	-	-	-	-	-	-	-	-	Terminate	
Unknown	141.98618	10/30/0116 10:38.38	00008519	21.506	Inter686t1-0	-0.404	1	1	180.000	11.111	-3.2	0.000	0.000	D	F	1466.5	179.789	0.164	0.036	696.800	888.870	0.029	-	-0.272	-0.635	-	-	-	Ambient329	2.651	57.016	5.422	PAVEMENT_GENERAL	Urban	F	1011101000011101	0000000000000000	-	-	-	-	-	-	-	-	-	-	Terminate	
Unknown	142.98619	10/30/0116 10:38.39	00008579	20.883	Inter686t1-0	-0.512	1	1	180.000	11.111	4.2	0.000	0.000	D	F	1423.9	180.011	0.179	-0.049	696.909	867.676	0.030	-	0.379	-0.618	-	-	-	Ambient329	2.242	46.812	4.732	PAVEMENT_GENERAL	Urban	F	1011101000011101	0000000000000000	-	-	-	-	-	-	-	-	-	-	Terminate	
Unknown	143.98621	10/30/0116 10:38.40	00008639	19.166	Inter686t1-0	-0.399	1	1	180.000	11.111	-1.5	0.000	0.152	D	F	1279.7	180.471	0.149	0.009	696.795	847.419	0.034	-	-0.052	-2.497	-	-	-	Ambient329	1.959	37.546	4.593	PAVEMENT_GENERAL	Urban	F	1011101000011101	0000000000000000	-	-	-	-	-	-	-	-	-	-	Terminate	
Unknown	144.98624	10/30/0116 10:38.41	00008699	17.197	Inter686t1-0	-0.342	1	1	180.000	11.111	0.8	0.000	0.033	D	F	1167.0	179.790	0.179	0.010	696.738	829.335	0.031	-	-0.088	-1.166	-	-	-	Ambient329	1.771	30.451	4.907	PAVEMENT_GENERAL	Urban	F	1011101000011101	0000000000000000	-	-	-	-	-	-	-	-	-	-	Terminate	
Unknown	145.98625	10/30/0116 10:38.42	00008759	16.613	Inter686t1-0	-0.354	1	1	180.000	11.111	1.5	0.000	0.000	D	F	1132.9	180.211	0.187	-0.017	696.751	812.442	0.029	-	0.138	-0.553	-	-	-	Ambient329	1.478	24.549	4.367	PAVEMENT_GENERAL	Urban	F	1011101000011101	0000000000000000	-	-	-	-	-	-	-	-	-	-	Terminate	
Unknown	146.98627	10/30/0116 10:38.43	00008819	15.746	Inter682t1-1	-0.251	1	1	180.000	11.111	-1.5	0.000	0.164	D	F	1049.3	180.320	0.096	0.007	696.655	796.130	0.031	-	-0.074	-2.680	-	-	-	Ambient329	1.221	19.227	4.044	PAVEMENT_GENERAL	Urban	F	1011101000011101	0000000000000000	-	-	-	-	-	-	-	-	-	-	Terminate	
Unknown	147.98630	10/30/0116 10:38.44	00008879	13.562	Inter682t1-1	-0.222	1	1	180.000	11.111	0.4	0.000	0.125	D	F	909.5	179.798	0.162	0.002	696.626	781.501	0.032	-	-0.070	-2.056	-	-	-	Ambient329	1.149	15.588	6.063	PAVEMENT_GENERAL	Urban	F	1111101000011101	0000000000000000	-	-	-	-	-	-	-	-	-	-	Terminate	
Unknown	148.98631	10/30/0116 10:38.45	00008939	11.787	Inter682t1-1	-0.233	1	1	180.000	11.111	0.5	0.000	0.000	D	F	1144.7	180.137	0.205	-0.005	696.637	768.918	0.030	-	0.056	-0.690	-	-	-	Ambient329	1.187	13.994	17.588	PAVEMENT_GENERAL	Urban	F	1011101000011101	0000000000000000	-	-	-	-	-	-	-	-	-	-	Terminate	
Unknown	149.98633	10/30/0116 10:38.46	00008999	11.387	Inter682t1-1	-0.232	1	1	180.000	11.111	-0.9	0.049	0.000	D	F	1265.2	179.821	0.192	0.003	696.636	757.372	0.027	-	-0.044	-0.231	-	-	-	Ambient329	1.180	13.439	33.950	PAVEMENT_GENERAL	Urban	F	1011101000011101	0000000000000000	-	-	-	-	-	-	-	-	-	-	Terminate	
Unknown	150.98636	10/30/0116 10:38.47	00009059	11.133	Inter682t1-1	-0.252	1	1	180.000	11.111	1.3	0.048	0.000	D	F	1233.1	180.062	0.197	-0.007	696.656	746.108	0.027	-	0.056	-0.208	-	-	-	Ambient329	1.182	13.164	93.105	PAVEMENT_GENERAL	Urban	F	1011101000011101	0000000000000000	-	-	-	-	-	-	-	-	-	-	Terminate	
Unknown	151.98637	10/30/0116 10:38.48	00009119	11.109	Inter682t1-1	-0.245	1	1	180.000	11.111	1.2	0.095	0.000	D	F	1420.9	180.034	0.201	-0.005	696.649	735.019	0.026	-	0.037	0.098	-	-	-	Ambient329	1.176	13.066	111.431	PAVEMENT_GENERAL	Urban	F	1011101000011101	0000000000000000	-	-	-	-	-	-	-	-	-	-	Terminate	
Unknown	152.98639	10/30/0116 10:38.49	00009179	11.296	Inter682t1-1	-0.234	1	1	180.000	11.111	-2.2	0.129	0.000	D	F	1528.1	179.989	0.201	0.011	696.638	723.830	0.025	-	-0.070	0.267	-	-	-	Ambient329	1.139	12.866	42.169	PAVEMENT_GENERAL	Urban	F	1011101000011101	0000000000000000	-	-	-	-	-	-	-	-	-	-	Terminate	
Unknown	153.98642	10/30/0116 10:38.50	00009239	11.807	Inter682t1-1	-0.269	1	1	180.000	11.111	-1.1	0.176	0.000	D	F	1681.2	179.699	0.204	0.006	696.673	712.303	0.024	-	-0.045	0.579	-	-	-	Ambient329	1.044	12.329	15.108	PAVEMENT_GENERAL	Urban	F	1011101000011101	0000000000000000	-	-	-	-	-	-	-	-	-	-	Terminate	
Unknown	154.98643	10/30/0116 10:38.51	00009299	12.240	Inter682t1-1	-0.307	1	1	180.000	11.111	0.5	0.093	0.000	D	F	1510.2	179.998	0.197	0.001	696.711	700.251	0.025	-	0.035	0.213	-	-	-	Ambient329	0.921	11.268	9.027	PAVEMENT_GENERAL	Urban	F	1011101000011101	0000000000000000	-	-	-	-	-	-	-	-	-	-	Terminate	
Unknown	155.98645	10/30/0116 10:38.52	00009359	11.805	Inter682t1-1	-0.279	1	1	180.000	11.111	-2.2	0.000	0.000	D	F	1159.7	180.202	0.193	0.010	696.683	688.190	0.029	-	-0.059	-0.525	-	-	-	Ambient329	0.864	10.197	12.538	PAVEMENT_GENERAL	Urban	F	1011101000011101	0000000000000000	-	-	-	-	-	-	-	-	-	-	Terminate	
Unknown	156.98647	10/30/0116 10:38.53	00009419	10.861	Inter682t1-1	-0.281	1	1	180.000	11.111	1.5	0.000	0.000	D	F	1067.6	179.905	0.205	-0.007	696.685	676.829	0.029	-	0.037	-0.511	-	-	-	Ambient329	0.905	9.825	-	PAVEMENT_GENERAL	Urban	F	1011101000011101	0000000000000000	-	-	-	-	-	-	-	-	-	-	Terminate	
Unknown	157.98650	10/30/0116 10:38.54	00009479	10.353	Inter682t1-1	-0.282	1	1	180.000	11.111	0.7	0.000	0.000	D	F	1017.3	180.028	0.195	-0.005	696.686	666.222	0.029	-	0.023	-0.504	-	-	-	Ambient329	0.986	10.208	-	PAVEMENT_GENERAL	Urban	F	1011101000011101	0000000000000000	-	-	-	-	-	-	-	-	-	-	Terminate	
Unknown	158.98651	10/30/0116 10:38.55	00009539	9.998	Inter682t1-1	-0.278	1	1	180.000	11.111	-0.2	0.028	0.000	D	F	1078.1	179.982	0.197	0.001	696.682	656.062	0.028	-	-0.009	-0.305	-	-	-	Ambient329	1.104	11.039	-	PAVEMENT_GENERAL	Urban	F	1011101000011101	0000000000000000	-	-	-	-	-	-	-	-	-	-	Terminate	
Unknown	159.98653	10/30/0116 10:38.56	00009599	9.836	Inter682t1-1	-0.282	1	1	180.000	11.111	-0.3	0.063	0.000	D	F	1217.0	179.970	0.200	0.001	696.686	646.168	0.027	-	-0.009	-0.069	-	-	-	Ambient329	1.234	12.134	-	PAVEMENT_GENERAL	Urban	F	1011101000011101	0000000000000000	-	-	-	-	-	-	-	-	-	-	Terminate	
Unknown	160.98656	10/30/0116 10:38.57	00009659	9.893	Inter682t1-1	-0.286	1	1	180.000	11.111	-1.4	0.095	0.000	D	F	1357.8	179.988	0.203	0.006	696.690	636.314	0.026	-	-0.030	0.132	-	-	-	Ambient329	1.341	13.270	-	PAVEMENT_GENERAL	Urban	F	1011101000011101	0000000000000000	-	-	-	-	-	-	-	-	-	-	Terminate	
Unknown	161.98657	10/30/0116 10:38.58	00009719	10.449	Inter682t1-1	-0.296	1	1	180.000	11.111	2.7	0.168	0.000	D	F	1610.8	180.071	0.206	-0.012	696.699	626.173	0.023	-	0.085	0.620	-	-	-	Ambient329	1.351	14.119	-	PAVEMENT_GENERAL	Urban	F	1011101000011101	0000000000000000	-	-	-	-	-	-	-	-	-	-	Terminate	
Unknown	162.98659	10/30/0116 10:38.59	00009779	11.058	Inter682t1-1	-0.249	1	1	180.000	11.111	1.0	0.171	0.000	D	F	1643.2	180.362	0.205	-0.007	696.653	615.419	0.024	-	0.042	0.597	-	-	-	Ambient329	1.298	14.356	216.271	PAVEMENT_GENERAL	Urban	F	1011101000011101	0000000000000000	-	-	-	-	-	-	-	-	-	-	Terminate	
Unknown	163.98662	10/30/0116 10:39.00	00009839	11.625	Inter682t1-1	-0.205	1	1	180.000	11.111	0.4	0.169	0.000	D	F	1657.9	180.101	0.204	-0.003	696.609	604.074	0.024	-	0.006	0.550	-	-	-	Ambient329	1.176	13.668	5.942	PAVEMENT_GENERAL	Urban	F	1011101000011101	0000000000000000	-	-	-	-	-	-	-	-	-	-	Terminate	
Unknown	164.98663	10/30/0116 10:39.01	00009899	11.325	Inter688t25-1	-0.232	1	1	180.000	11.111	5.8	0.000	0.104	D	F	1096.7	179.749	0.152	-0.024	696.628	592.414	0.029	-	0.125	-1.664	-	-	-	Ambient329	0.956	10.828	5.413	PAVEMENT_GENERAL	Urban	F	1011101000011101	0000000000000000	-	-	-	-	-	-	-	-	-	-	Terminate	
Unknown	165.98665	10/30/0116 10:39.02	00009959	9.253	Inter688t29-0	-0.208	1	1	180.072	11.111	-4.5	0.000	0.000	D	F	910.5	180.185	0.196	0.016	696.603	582.176	0.031	-	-0.121	-0.820	-	-	-	Ambient329	1.122	10.380	-	PAVEMENT_GENERAL	Urban	F	1011101000011101	0000000000000000	-	-	-	-	-	-	-	-	-	-	Terminate	
Unknown	166.98668	10/30/0116 10:39.03	00010019	8.826	Inter688t29-0	-0.271	1	1	180.100	11.111	-9.0	0.032	0.000	D	F	1013.5	179.234	0.200	0.029	696.655	573.159	0.028	-	-0.225	-0.248	-	-	-	Ambient329	1.333	11.768	-	PAVEMENT_GENERAL	Urban	F	1011101000011101	0000000000000000	-	-	-	-	-	-	-	-	-	-	Terminate	
Unknown	167.98669	10/30/0116 10:39.04	00010079	8.560	Inter688t29-0	-0.564	1	1	180.070	11.111	-27.3	0.026	0.000	D	F	970.9	177.123	0.196	0.093	696.934	564.468	0.028	-	-0.667	-0.281	-	-	-	Ambient329	1.630	13.955	-	PAVEMENT_GENERAL	Urban	F	1011101000011101	0000000000000000	-	-	-	-	-	-	-	-	-	-	Terminate	
Unknown	168.98671	10/30/0116 10:39.05	00010139	8.406	Inter688t33-0	1.318	1	1	176.027	11.111	-0.1	0.093	0.000	D	F	1284.4	173.627	0.204	0.001	697.726	556.045	0.027	-	-0.006	0.081	-	-	-	Ambient329	1.963	16.503	-	PAVEMENT_GENERAL	Urban	F	1011101000011101	0000000000000000	-	-	-	-	-	-	-	-	-	-	Terminate	
Unknown	169.98674	10/30/0116 10:39.06	00010199	8.891	Inter688t33-0	1.024	1	1	176.027	11.111	13.7	0.134	0.000	D	F	1457.4	174.640	0.202	-0.039	698.616	547.468	0.024	-	0.322	0.512	-	-	-	Ambient329	1.589	14.130	6.144	PAVEMENT_GENERAL	Urban	F	1011101000011101	0000000000000000	-	-	-	-	-	-	-	-	-	-	Terminate	
Unknown	170.98676	10/30/0116 10:39.07	00010259	9.063	Inter688t27-1	0.758	LT1	1	179.909	11.111	21.9	0.000	0.000	D	F	890.6	177.660	0.184	-0.083	699.201	538.417	0.028	-	0.601	-0.491	-	-	-	-	-	-	-	PAVEMENT_GENERAL	Urban	F	1011101000011101	0000000000000000	-	-	-	-	-	-	-	-	-	-	Terminate	
Unknown	171.98677	10/30/0116 10:39.08	00010319	7.713	Inter688t27-1	0.628	LT1	1	179.909	11.111	1.2	0.000	0.185	D	F	738.7	179.386	0.151	0.004	699.345	529.768	0.033	-	0.026	-2.779	-	-	-	-	-	-	-	PAVEMENT_GENERAL	Urban	F	1011101000011101	0000000000000000	-	-	-	-	-	-	-	-	-	-	Terminate	
Unknown	172.98679	10/30/0116 10:39.09	00010379	3.735	Inter688t27-1	0.588	LT1	1	179.909	11.111	-1.6	0.000	0.343	D	F	477.5	179.549	0.118	0.005	699.394	523.880	0.039	-	-0.019	-4.491	-	-	-	-	-	-	-	PAVEMENT_GENERAL	Urban	F	1011101000011101	0000000000000000	-	-	-	-	-	-	-	-	-	-	Terminate	
Unknown	173.98682	10/30/0116 10:39.10	00010439	1.978	Inter688t27-1	0.564	LT1	1	179.909	11.111	-5.0	0.000	0.000	D	F	523.9	179.347	0.205	0.000	699.422	521.432	0.029	-	0.002	-0.489	-	-	-	-	-	-	-	PAVEMENT_GENERAL	Urban	F	1111101000011101	0000000000000000	-	-	-	-	-	-	-	-	-	-	Terminate	
Unknown	174.98683	10/30/0116 10:39.11	00010499	1.653	Inter688t27-1	0.540	LT1	1	179.909	11.111	-5.9	0.101	0.000	D	F	1195.0	179.187	0.232	0.002	699.449	519.671	0.028	-	-0.010	1.091	-	-	-	-	-	-	-	PAVEMENT_GENERAL	Urban	F	1011101000011101	0000000000000000	-	-	-	-	-	-	-	-	-	-	Terminate	
Unknown	175.98685	10/30/0116 10:39.12	00010559	3.519	Inter688t59-0	0.543	1	1	174.167	11.111	-9.7	0.095	0.000	D	F	1368.0	178.740	0.220	0.006	699.507	517.034	0.018	-	-0.046	1.585	-	-	-	-	-	-	-	PAVEMENT_GENERAL	Urban	F	1011101000011101	0000000000000000	-	-	-	-	-	-	-	-	-	-	Terminate	
Unknown	176.98688	10/30/0116 10:39.13	00010619	3.880	Inter688t59-0	1.133	1	1	163.815	11.111	3.6	0.000	0.000	D	F	646.0	178.636	0.192	0.002	699.608	513.141	0.027	-	-0.015	-0.430	-	-	-	Ambient373	7.702	29.886	-	PAVEMENT_GENERAL	Urban	F	1011101000011101	0000000000000000	-	-	-	-	-	-	-	-	-	-	Terminate	
Unknown	177.98689	10/30/0116 10:39.14	00010679	2.472	-Inter688t41-0	-0.494	-1	1	37.336	11.111	-8.2	0.000	0.170	D	F	477.5	178.510	0.149	0.003	699.693	509.720	0.032	-	-0.023	-2.488	-	-	-	Ambient373	15.712	38.844	-	PAVEMENT_GENERAL	Urban	F	1011101000011101	0000000000000000	-	-	-	-	-	-	-	-	-	-	Terminate	
Unknown	178.98691	10/30/0116 10:39.15	00010739	1.182	-Inter688t41-0	0.588	-1	1	40.525	11.111	-49.6	0.000	0.000	D	F	477.5	177.806	0.209	0.009	699.760	508.120	0.029	-	-0.062	-0.192	-	-	-	Ambient373	40.343	47.678	-	PAVEMENT_GENERAL	Urban	F	1011101000011101	0000000000000000	-	-	-	-	-	-	-	-	-	-	Terminate	
Unknown	179.98694	10/30/0116 10:39.16	00010799	1.778	-Inter688t41-0	1.586	-1	1	42.722	11.111	-85.7	0.086	0.000	D	F	1163.1	175.883	0.233	0.033	699.885	506.780	0.023	-	-0.231	1.682	-	-	-	Ambient394	6.599	11.731	-	PAVEMENT_GENERAL	Urban	F	1011101000011101	0000000000000000	-	-	-	-	-	-	-	-	-	-	Terminate	
Unknown	180.98695	10/30/0116 10:39.17	00010859	3.578	-Inter688t55-0	0.501	-1	1	269.708	11.111	-140.8	0.101	0.000	D	F	1401.4	169.868	0.205	0.128	700.365	504.127	0.018	-	-0.882	1.492	-	-	-	Ambient329	24.219	86.645	-	PAVEMENT_GENERAL	Urban	F	1011101000011101	0000000000000000	-	-	-	-	-	-	-	-	-	-	Terminate	
Unknown	181.98697	10/30/0116 10:39.18	00010919	4.647	-Inter688t49-0	-1.688	-1	1	359.794	11.111	-231.7	0.012	0.000	D	F	1196.0	154.359	0.176	0.278	701.968	500.264	0.022	-	-2.021	0.161	-	-	-	Ambient394	8.776	40.781	-	PAVEMENT_GENERAL	Urban	F	1011101000011101	0000000000000000	-	-	-	-	-	-	-	-	-	-	Terminate	
Unknown	182.98700	10/30/0116 10:39.19	00010979	4.497	Inter688t43-0	-0.710	1	1	89.747	11.111	-303.8	0.092	0.000	D	F	1274.7	128.125	0.181	0.305	705.198	497.157	0.026	-	-2.293	0.335	-	-	-	Ambient402	6.010	27.025	-	PAVEMENT_GENERAL	Urban	F	1011101000011101	0000000000000000	-	-	-	-	-	-	-	-	-	-	Terminate	
Unknown	183.98701	10/30/0116 10:39.20	00011039	5.502	Inter688t43-0	0.828	1	1	89.747	11.111	-159.6	0.141	0.000	D	F	1474.7	103.714	0.206	0.190	709.934	495.640	0.022	-	-1.568	1.079	-	-	-	Ambient402	5.873	32.311	-	PAVEMENT_GENERAL	Urban	F	1011101000011101	0000000000000000	-	-	-	-	-	-	-	-	-	-	Terminate	
Unknown	184.98703	10/30/0116 10:39.21	00011099	6.527	Inter688t43-0	0.994	1	1	89.747	11.111	-16.1	0.125	0.000	D	F	1475.3	88.026	0.212	-0.064	715.965	495.501	0.022	-	0.088	0.864	-	-	-	Ambient402	5.700	37.201	-	PAVEMENT_GENERAL	Urban	F	1011101000011101	0000000000000000	-	-	-	-	-	-	-	-	-	-	Terminate	
Unknown	185.98706	10/30/0116 10:39.22	00011159	7.440	Inter688t5-0	0.720	1	1	90.156	11.111	15.4	0.152	0.000	D	F	1609.6	87.995	0.212	-0.052	722.931	495.773	0.022	-	0.305	0.966	-	-	-	Ambient402	5.959	44.335	-	PAVEMENT_GENERAL	Urban	F	1011101000011101	0000000000000000	-	-	-	-	-	-	-	-	-	-	Terminate	
Unknown	186.98708	10/30/0116 10:39.23	00011219	8.409	Inter688t5-0	0.549	1	1	90.156	11.111	-17.6	0.164	0.000	D	F	1705.5	88.664	0.209	0.058	730.850	495.922	0.022	-	-0.392	0.928	-	-	-	Ambient402	5.724	48.127	-	PAVEMENT_GENERAL	Urban	F	1011101000011101	0000000000000000	-	-	-	-	-	-	-	-	-	-	Terminate	
Unknown	187.98709	10/30/0116 10:39.24	00011279	9.275	Inter688t5-0	0.258	1	1	90.156	11.111	17.4	0.169	0.000	D	F	1775.8	88.868	0.208	-0.055	739.694	496.189	0.022	-	0.436	0.832	-	-	-	Ambient402	5.498	50.996	-	PAVEMENT_GENERAL	Urban	F	1011101000011101	0000000000000000	-	-	-	-	-	-	-	-	-	-	Terminate	
Unknown	188.98711	10/30/0116 10:39.25	00011339	10.036	Inter688t19-0	0.236	1	1	90.074	11.111	-15.9	0.164	0.000	D	F	1821.1	89.939	0.208	0.047	749.361	496.190	0.023	-	-0.419	0.699	-	-	-	Ambient402	5.285	53.040	-	PAVEMENT_GENERAL	Urban	F	1011101000011101	0000000000000000	-	-	-	-	-	-	-	-	-	-	Terminate	
Unknown	189.98714	10/30/0116 10:39.26	00011399	10.766	Inter688t19-0	0.037	1	1	90.027	11.111	6.6	0.199	0.000	D	F	1968.8	89.032	0.209	-0.038	759.751	496.373	0.023	-	0.222	0.827	-	-	-	Ambient402	5.049	54.362	-	PAVEMENT_GENERAL	Urban	F	1011101000011101	0000000000000000	-	-	-	-	-	-	-	-	-	-	Terminate	
Unknown	190.98715	10/30/0116 10:39.27	00011459	12.018	Inter688t19-0	-0.089	1	1	90.003	11.111	2.4	0.423	0.000	D	F	2288.1	89.568	0.213	-0.010	771.080	496.493	0.019	-	0.081	1.546	-	-	-	Ambient402	4.555	54.744	179.630	PAVEMENT_GENERAL	Urban	F	1011101000011101	0000000000000000	-	-	-	-	-	-	-	-	-	-	Terminate	
Unknown	191.98717	10/30/0116 10:39.28	00011519	13.551	Inter688t7-0	-0.142	1	1	90.000	11.111	1.4	0.570	0.000	D	F	2476.4	89.924	0.211	-0.008	783.861	496.546	0.019	-	0.066	1.539	-	-	-	Ambient402	3.961	53.675	29.195	PAVEMENT_GENERAL	Urban	F	1011101000011101	0000000000000000	-	-	-	-	-	-	-	-	-	-	Terminate	
Unknown	192.98720	10/30/0116 10:39.29	00011579	15.057	Inter688t7-0	-0.181	1	1	90.000	11.111	-6.4	0.550	0.000	D	F	2661.1	89.396	0.209	0.050	798.170	496.585	0.020	-	-0.345	1.483	-	-	-	Ambient402	3.235	48.710	14.566	PAVEMENT_GENERAL	Urban	F	1011101000011101	0000000000000000	-	-	-	-	-	-	-	-	-	-	Terminate	
Unknown	193.98721	10/30/0116 10:39.30	00011639	16.523	Inter683t1-0	-0.364	1	1	90.000	11.111	6.4	0.549	0.000	D	F	2865.1	89.960	0.206	-0.065	813.962	496.760	0.020	-	0.445	1.447	-	-	-	Ambient402	2.844	46.997	9.770	PAVEMENT_GENERAL	Urban	F	1011101000011101	0000000000000000	-	-	-	-	-	-	-	-	-	-	Terminate	
Unknown	194.98723	10/30/0116 10:39.31	00011699	17.957	Inter683t1-0	-0.306	1	1	90.000	11.111	0.4	0.520	0.000	D	F	3073.3	90.365	0.205	-0.003	831.205	496.702	0.020	-	0.060	1.407	-	-	-	Ambient402	2.309	41.465	6.641	PAVEMENT_GENERAL	Urban	F	1011101000011101	0000000000000000	-	-	-	-	-	-	-	-	-	-	Terminate	
Unknown	195.98726	10/30/0116 10:39.32	00011759	18.630	Inter683t1-0	-0.206	1	1	90.000	11.111	-2.7	0.000	0.000	D	F	1562.0	90.046	0.171	0.029	849.694	496.602	0.027	-	-0.220	-0.530	-	-	-	Ambient402	1.862	34.688	5.015	PAVEMENT_GENERAL	Urban	F	1011101000011101	0000000000000000	-	-	-	-	-	-	-	-	-	-	Terminate	
Unknown	196.98727	10/30/0116 10:39.33	00011819	18.062	Inter683t1-0	-0.227	1	1	90.000	11.111	2.7	0.000	0.000	D	F	1236.7	90.122	0.184	-0.032	868.042	496.624	0.029	-	0.231	-0.573	-	-	-	Ambient402	1.553	28.051	4.418	PAVEMENT_GENERAL	Urban	F	1011101000011101	0000000000000000	-	-	-	-	-	-	-	-	-	-	Terminate	
Unknown	197.98729	10/30/0116 10:39.34	00011879	17.411	Inter683t1-0	-0.151	1	1	90.000	11.111	-1.8	0.000	0.078	D	F	1175.0	90.143	0.158	0.022	885.813	496.547	0.030	-	-0.124	-1.389	-	-	-	Ambient402	1.259	21.919	3.716	PAVEMENT_GENERAL	Urban	F	1011101000011101	0000000000000000	-	-	-	-	-	-	-	-	-	-	Terminate	
Unknown	198.98732	10/30/0116 10:39.35	00011939	15.843	Inter683t1-0	-0.130	1	1	90.000	11.111	1.6	0.000	0.143	D	F	1059.3	90.045	0.139	-0.006	902.473	496.526	0.032	-	0.046	-2.286	-	-	-	Ambient402	1.051	16.651	3.649	PAVEMENT_GENERAL	Urban	F	1011101000011101	0000000000000000	-	-	-	-	-	-	-	-	-	-	Terminate	
Unknown	199.98734	10/30/0116 10:39.36	00011999	13.179	Inter683t1-0	-0.091	1	1	90.000	11.111	-2.4	0.000	0.185	D	F	889.1	90.119	0.150	0.014	917.020	496.487	0.034	-	-0.090	-2.847	-	-	-	Ambient402	1.008	13.284	6.326	PAVEMENT_GENERAL	Urban	F	1111101000011101	0000000000000000	-	-	-	-	-	-	-	-	-	-	Terminate	
Unknown	200.98735	10/30/0116 10:39.37	00012059	11.738	Inter683t1-0	-0.098	1	1	90.000	11.111	0.3	0.000	0.000	D	F	1147.6	89.926	0.195	-0.003	929.199	496.494	0.029	-	0.015	-0.524	-	-	-	Ambient402	1.032	12.111	14.976	PAVEMENT_GENERAL	Urban	F	1111101000011101	0000000000000000	-	-	-	-	-	-	-	-	-	-	Terminate	
Unknown	201.98737	10/30/0116 10:39.38	00012119	11.234	Inter683t1-0	-0.133	1	1	90.000	11.111	-1.8	0.000	0.000	D	F	1103.6	89.659	0.194	0.010	940.683	496.529	0.029	-	-0.075	-0.517	-	-	-	Ambient402	1.023	11.491	26.225	PAVEMENT_GENERAL	Urban	F	1011101000011101	0000000000000000	-	-	-	-	-	-	-	-	-	-	Terminate	
Unknown	202.98740	10/30/0116 10:39.39	00012179	10.740	Inter683t1-0	-0.244	1	1	90.000	11.111	-2.1	0.028	0.000	D	F	1152.2	89.220	0.198	0.009	951.662	496.640	0.028	-	-0.073	-0.374	-	-	-	Ambient402	1.049	11.265	257.246	PAVEMENT_GENERAL	Urban	F	1011101000011101	0000000000000000	-	-	-	-	-	-	-	-	-	-	Terminate	
