ZoneName	Time	SystemTime	Frame	Velocity	LaneName	LanePos	LaneIndex	LaneCount	LaneHeading	SpeedLimit	Steer	Accel	Brake	Gear	Horn	SubjectEngineRPM	SubjectHeading	SubjectPitch	SubjectRoll	SubjectX	SubjectY	SubjectZ	Signal	LatAccel	LongAccel	Collision	CollisionAngle	CollisionVelocity	VehAhead	HeadwayTime	HeadwayDist	TTC	TerrainType	CultureType	Slip	DigitalInputs	DigitalInputs2	ActiveTrigger	EntityName	DistToEntity	TimeToEntity	EntityVelocity	EntityAccel	EntityHeading	EntityX	EntityY	EntityZ	GrabData	
Unknown	0.98335	01/14/0117 09:19.58	00000059	0.002	Inter625t13-0	-0.088	1	2	0.000	11.111	-0.9	0.000	0.000	N	F	0.0	0.000	0.153	0.000	1503.500	523.206	0.019	-	0.000	0.000	-	-	-	-	-	-	-	PAVEMENT_GENERAL	Urban	F	1011101000010101	0000000000000000	-	-	-	-	-	-	-	-	-	-	Terminate	
Unknown	1.98337	01/14/0117 09:19.59	00000119	0.000	Inter625t13-0	-0.088	1	2	0.000	11.111	-0.0	0.000	0.000	N	F	0.0	0.000	0.197	0.000	1503.500	523.208	0.026	-	0.000	-0.001	-	-	-	-	-	-	-	PAVEMENT_GENERAL	Urban	F	1011101000010101	0000000000000000	-	-	-	-	-	-	-	-	-	-	Terminate	
Unknown	2.98339	01/14/0117 09:20.00	00000179	-0.000	Inter625t13-0	-0.088	1	2	0.000	11.111	-0.1	0.000	0.000	N	F	0.0	0.000	0.207	-0.000	1503.500	523.208	0.028	-	-0.000	-0.000	-	-	-	-	-	-	-	PAVEMENT_GENERAL	Urban	F	1011101000010101	0000000000000000	-	-	-	-	-	-	-	-	-	-	Terminate	
Unknown	3.98341	01/14/0117 09:20.01	00000239	-0.000	Inter625t13-0	-0.088	1	2	0.000	11.111	-0.7	0.000	0.000	N	F	0.0	0.000	0.210	-0.000	1503.500	523.208	0.028	-	0.000	-0.000	-	-	-	-	-	-	-	PAVEMENT_GENERAL	Urban	F	1011101000010101	0000000000000000	-	-	-	-	-	-	-	-	-	-	Terminate	
Unknown	4.98343	01/14/0117 09:20.02	00000299	-0.000	Inter625t13-0	-0.088	1	2	0.000	11.111	-0.5	0.000	0.000	N	F	0.0	0.000	0.210	0.000	1503.500	523.208	0.028	-	-0.000	0.000	-	-	-	-	-	-	-	PAVEMENT_GENERAL	Urban	F	1011101000010101	0000000000000000	-	-	-	-	-	-	-	-	-	-	Terminate	
Unknown	5.98345	01/14/0117 09:20.03	00000359	-0.000	Inter625t13-0	-0.088	1	2	0.000	11.111	-0.5	0.000	0.000	N	F	0.0	0.000	0.209	0.000	1503.500	523.208	0.028	-	-0.000	0.000	-	-	-	-	-	-	-	PAVEMENT_GENERAL	Urban	F	1011101000010101	0000000000000000	-	-	-	-	-	-	-	-	-	-	Terminate	
Unknown	6.98347	01/14/0117 09:20.04	00000419	-0.000	Inter625t13-0	-0.088	1	2	0.000	11.111	-0.5	0.000	0.000	N	F	0.0	0.000	0.209	-0.000	1503.500	523.208	0.028	-	-0.000	0.000	-	-	-	-	-	-	-	PAVEMENT_GENERAL	Urban	F	1011101000010101	0000000000000000	-	-	-	-	-	-	-	-	-	-	Terminate	
Unknown	7.98349	01/14/0117 09:20.05	00000479	-0.000	Inter625t13-0	-0.088	1	2	0.000	11.111	-0.6	0.000	0.000	N	F	0.0	0.000	0.209	-0.000	1503.500	523.208	0.028	-	-0.000	0.000	-	-	-	-	-	-	-	PAVEMENT_GENERAL	Urban	F	1011101000010101	0000000000000000	-	-	-	-	-	-	-	-	-	-	Terminate	
Unknown	8.98351	01/14/0117 09:20.06	00000539	-0.000	Inter625t13-0	-0.088	1	2	0.000	11.111	0.3	0.000	0.000	N	F	0.0	0.000	0.209	-0.000	1503.500	523.208	0.028	-	-0.000	0.000	-	-	-	-	-	-	-	PAVEMENT_GENERAL	Urban	F	1011101000010101	0000000000000000	-	-	-	-	-	-	-	-	-	-	Terminate	
Unknown	9.98353	01/14/0117 09:20.07	00000599	-0.000	Inter625t13-0	-0.088	1	2	0.000	11.111	0.5	0.000	0.000	N	F	0.0	0.000	0.209	-0.000	1503.500	523.208	0.028	-	0.000	0.000	-	-	-	-	-	-	-	PAVEMENT_GENERAL	Urban	F	1011101000010101	0000000000000000	-	-	-	-	-	-	-	-	-	-	Terminate	
Unknown	10.98355	01/14/0117 09:20.08	00000659	-0.000	Inter625t13-0	-0.088	1	2	0.000	11.111	0.6	0.000	0.000	N	F	0.0	0.000	0.209	-0.000	1503.500	523.208	0.028	-	0.000	0.000	-	-	-	-	-	-	-	PAVEMENT_GENERAL	Urban	F	1011101000010101	0000000000000000	-	-	-	-	-	-	-	-	-	-	Terminate	
Unknown	11.98357	01/14/0117 09:20.09	00000719	-0.000	Inter625t13-0	-0.088	1	2	0.000	11.111	0.5	0.000	0.000	N	F	0.0	0.000	0.209	-0.000	1503.500	523.207	0.028	-	0.000	0.000	-	-	-	-	-	-	-	PAVEMENT_GENERAL	Urban	F	1011101000010101	0000000000000000	-	-	-	-	-	-	-	-	-	-	Terminate	
Unknown	12.98359	01/14/0117 09:20.10	00000779	-0.000	Inter625t13-0	-0.088	1	2	0.000	11.111	0.2	0.000	0.000	N	F	0.0	0.000	0.209	-0.000	1503.500	523.207	0.028	-	0.000	0.000	-	-	-	-	-	-	-	PAVEMENT_GENERAL	Urban	F	1011101000010101	0000000000000000	-	-	-	-	-	-	-	-	-	-	Terminate	
Unknown	13.98361	01/14/0117 09:20.11	00000839	-0.000	Inter625t13-0	-0.088	1	2	0.000	11.111	-0.0	0.000	0.000	N	F	0.0	0.000	0.209	-0.000	1503.500	523.207	0.028	-	0.000	0.000	-	-	-	-	-	-	-	PAVEMENT_GENERAL	Urban	F	1011101000010101	0000000000000000	-	-	-	-	-	-	-	-	-	-	Terminate	
Unknown	14.98363	01/14/0117 09:20.12	00000899	-0.000	Inter625t13-0	-0.088	1	2	0.000	11.111	-0.1	0.000	0.000	N	F	0.0	0.000	0.209	-0.000	1503.500	523.207	0.028	-	-0.000	0.000	-	-	-	-	-	-	-	PAVEMENT_GENERAL	Urban	F	1011101000010101	0000000000000000	-	-	-	-	-	-	-	-	-	-	Terminate	
Unknown	15.98365	01/14/0117 09:20.13	00000959	-0.000	Inter625t13-0	-0.088	1	2	0.000	11.111	-0.2	0.000	0.000	N	F	0.0	0.000	0.209	0.000	1503.500	523.207	0.028	-	0.000	0.000	-	-	-	-	-	-	-	PAVEMENT_GENERAL	Urban	F	1011101000010101	0000000000000000	-	-	-	-	-	-	-	-	-	-	Terminate	
Unknown	16.98367	01/14/0117 09:20.14	00001019	-0.000	Inter625t13-0	-0.088	1	2	0.000	11.111	-0.3	0.000	0.000	N	F	0.0	0.000	0.209	0.000	1503.500	523.207	0.028	-	-0.000	0.000	-	-	-	-	-	-	-	PAVEMENT_GENERAL	Urban	F	1011101000010101	0000000000000000	-	-	-	-	-	-	-	-	-	-	Terminate	
Unknown	17.98369	01/14/0117 09:20.15	00001079	-0.000	Inter625t13-0	-0.088	1	2	0.000	11.111	-0.3	0.000	0.000	N	F	0.0	0.000	0.209	0.000	1503.500	523.207	0.028	-	-0.000	0.000	-	-	-	-	-	-	-	PAVEMENT_GENERAL	Urban	F	1011101000010101	0000000000000000	-	-	-	-	-	-	-	-	-	-	Terminate	
Unknown	18.98371	01/14/0117 09:20.16	00001139	-0.000	Inter625t13-0	-0.088	1	2	0.000	11.111	-0.3	0.000	0.000	N	F	0.0	0.000	0.209	0.000	1503.500	523.207	0.028	-	0.000	0.000	-	-	-	-	-	-	-	PAVEMENT_GENERAL	Urban	F	1011101000010101	0000000000000000	-	-	-	-	-	-	-	-	-	-	Terminate	
Unknown	19.98373	01/14/0117 09:20.17	00001199	-0.000	Inter625t13-0	-0.088	1	2	0.000	11.111	-0.3	0.000	0.000	N	F	0.0	0.000	0.209	0.000	1503.500	523.207	0.028	-	-0.000	0.000	-	-	-	-	-	-	-	PAVEMENT_GENERAL	Urban	F	1011101000010101	0000000000000000	-	-	-	-	-	-	-	-	-	-	Terminate	
Unknown	20.98375	01/14/0117 09:20.18	00001259	-0.000	Inter625t13-0	-0.088	1	2	0.000	11.111	-0.2	0.000	0.000	N	F	0.0	0.000	0.209	0.000	1503.500	523.207	0.028	-	0.000	0.000	-	-	-	-	-	-	-	PAVEMENT_GENERAL	Urban	F	1011101000010101	0000000000000000	-	-	-	-	-	-	-	-	-	-	Terminate	
Unknown	21.98377	01/14/0117 09:20.19	00001319	-0.000	Inter625t13-0	-0.088	1	2	0.000	11.111	-0.3	0.000	0.000	N	F	0.0	0.000	0.209	0.000	1503.500	523.207	0.028	-	0.000	0.000	-	-	-	-	-	-	-	PAVEMENT_GENERAL	Urban	F	1011101000010101	0000000000000000	-	-	-	-	-	-	-	-	-	-	Terminate	
Unknown	22.98379	01/14/0117 09:20.20	00001379	-0.000	Inter625t13-0	-0.088	1	2	0.000	11.111	-0.3	0.000	0.000	N	F	0.0	0.000	0.209	0.000	1503.500	523.207	0.028	-	-0.000	0.000	-	-	-	-	-	-	-	PAVEMENT_GENERAL	Urban	F	1011101000010101	0000000000000000	-	-	-	-	-	-	-	-	-	-	Terminate	
Unknown	23.98381	01/14/0117 09:20.21	00001439	-0.000	Inter625t13-0	-0.088	1	2	0.000	11.111	-0.2	0.000	0.000	N	F	0.0	0.000	0.209	0.000	1503.500	523.207	0.028	-	-0.000	0.000	-	-	-	-	-	-	-	PAVEMENT_GENERAL	Urban	F	1011101000010101	0000000000000000	-	-	-	-	-	-	-	-	-	-	Terminate	
Unknown	24.98383	01/14/0117 09:20.22	00001499	-0.000	Inter625t13-0	-0.088	1	2	0.000	11.111	0.1	0.000	0.000	N	F	0.0	0.000	0.209	-0.000	1503.500	523.207	0.028	-	0.000	0.000	-	-	-	-	-	-	-	PAVEMENT_GENERAL	Urban	F	1011101000010101	0000000000000000	-	-	-	-	-	-	-	-	-	-	Terminate	
Unknown	25.98385	01/14/0117 09:20.23	00001559	-0.000	Inter625t13-0	-0.088	1	2	0.000	11.111	0.1	0.000	0.000	N	F	0.0	0.000	0.209	-0.000	1503.500	523.207	0.028	-	0.000	0.000	-	-	-	-	-	-	-	PAVEMENT_GENERAL	Urban	F	1111101000010101	0000000000000000	-	-	-	-	-	-	-	-	-	-	Terminate	
Unknown	26.98387	01/14/0117 09:20.24	00001619	-0.000	Inter625t13-0	-0.088	1	2	0.000	11.111	0.1	0.000	0.000	N	F	0.0	0.000	0.209	-0.000	1503.500	523.207	0.028	-	0.000	0.000	-	-	-	-	-	-	-	PAVEMENT_GENERAL	Urban	F	1011101000010101	0000000000000000	-	-	-	-	-	-	-	-	-	-	Terminate	
Unknown	27.98389	01/14/0117 09:20.25	00001679	-0.000	Inter625t13-0	-0.088	1	2	0.000	11.111	0.5	0.000	0.000	N	F	0.0	0.000	0.209	-0.000	1503.500	523.207	0.028	-	-0.000	0.000	-	-	-	-	-	-	-	PAVEMENT_GENERAL	Urban	F	1011101000010101	0000000000000000	-	-	-	-	-	-	-	-	-	-	Terminate	
Unknown	28.98391	01/14/0117 09:20.26	00001739	-0.000	Inter625t13-0	-0.088	1	2	0.000	11.111	1.5	0.000	0.000	N	F	0.0	0.000	0.209	-0.000	1503.500	523.207	0.028	-	0.000	0.000	-	-	-	-	-	-	-	PAVEMENT_GENERAL	Urban	F	1111101000010101	0000000000000000	-	-	-	-	-	-	-	-	-	-	Terminate	
Unknown	29.98393	01/14/0117 09:20.27	00001799	-0.000	Inter625t13-0	-0.088	1	2	0.000	11.111	1.3	0.000	0.000	N	F	0.0	0.000	0.209	-0.000	1503.500	523.207	0.028	-	0.000	0.000	-	-	-	-	-	-	-	PAVEMENT_GENERAL	Urban	F	1011101000010101	0000000000000000	-	-	-	-	-	-	-	-	-	-	Terminate	
Unknown	30.98395	01/14/0117 09:20.28	00001859	-0.000	Inter625t13-0	-0.088	1	2	0.000	11.111	0.4	0.000	0.000	N	F	0.0	0.000	0.209	-0.000	1503.500	523.207	0.028	-	0.000	0.000	-	-	-	-	-	-	-	PAVEMENT_GENERAL	Urban	F	1011101000010101	0000000000000000	-	-	-	-	-	-	-	-	-	-	Terminate	
Unknown	31.98397	01/14/0117 09:20.29	00001919	-0.000	Inter625t13-0	-0.088	1	2	0.000	11.111	0.4	0.000	0.000	N	F	0.0	0.000	0.209	-0.000	1503.500	523.207	0.028	-	0.000	0.000	-	-	-	-	-	-	-	PAVEMENT_GENERAL	Urban	F	1011101000010101	0000000000000000	-	-	-	-	-	-	-	-	-	-	Terminate	
Unknown	32.98399	01/14/0117 09:20.30	00001979	-0.000	Inter625t13-0	-0.088	1	2	0.000	11.111	0.6	0.000	0.000	N	F	0.0	0.000	0.209	-0.000	1503.500	523.207	0.028	-	0.000	0.000	-	-	-	-	-	-	-	PAVEMENT_GENERAL	Urban	F	1111101000010101	0000000000000000	-	-	-	-	-	-	-	-	-	-	Terminate	
Unknown	33.98401	01/14/0117 09:20.31	00002039	-0.000	Inter625t13-0	-0.088	1	2	0.000	11.111	0.6	0.000	0.000	N	F	0.0	0.000	0.209	-0.000	1503.500	523.207	0.028	-	0.000	0.000	-	-	-	-	-	-	-	PAVEMENT_GENERAL	Urban	F	1011101000010101	0000000000000000	-	-	-	-	-	-	-	-	-	-	Terminate	
Unknown	34.98403	01/14/0117 09:20.32	00002099	-0.000	Inter625t13-0	-0.088	1	2	0.000	11.111	0.6	0.000	0.000	N	F	0.0	0.000	0.209	0.000	1503.500	523.207	0.028	-	0.000	0.000	-	-	-	-	-	-	-	PAVEMENT_GENERAL	Urban	F	1011101000010101	0000000000000000	-	-	-	-	-	-	-	-	-	-	Terminate	
Unknown	35.98405	01/14/0117 09:20.33	00002159	-0.000	Inter625t13-0	-0.088	1	2	0.000	11.111	0.7	0.000	0.000	N	F	0.0	0.000	0.209	0.000	1503.500	523.207	0.028	-	-0.000	0.000	-	-	-	-	-	-	-	PAVEMENT_GENERAL	Urban	F	1011101000010101	0000000000000000	-	-	-	-	-	-	-	-	-	-	Terminate	
Unknown	36.98407	01/14/0117 09:20.34	00002219	-0.000	Inter625t13-0	-0.088	1	2	0.000	11.111	0.7	0.000	0.000	N	F	0.0	0.000	0.209	0.000	1503.500	523.207	0.028	-	0.000	0.000	-	-	-	-	-	-	-	PAVEMENT_GENERAL	Urban	F	1011101000010101	0000000000000000	-	-	-	-	-	-	-	-	-	-	Terminate	
Unknown	37.98409	01/14/0117 09:20.35	00002279	-0.000	Inter625t13-0	-0.088	1	2	0.000	11.111	0.7	0.000	0.000	N	F	0.0	0.000	0.209	0.000	1503.500	523.207	0.028	-	-0.000	0.000	-	-	-	-	-	-	-	PAVEMENT_GENERAL	Urban	F	1011101000010101	0000000000000000	-	-	-	-	-	-	-	-	-	-	Terminate	
Unknown	38.98411	01/14/0117 09:20.36	00002339	-0.000	Inter625t13-0	-0.088	1	2	0.000	11.111	0.8	0.000	0.000	N	F	0.0	0.000	0.209	0.000	1503.500	523.207	0.028	-	-0.000	0.000	-	-	-	-	-	-	-	PAVEMENT_GENERAL	Urban	F	1011101000010101	0000000000000000	-	-	-	-	-	-	-	-	-	-	Terminate	
Unknown	39.98413	01/14/0117 09:20.37	00002399	-0.000	Inter625t13-0	-0.088	1	2	0.000	11.111	1.2	0.000	0.000	N	F	0.0	0.000	0.209	0.000	1503.500	523.207	0.028	-	-0.000	0.000	-	-	-	-	-	-	-	PAVEMENT_GENERAL	Urban	F	1111101000010101	0000000000000000	-	-	-	-	-	-	-	-	-	-	Terminate	
Unknown	40.98415	01/14/0117 09:20.38	00002459	-0.000	Inter625t13-0	-0.088	1	2	0.000	11.111	1.6	0.000	0.000	N	F	311.1	0.000	0.209	-0.000	1503.500	523.207	0.028	-	0.000	0.000	-	-	-	-	-	-	-	PAVEMENT_GENERAL	Urban	F	1111101000010101	0000000000000000	-	-	-	-	-	-	-	-	-	-	Terminate	
Unknown	41.98417	01/14/0117 09:20.39	00002519	0.000	Inter625t13-0	-0.088	1	2	0.000	11.111	2.6	0.000	0.000	D	F	477.5	0.000	0.209	-0.000	1503.500	523.207	0.028	-	0.000	0.000	-	-	-	-	-	-	-	PAVEMENT_GENERAL	Urban	F	1011101000010101	0000000000000000	-	-	-	-	-	-	-	-	-	-	Terminate	
Unknown	42.98419	01/14/0117 09:20.40	00002579	2.009	Inter625t13-0	-0.087	1	2	0.000	11.111	1.8	0.432	0.000	D	F	1786.3	0.043	0.162	-0.003	1503.501	523.656	0.004	-	0.010	4.712	-	-	-	-	-	-	-	PAVEMENT_GENERAL	Urban	F	1011101000010101	0000000000000000	-	-	-	-	-	-	-	-	-	-	Terminate	
Unknown	43.98421	01/14/0117 09:20.41	00002639	5.706	Inter625t13-0	-0.055	1	2	0.000	11.111	7.1	0.287	0.000	D	F	2066.4	0.594	0.224	-0.009	1503.533	527.716	0.012	-	0.070	2.831	-	-	-	-	-	-	-	PAVEMENT_GENERAL	Urban	F	1111101000010101	0000000000000000	-	-	-	-	-	-	-	-	-	-	Terminate	
Unknown	44.98423	01/14/0117 09:20.42	00002699	8.306	Inter625t49-0	0.070	1	1	0.005	11.111	1.3	0.307	0.000	D	F	2637.4	1.149	0.223	-0.004	1503.658	534.738	0.014	-	0.030	2.477	-	-	-	-	-	-	-	PAVEMENT_GENERAL	Urban	F	1011101000010101	0000000000000000	-	-	-	-	-	-	-	-	-	-	Terminate	
Unknown	45.98425	01/14/0117 09:20.43	00002759	10.373	Inter625t49-0	0.256	1	1	0.007	11.111	-2.2	0.282	0.000	D	F	2093.0	1.022	0.205	0.010	1503.844	544.192	0.019	-	-0.068	1.413	-	-	-	-	-	-	-	PAVEMENT_GENERAL	Urban	F	1011101000010101	0000000000000000	-	-	-	-	-	-	-	-	-	-	Terminate	
Unknown	46.98427	01/14/0117 09:20.44	00002819	11.704	Inter625t49-0	0.412	1	1	0.007	11.111	-0.6	0.284	0.000	D	F	2167.2	0.691	0.211	0.003	1504.003	555.243	0.020	-	-0.031	1.251	-	-	-	-	-	-	-	PAVEMENT_GENERAL	Urban	F	1011101000010101	0000000000000000	-	-	-	-	-	-	-	-	-	-	Terminate	
Unknown	47.98429	01/14/0117 09:20.45	00002879	12.905	Inter625t49-0	0.535	1	1	0.005	11.111	-2.2	0.291	0.000	D	F	2314.3	0.406	0.209	0.012	1504.127	567.549	0.021	-	-0.094	1.186	-	-	-	-	-	-	-	PAVEMENT_GENERAL	Urban	F	1011101000010101	0000000000000000	-	-	-	-	-	-	-	-	-	-	Terminate	
Unknown	48.98431	01/14/0117 09:20.46	00002939	14.066	Inter625t49-0	0.586	1	1	0.005	11.111	-0.4	0.287	0.000	D	F	2449.2	0.056	0.207	0.004	1504.179	581.039	0.021	-	-0.043	1.136	-	-	-	-	-	-	-	PAVEMENT_GENERAL	Urban	F	1011101000010101	0000000000000000	-	-	-	-	-	-	-	-	-	-	Terminate	
Unknown	49.98433	01/14/0117 09:20.47	00002999	15.166	Inter625t15-0	0.601	1	2	0.000	11.111	0.5	0.287	0.000	D	F	2603.7	0.096	0.205	-0.004	1504.194	595.660	0.022	-	0.028	1.074	-	-	-	-	-	-	-	PAVEMENT_GENERAL	Urban	F	1011101000010101	0000000000000000	-	-	-	-	-	-	-	-	-	-	Terminate	
Unknown	50.98435	01/14/0117 09:20.48	00003059	16.210	Inter614t1-0	0.642	1	2	0.000	11.111	0.5	0.277	0.000	D	F	2746.0	0.227	0.203	-0.004	1504.236	611.354	0.022	-	0.034	1.000	-	-	-	-	-	-	-	PAVEMENT_GENERAL	Urban	F	1011101000010101	0000000000000000	-	-	-	-	-	-	-	-	-	-	Terminate	
Unknown	51.98437	01/14/0117 09:20.49	00003119	17.197	Inter614t1-0	0.719	1	2	0.000	11.111	-0.3	0.286	0.000	D	F	2743.2	0.287	0.203	0.002	1504.312	628.055	0.022	-	-0.008	1.147	-	-	-	-	-	-	-	PAVEMENT_GENERAL	Urban	F	1111101000010101	0000000000000000	-	-	-	-	-	-	-	-	-	-	Terminate	
Unknown	52.98439	01/14/0117 09:20.50	00003179	17.930	Inter614t1-0	0.798	1	2	0.000	11.111	-0.2	0.249	0.000	D	F	2123.4	0.225	0.194	0.002	1504.391	645.667	0.024	-	-0.013	0.526	-	-	-	-	-	-	-	PAVEMENT_GENERAL	Urban	F	1011101000010101	0000000000000000	-	-	-	-	-	-	-	-	-	-	Terminate	
Unknown	53.98441	01/14/0117 09:20.51	00003239	18.383	Inter614t1-0	0.865	1	2	0.000	11.111	-0.1	0.208	0.000	D	F	2106.0	0.194	0.192	0.001	1504.458	663.837	0.025	-	-0.008	0.361	-	-	-	-	-	-	-	PAVEMENT_GENERAL	Urban	F	1011101000010101	0000000000000000	-	-	-	-	-	-	-	-	-	-	Terminate	
Unknown	54.98443	01/14/0117 09:20.52	00003299	18.321	Inter614t1-0	0.927	1	2	0.000	11.111	0.0	0.069	0.000	D	F	1856.4	0.193	0.185	-0.000	1504.520	682.248	0.028	-	0.002	-0.286	-	-	-	-	-	-	-	PAVEMENT_GENERAL	Urban	F	1011101000010101	0000000000000000	-	-	-	-	-	-	-	-	-	-	Terminate	
Unknown	55.98445	01/14/0117 09:20.53	00003359	18.012	Inter614t1-0	0.990	1	2	0.000	11.111	0.1	0.055	0.000	D	F	1371.3	0.209	0.187	-0.001	1504.583	700.421	0.028	-	0.006	-0.333	-	-	-	-	-	-	-	PAVEMENT_GENERAL	Urban	F	1011101000010101	0000000000000000	-	-	-	-	-	-	-	-	-	-	Terminate	
Unknown	56.98447	01/14/0117 09:20.54	00003419	17.680	Inter614t1-0	1.056	1	2	0.000	11.111	0.3	0.055	0.000	D	F	1343.2	0.226	0.188	-0.002	1504.649	718.266	0.028	-	0.012	-0.322	-	-	-	-	-	-	-	PAVEMENT_GENERAL	Urban	F	1011101000010101	0000000000000000	-	-	-	-	-	-	-	-	-	-	Terminate	
Unknown	57.98449	01/14/0117 09:20.55	00003479	17.358	Inter614t1-0	1.134	1	2	0.000	11.111	0.5	0.053	0.000	D	F	1319.3	0.302	0.188	-0.004	1504.728	735.785	0.028	-	0.028	-0.324	-	-	-	-	-	-	-	PAVEMENT_GENERAL	Urban	F	1011101000010101	0000000000000000	-	-	-	-	-	-	-	-	-	-	Terminate	
Unknown	58.98451	01/14/0117 09:20.56	00003539	17.035	Inter614t1-0	1.240	1	2	0.000	11.111	0.8	0.051	0.000	D	F	1301.6	0.428	0.189	-0.006	1504.833	752.980	0.028	-	0.045	-0.321	-	-	-	-	-	-	-	PAVEMENT_GENERAL	Urban	F	1011101000010101	0000000000000000	-	-	-	-	-	-	-	-	-	-	Terminate	
Unknown	59.98453	01/14/0117 09:20.57	00003599	16.713	Inter614t1-0	1.386	1	2	0.000	11.111	0.8	0.049	0.000	D	F	1276.2	0.587	0.189	-0.006	1504.979	769.854	0.028	-	0.047	-0.325	-	-	-	-	-	-	-	PAVEMENT_GENERAL	Urban	F	1011101000010101	0000000000000000	-	-	-	-	-	-	-	-	-	-	Terminate	
Unknown	60.98455	01/14/0117 09:20.58	00003659	16.397	Inter614t1-0	1.576	1	2	0.000	11.111	0.7	0.051	0.000	D	F	1265.3	0.749	0.190	-0.006	1505.170	786.406	0.028	-	0.044	-0.310	-	-	-	-	-	-	-	PAVEMENT_GENERAL	Urban	F	1011101000010101	0000000000000000	-	-	-	-	-	-	-	-	-	-	Terminate	
Unknown	61.98457	01/14/0117 09:20.59	00003719	16.095	Inter612t1-1	-1.792	2	2	0.000	11.111	0.7	0.053	0.000	D	F	1257.3	0.905	0.190	-0.005	1505.401	802.650	0.028	-	0.041	-0.303	-	-	-	-	-	-	-	PAVEMENT_GENERAL	Urban	F	1011101000010101	0000000000000000	-	-	-	-	-	-	-	-	-	-	Terminate	
Unknown	62.98459	01/14/0117 09:21.00	00003779	15.806	Inter612t1-1	-1.524	2	2	0.000	11.111	-3.3	0.056	0.000	D	F	1260.3	1.011	0.191	0.010	1505.669	818.595	0.028	-	-0.077	-0.274	-	-	-	-	-	-	-	PAVEMENT_GENERAL	Urban	F	1011101000010101	0000000000000000	-	-	-	-	-	-	-	-	-	-	Terminate	
Unknown	63.98461	01/14/0117 09:21.01	00003839	15.545	Inter612t1-1	-1.414	2	2	0.000	11.111	-11.7	0.063	0.000	D	F	1280.6	359.491	0.191	0.082	1505.780	834.266	0.028	-	-0.630	-0.234	-	-	-	-	-	-	-	PAVEMENT_GENERAL	Urban	F	1011101000010101	0000000000000000	-	-	-	-	-	-	-	-	-	-	Terminate	
Unknown	64.98463	01/14/0117 09:21.02	00003899	15.310	Inter612t1-1	-1.762	2	2	0.000	11.111	3.2	0.065	0.000	D	F	1272.8	358.517	0.193	-0.017	1505.431	849.688	0.028	-	0.143	-0.228	-	-	-	-	-	-	-	PAVEMENT_GENERAL	Urban	F	1011101000010101	0000000000000000	-	-	-	-	-	-	-	-	-	-	Terminate	
Unknown	65.98465	01/14/0117 09:21.03	00003959	15.082	Inter612t1-0	1.521	1	2	0.000	11.111	2.4	0.063	0.000	D	F	1260.1	359.106	0.192	-0.017	1505.114	864.881	0.028	-	0.136	-0.228	-	-	-	-	-	-	-	PAVEMENT_GENERAL	Urban	F	1011101000010101	0000000000000000	-	-	-	-	-	-	-	-	-	-	Terminate	
Unknown	66.98467	01/14/0117 09:21.04	00004019	14.860	Inter612t1-0	1.351	1	2	0.000	11.111	3.0	0.062	0.000	D	F	1250.6	359.659	0.193	-0.020	1504.944	879.851	0.028	-	0.162	-0.222	-	-	-	-	-	-	-	PAVEMENT_GENERAL	Urban	F	1011101000010101	0000000000000000	-	-	-	-	-	-	-	-	-	-	Terminate	
Unknown	67.98470	01/14/0117 09:21.05	00004079	14.640	Inter612t1-0	1.329	1	2	0.000	11.111	2.3	0.065	0.000	D	F	1245.8	0.174	0.193	-0.015	1504.922	894.600	0.028	-	0.117	-0.217	-	-	-	-	-	-	-	PAVEMENT_GENERAL	Urban	F	1011101000010101	0000000000000000	-	-	-	-	-	-	-	-	-	-	Terminate	
Unknown	68.98471	01/14/0117 09:21.06	00004139	14.427	Inter612t1-0	1.426	1	2	0.000	11.111	2.1	0.063	0.000	D	F	1240.8	0.609	0.193	-0.014	1505.020	909.133	0.027	-	0.105	-0.210	-	-	-	-	-	-	-	PAVEMENT_GENERAL	Urban	F	1011101000010101	0000000000000000	-	-	-	-	-	-	-	-	-	-	Terminate	
Unknown	69.98473	01/14/0117 09:21.07	00004199	14.209	Inter612t1-0	1.619	1	2	0.000	11.111	-5.4	0.062	0.000	D	F	1216.6	0.789	0.194	0.031	1505.212	923.451	0.027	-	-0.178	-0.220	-	-	-	-	-	-	-	PAVEMENT_GENERAL	Urban	F	1011101000010101	0000000000000000	-	-	-	-	-	-	-	-	-	-	Terminate	
Unknown	70.98476	01/14/0117 09:21.08	00004259	13.991	Inter612t1-0	1.690	1	2	0.000	11.111	-4.2	0.060	0.000	D	F	1206.4	359.819	0.194	0.027	1505.283	937.550	0.027	-	-0.209	-0.217	-	-	-	-	-	-	-	PAVEMENT_GENERAL	Urban	F	1011101000010101	0000000000000000	-	-	-	-	-	-	-	-	-	-	Terminate	
Unknown	71.98477	01/14/0117 09:21.09	00004319	13.772	Inter612t1-0	1.553	1	2	0.000	11.111	-3.3	0.058	0.000	D	F	1193.9	359.043	0.194	0.022	1505.146	951.431	0.027	-	-0.167	-0.217	-	-	-	-	-	-	-	PAVEMENT_GENERAL	Urban	F	1011101000010101	0000000000000000	-	-	-	-	-	-	-	-	-	-	Terminate	
Unknown	72.98479	01/14/0117 09:21.10	00004379	13.555	Inter612t1-0	1.281	1	2	0.000	11.111	5.1	0.058	0.000	D	F	1184.8	358.945	0.194	-0.026	1504.875	965.093	0.027	-	0.194	-0.221	-	-	-	-	-	-	-	PAVEMENT_GENERAL	Urban	F	1011101000010101	0000000000000000	-	-	-	-	-	-	-	-	-	-	Terminate	
Unknown	73.98481	01/14/0117 09:21.11	00004439	13.339	Inter612t1-0	1.188	1	2	0.000	11.111	7.7	0.056	0.000	D	F	1171.3	0.352	0.194	-0.049	1504.781	978.539	0.027	-	0.373	-0.218	-	-	-	-	-	-	-	PAVEMENT_GENERAL	Urban	F	1011101000010101	0000000000000000	-	-	-	-	-	-	-	-	-	-	Terminate	
Unknown	74.98483	01/14/0117 09:21.12	00004499	13.129	Inter612t1-0	1.424	1	2	0.000	11.111	3.7	0.058	0.000	D	F	1168.3	1.546	0.195	-0.023	1505.017	991.770	0.027	-	0.179	-0.206	-	-	-	-	-	-	-	PAVEMENT_GENERAL	Urban	F	1011101000010101	0000000000000000	-	-	-	-	-	-	-	-	-	-	Terminate	
Unknown	75.98486	01/14/0117 09:21.13	00004559	12.925	Inter613t1-1	-1.748	2	2	0.000	11.111	2.8	0.055	0.000	D	F	1159.1	2.181	0.195	-0.016	1505.445	1004.790	0.027	-	0.122	-0.205	-	-	-	-	-	-	-	PAVEMENT_GENERAL	Urban	F	1011101000010101	0000000000000000	-	-	-	-	-	-	-	-	-	-	Terminate	
Unknown	76.98487	01/14/0117 09:21.14	00004619	12.717	Inter613t1-1	-1.214	2	2	0.000	11.111	-4.4	0.056	0.000	D	F	1373.5	2.413	0.196	0.020	1505.979	1017.597	0.027	-	-0.133	-0.194	-	-	-	-	-	-	-	PAVEMENT_GENERAL	Urban	F	1011101000010101	0000000000000000	-	-	-	-	-	-	-	-	-	-	Terminate	
Unknown	77.98489	01/14/0117 09:21.15	00004679	12.536	Inter613t1-1	-0.789	2	2	0.000	11.111	-7.2	0.056	0.000	D	F	1374.2	1.375	0.196	0.045	1506.404	1030.215	0.027	-	-0.305	-0.171	-	-	-	-	-	-	-	PAVEMENT_GENERAL	Urban	F	1011101000010101	0000000000000000	-	-	-	-	-	-	-	-	-	-	Terminate	
Unknown	78.98492	01/14/0117 09:21.16	00004739	12.373	Inter613t1-1	-0.614	2	2	0.000	11.111	-3.8	0.058	0.000	D	F	1363.6	0.376	0.196	0.021	1506.579	1042.668	0.027	-	-0.158	-0.161	-	-	-	-	-	-	-	PAVEMENT_GENERAL	Urban	F	1011101000010101	0000000000000000	-	-	-	-	-	-	-	-	-	-	Terminate	
Unknown	79.98493	01/14/0117 09:21.17	00004799	12.214	Inter613t1-1	-0.609	2	2	0.000	11.111	-1.4	0.058	0.000	D	F	1353.0	359.713	0.196	0.011	1506.584	1054.961	0.027	-	-0.086	-0.154	-	-	-	-	-	-	-	PAVEMENT_GENERAL	Urban	F	1011101000010101	0000000000000000	-	-	-	-	-	-	-	-	-	-	Terminate	
Unknown	80.98495	01/14/0117 09:21.18	00004859	12.070	Inter613t1-1	-0.647	2	2	0.000	11.111	6.4	0.062	0.000	D	F	1352.5	0.193	0.197	-0.033	1506.546	1067.101	0.027	-	0.247	-0.134	-	-	-	-	-	-	-	PAVEMENT_GENERAL	Urban	F	1011101000010101	0000000000000000	-	-	-	-	-	-	-	-	-	-	Terminate	
Unknown	81.98497	01/14/0117 09:21.19	00004919	11.939	Inter613t1-1	-0.507	2	2	0.000	11.111	0.8	0.062	0.000	D	F	1349.8	0.930	0.197	-0.002	1506.687	1079.103	0.027	-	0.043	-0.125	-	-	-	-	-	-	-	PAVEMENT_GENERAL	Urban	F	1011101000010101	0000000000000000	-	-	-	-	-	-	-	-	-	-	Terminate	
Unknown	82.98499	01/14/0117 09:21.20	00004979	11.816	Inter613t1-1	-0.313	2	2	0.000	11.111	-1.2	0.063	0.000	D	F	1338.5	0.874	0.197	0.006	1506.880	1090.979	0.027	-	-0.041	-0.121	-	-	-	-	-	-	-	PAVEMENT_GENERAL	Urban	F	1011101000010101	0000000000000000	-	-	-	-	-	-	-	-	-	-	Terminate	
Unknown	83.98502	01/14/0117 09:21.21	00005039	11.696	Inter613t1-1	-0.159	2	2	0.000	11.111	-1.6	0.060	0.000	D	F	1330.3	0.632	0.197	0.007	1507.034	1102.733	0.027	-	-0.057	-0.120	-	-	-	-	-	-	-	PAVEMENT_GENERAL	Urban	F	1011101000010101	0000000000000000	-	-	-	-	-	-	-	-	-	-	Terminate	
Unknown	84.98503	01/14/0117 09:21.22	00005099	11.583	Inter613t1-1	-0.062	2	2	0.000	11.111	-1.7	0.062	0.000	D	F	1323.0	0.338	0.198	0.008	1507.131	1114.371	0.027	-	-0.061	-0.110	-	-	-	-	-	-	-	PAVEMENT_GENERAL	Urban	F	1011101000010101	0000000000000000	-	-	-	-	-	-	-	-	-	-	Terminate	
Unknown	85.98505	01/14/0117 09:21.23	00005159	11.468	Inter613t1-1	-0.026	2	2	0.000	11.111	-1.5	0.062	0.000	D	F	1310.4	0.044	0.198	0.007	1507.167	1125.897	0.027	-	-0.055	-0.122	-	-	-	-	-	-	-	PAVEMENT_GENERAL	Urban	F	1011101000010101	0000000000000000	-	-	-	-	-	-	-	-	-	-	Terminate	
Unknown	86.98507	01/14/0117 09:21.24	00005219	11.353	Inter613t1-1	-0.033	2	2	0.000	11.111	1.2	0.063	0.000	D	F	1313.9	0.000	0.198	-0.004	1507.160	1137.307	0.027	-	0.037	-0.110	-	-	-	-	-	-	-	PAVEMENT_GENERAL	Urban	F	1011101000010101	0000000000000000	-	-	-	-	-	-	-	-	-	-	Terminate	
Unknown	87.98509	01/14/0117 09:21.25	00005279	11.261	Inter613t1-1	-0.026	2	2	0.000	11.111	0.2	0.065	0.000	D	F	1307.5	0.072	0.198	-0.001	1507.167	1148.613	0.027	-	0.009	-0.087	-	-	-	-	-	-	-	PAVEMENT_GENERAL	Urban	F	1011101000010101	0000000000000000	-	-	-	-	-	-	-	-	-	-	Terminate	
Unknown	88.98512	01/14/0117 09:21.26	00005339	11.184	Inter613t1-1	-0.017	2	2	0.000	11.111	-0.7	0.067	0.000	D	F	1313.6	0.008	0.199	0.003	1507.176	1159.835	0.027	-	-0.021	-0.066	-	-	-	-	-	-	-	PAVEMENT_GENERAL	Urban	F	1011101000010101	0000000000000000	-	-	-	-	-	-	-	-	-	-	Terminate	
Unknown	89.98513	01/14/0117 09:21.27	00005399	11.123	Inter613t1-1	-0.073	2	2	0.000	11.111	-5.4	0.067	0.000	D	F	1311.4	359.317	0.198	0.024	1507.121	1170.988	0.027	-	-0.187	-0.065	-	-	-	-	-	-	-	PAVEMENT_GENERAL	Urban	F	1011101000010101	0000000000000000	-	-	-	-	-	-	-	-	-	-	Terminate	
Unknown	90.98515	01/14/0117 09:21.28	00005459	11.061	Inter613t1-1	-0.332	2	2	0.000	11.111	-9.3	0.065	0.000	D	F	1308.2	357.972	0.198	0.042	1506.862	1182.076	0.027	-	-0.325	-0.060	-	-	-	-	-	-	-	PAVEMENT_GENERAL	Urban	F	1011101000010101	0000000000000000	-	-	-	-	-	-	-	-	-	-	Terminate	
Unknown	91.98518	01/14/0117 09:21.29	00005519	11.000	Inter613t1-1	-0.892	2	2	0.000	11.111	-8.7	0.067	0.000	D	F	1306.7	356.348	0.198	0.040	1506.301	1193.092	0.027	-	-0.303	-0.056	-	-	-	14	6.283	69.106	-	PAVEMENT_GENERAL	Urban	F	1011101000010101	0000000000000000	-	-	-	-	-	-	-	-	-	-	Terminate	
Unknown	92.98519	01/14/0117 09:21.30	00005579	10.950	Inter746t1-1	-1.730	2	2	0.000	11.111	-3.1	0.067	0.000	D	F	1311.1	355.189	0.199	0.014	1505.464	1204.033	0.027	-	-0.114	-0.047	-	-	-	14	7.580	83.006	-	PAVEMENT_GENERAL	Urban	F	1011101000010101	0000000000000000	-	-	-	-	-	-	-	-	-	-	Terminate	
Unknown	93.98521	01/14/0117 09:21.31	00005639	10.882	Inter746t1-0	1.063	1	2	0.000	11.111	21.1	0.065	0.000	D	F	1288.3	357.069	0.198	-0.100	1504.656	1214.923	0.027	-	0.762	-0.079	-	-	-	14	8.254	89.820	-	PAVEMENT_GENERAL	Urban	F	1011101000010101	0000000000000000	-	-	-	-	-	-	-	-	-	-	Terminate	
Unknown	94.98523	01/14/0117 09:21.32	00005699	10.808	Inter746t1-0	0.728	1	2	0.000	11.111	5.5	0.065	0.000	D	F	1284.7	358.717	0.199	-0.023	1504.322	1225.762	0.027	-	0.174	-0.070	-	-	-	14	9.169	99.100	-	PAVEMENT_GENERAL	Urban	F	1011101000010101	0000000000000000	-	-	-	-	-	-	-	-	-	-	Terminate	
Unknown	95.98525	01/14/0117 09:21.33	00005759	10.743	Inter746t1-0	0.581	1	2	0.000	11.111	2.7	0.067	0.000	D	F	1291.3	359.579	0.199	-0.011	1504.174	1236.535	0.027	-	0.099	-0.051	-	-	-	14	10.094	108.447	-	PAVEMENT_GENERAL	Urban	F	1011101000010101	0000000000000000	-	-	-	-	-	-	-	-	-	-	Terminate	
Unknown	96.98528	01/14/0117 09:21.34	00005819	10.772	Inter746t1-0	0.546	1	2	0.000	11.111	0.9	0.122	0.000	D	F	1483.3	359.948	0.203	-0.005	1504.139	1247.264	0.025	-	0.031	0.264	-	-	-	14	10.940	117.837	-	PAVEMENT_GENERAL	Urban	F	1011101000010101	0000000000000000	-	-	-	-	-	-	-	-	-	-	Terminate	
Unknown	97.98529	01/14/0117 09:21.35	00005879	11.217	Inter746t1-0	0.551	1	2	0.000	11.111	0.5	0.166	0.000	D	F	1620.7	0.091	0.205	-0.002	1504.144	1258.243	0.024	-	0.020	0.525	-	-	-	14	11.320	126.978	-	PAVEMENT_GENERAL	Urban	F	1011101000010101	0000000000000000	-	-	-	-	-	-	-	-	-	-	Terminate	
Unknown	98.98531	01/14/0117 09:21.36	00005939	12.000	Inter746t1-0	0.578	1	2	0.000	11.111	0.3	0.226	0.000	D	F	1819.2	0.166	0.206	-0.002	1504.171	1269.814	0.022	-	0.014	0.863	-	-	-	14	11.268	135.219	-	PAVEMENT_GENERAL	Urban	F	1011101000010101	0000000000000000	-	-	-	-	-	-	-	-	-	-	Terminate	
Unknown	99.98534	01/14/0117 09:21.37	00005999	12.806	Inter746t1-0	0.616	1	2	0.000	11.111	-0.4	0.212	0.000	D	F	1823.4	0.159	0.204	0.003	1504.209	1282.229	0.023	-	-0.017	0.738	-	-	-	14	10.882	139.353	-	PAVEMENT_GENERAL	Urban	F	1011101000010101	0000000000000000	-	-	-	-	-	-	-	-	-	-	Terminate	
Unknown	100.98535	01/14/0117 09:21.38	00006059	13.506	Inter746t1-0	0.639	1	2	0.000	11.111	-2.3	0.210	0.000	D	F	1847.0	0.011	0.203	0.011	1504.232	1295.392	0.023	-	-0.081	0.672	-	-	-	14	10.357	139.888	410.752	PAVEMENT_GENERAL	Urban	F	1011101000010101	0000000000000000	-	-	-	-	-	-	-	-	-	-	Terminate	
Unknown	101.98537	01/14/0117 09:21.39	00006119	14.140	Inter746t1-0	0.605	1	2	0.000	11.111	-1.0	0.208	0.000	D	F	1870.9	359.735	0.202	0.006	1504.198	1309.219	0.024	-	-0.050	0.608	Person36	12.7	13.495	14	9.827	138.950	92.166	PAVEMENT_GENERAL	Urban	F	1011101000010101	0000000000000000	-	-	-	-	-	-	-	-	-	-	Terminate	
Unknown	102.98539	01/14/0117 09:21.40	00006179	14.718	Inter746t1-0	0.513	1	2	0.000	11.111	-1.2	0.205	0.000	D	F	1889.4	359.512	0.200	0.008	1504.106	1323.652	0.024	-	-0.062	0.545	-	-	-	14	9.302	136.903	52.957	PAVEMENT_GENERAL	Urban	F	1011101000010101	0000000000000000	-	-	-	-	-	-	-	-	-	-	Terminate	
Unknown	103.98541	01/14/0117 09:21.41	00006239	15.244	Inter746t1-0	0.355	1	2	0.000	11.111	-1.2	0.206	0.000	D	F	1918.1	359.266	0.199	0.008	1503.948	1338.636	0.024	-	-0.064	0.510	-	-	-	-	-	-	-	PAVEMENT_GENERAL	Urban	F	1011101000010101	0000000000000000	-	-	-	-	-	-	-	-	-	-	Terminate	
Unknown	104.98544	01/14/0117 09:21.42	00006299	15.720	Inter746t1-0	0.129	1	2	0.000	11.111	-1.5	0.189	0.000	D	F	1893.1	359.023	0.197	0.013	1503.722	1354.127	0.024	-	-0.086	0.401	-	-	-	-	-	-	-	PAVEMENT_GENERAL	Urban	F	1011101000010101	0000000000000000	-	-	-	-	-	-	-	-	-	-	Terminate	
Unknown	105.98545	01/14/0117 09:21.43	00006359	16.072	Inter746t1-0	-0.077	1	2	0.000	11.111	5.3	0.183	0.000	D	F	1897.6	359.835	0.196	-0.043	1503.516	1370.024	0.025	-	0.333	0.335	-	-	-	-	-	-	-	PAVEMENT_GENERAL	Urban	F	1011101000010101	0000000000000000	-	-	-	-	-	-	-	-	-	-	Terminate	
Unknown	106.98547	01/14/0117 09:21.44	00006419	16.030	Inter746t1-0	0.005	1	2	0.000	11.111	4.5	0.071	0.000	D	F	1693.1	0.840	0.191	-0.036	1503.598	1386.142	0.028	-	0.279	-0.224	-	-	-	-	-	-	-	PAVEMENT_GENERAL	Urban	F	1011101000010101	0000000000000000	-	-	-	-	-	-	-	-	-	-	Terminate	
Unknown	107.98550	01/14/0117 09:21.45	00006479	15.810	Inter749t9-0	0.295	1	2	0.000	11.111	-1.3	0.065	0.000	D	F	1666.9	1.002	0.192	0.014	1503.888	1402.060	0.028	-	-0.093	-0.215	-	-	-	-	-	-	-	PAVEMENT_GENERAL	Urban	F	1011101000010101	0000000000000000	-	-	-	-	-	-	-	-	-	-	Terminate	
Unknown	108.98551	01/14/0117 09:21.46	00006539	15.593	Inter749t33-0	0.572	1	1	0.064	11.111	-1.2	0.060	0.000	D	F	1634.1	1.083	0.192	-0.002	1504.166	1417.759	0.028	-	0.004	-0.226	-	-	-	14	7.570	118.028	471.638	PAVEMENT_GENERAL	Urban	F	1011101000010101	0000000000000000	-	-	-	-	-	-	-	-	-	-	Terminate	
Unknown	109.98553	01/14/0117 09:21.47	00006599	15.055	Inter749t31-0	1.262	1	1	354.360	11.111	-40.2	0.000	0.000	D	F	1477.3	355.293	0.173	0.337	1503.975	1433.108	0.030	-	-2.516	-0.612	-	-	-	14	7.905	119.005	-	PAVEMENT_GENERAL	Urban	F	1011101000010101	0000000000000000	-	-	-	-	-	-	-	-	-	-	Terminate	
Unknown	110.98555	01/14/0117 09:21.48	00006659	14.466	Inter749t31-0	0.790	1	1	356.439	11.111	16.8	0.000	0.000	D	F	1420.7	351.400	0.188	-0.092	1502.062	1447.734	0.029	-	0.529	-0.571	-	-	-	14	8.471	122.534	-	PAVEMENT_GENERAL	Urban	F	1011101000010101	0000000000000000	-	-	-	-	-	-	-	-	-	-	Terminate	
Unknown	111.98557	01/14/0117 09:21.49	00006719	13.884	Inter749t31-0	0.218	1	1	356.903	11.111	27.5	0.000	0.000	D	F	1363.4	357.437	0.180	-0.209	1500.590	1461.827	0.029	-	1.648	-0.573	-	-	-	-	-	-	-	PAVEMENT_GENERAL	Urban	F	1011101000010101	0000000000000000	-	-	-	-	-	-	-	-	-	-	Terminate	
Unknown	112.98560	01/14/0117 09:21.50	00006779	13.325	Inter749t11-0	0.276	LT1	2	0.000	11.111	-25.5	0.000	0.000	D	F	1308.8	358.974	0.189	0.132	1500.338	1475.426	0.029	-	-0.921	-0.560	-	-	-	-	-	-	-	PAVEMENT_GENERAL	Urban	F	1011101000010101	0000000000000000	-	-	-	-	-	-	-	-	-	-	Terminate	
Unknown	113.98561	01/14/0117 09:21.51	00006839	12.648	Inter749t65-0	0.079	1	1	339.544	11.111	-142.1	0.000	0.000	D	F	1232.6	345.257	0.178	0.721	1498.911	1488.330	0.035	-	-5.208	-0.852	-	-	-	-	-	-	-	PAVEMENT_GENERAL	Urban	F	1011101000010101	0000000000000000	-	-	-	-	-	-	-	-	-	-	Terminate	
Unknown	114.98563	01/14/0117 09:21.52	00006899	11.447	Inter749t65-0	0.729	1	1	314.129	11.111	-183.5	0.000	0.000	D	F	1104.1	313.115	-0.085	1.109	1493.100	1498.750	0.045	-	-6.849	-1.038	-	-	-	-	-	-	-	PAVEMENT_GENERAL	Urban	F	1011101000010101	0000000000000000	-	-	-	-	-	-	-	-	-	-	Terminate	
Unknown	115.98566	01/14/0117 09:21.53	00006959	10.525	Inter749t65-0	0.640	1	1	278.029	11.111	-91.5	0.000	0.000	D	F	1034.2	286.110	0.101	0.458	1483.644	1503.992	0.033	-	-3.715	-0.642	-	-	-	-	-	-	-	PAVEMENT_GENERAL	Urban	F	1011101000010101	0000000000000000	-	-	-	-	-	-	-	-	-	-	Terminate	
Unknown	116.98567	01/14/0117 09:21.54	00007019	9.995	Inter749t3-4	-1.439	2	2	270.000	11.111	-9.8	0.000	0.000	D	F	982.2	276.442	0.193	0.034	1473.544	1505.692	0.029	-	-0.403	-0.501	-	-	-	-	-	-	-	PAVEMENT_GENERAL	Urban	F	1011101000010101	0000000000000000	-	-	-	-	-	-	-	-	-	-	Terminate	
Unknown	117.98569	01/14/0117 09:21.55	00007079	9.494	Inter749t17-0	-0.580	1	1	270.072	11.111	-33.7	0.000	0.000	D	F	933.0	273.441	0.192	0.144	1463.839	1506.554	0.029	-	-0.988	-0.510	-	-	-	-	-	-	-	PAVEMENT_GENERAL	Urban	F	1011101000010101	0000000000000000	-	-	-	-	-	-	-	-	-	-	Terminate	
Unknown	118.98571	01/14/0117 09:21.56	00007139	9.371	Inter749t17-0	-0.420	1	1	270.101	11.111	-4.1	0.139	0.000	D	F	1474.9	270.106	0.203	0.013	1454.510	1506.724	0.024	-	-0.122	0.457	-	-	-	-	-	-	-	PAVEMENT_GENERAL	Urban	F	1011101000010101	0000000000000000	-	-	-	-	-	-	-	-	-	-	Terminate	
Unknown	119.98573	01/14/0117 09:21.57	00007199	9.865	Inter749t17-0	-0.430	1	1	270.096	11.111	1.7	0.125	0.000	D	F	1469.2	270.173	0.203	-0.005	1444.885	1506.730	0.024	-	0.052	0.409	-	-	-	-	-	-	-	PAVEMENT_GENERAL	Urban	F	1011101000010101	0000000000000000	-	-	-	-	-	-	-	-	-	-	Terminate	
Unknown	120.98576	01/14/0117 09:21.58	00007259	10.246	Inter749t17-0	-0.388	1	1	270.064	11.111	1.6	0.120	0.000	D	F	1467.6	270.494	0.203	-0.007	1434.825	1506.792	0.025	-	0.052	0.346	-	-	-	-	-	-	-	PAVEMENT_GENERAL	Urban	F	1011101000010101	0000000000000000	-	-	-	-	-	-	-	-	-	-	Terminate	
Unknown	121.98577	01/14/0117 09:21.59	00007319	10.582	Inter749t17-0	-0.294	1	1	270.061	11.111	-0.7	0.123	0.000	D	F	1491.4	270.581	0.203	0.003	1424.413	1506.898	0.025	-	-0.021	0.343	-	-	-	-	-	-	-	PAVEMENT_GENERAL	Urban	F	1011101000010101	0000000000000000	-	-	-	-	-	-	-	-	-	-	Terminate	
Unknown	122.98579	01/14/0117 09:22.00	00007379	10.909	Inter749t1-3	-0.207	2	2	270.000	11.111	-0.9	0.122	0.000	D	F	1503.6	270.438	0.202	0.004	1413.665	1506.993	0.025	-	-0.030	0.315	-	-	-	-	-	-	-	PAVEMENT_GENERAL	Urban	F	1011101000010101	0000000000000000	-	-	-	-	-	-	-	-	-	-	Terminate	
Unknown	123.98581	01/14/0117 09:22.01	00007439	11.205	Inter749t1-3	-0.139	2	2	270.000	11.111	-0.9	0.120	0.000	D	F	1507.7	270.278	0.202	0.004	1402.605	1507.061	0.025	-	-0.032	0.281	-	-	-	-	-	-	-	PAVEMENT_GENERAL	Urban	F	1011101000010101	0000000000000000	-	-	-	-	-	-	-	-	-	-	Terminate	
Unknown	124.98583	01/14/0117 09:22.02	00007499	11.475	Inter747t1-3	-0.101	2	2	270.000	11.111	0.6	0.127	0.000	D	F	1529.2	270.240	0.201	-0.003	1391.263	1507.106	0.025	-	0.021	0.263	-	-	-	-	-	-	-	PAVEMENT_GENERAL	Urban	F	1011101000010101	0000000000000000	-	-	-	-	-	-	-	-	-	-	Terminate	
Unknown	125.98586	01/14/0117 09:22.03	00007559	11.741	Inter747t1-3	-0.018	2	2	270.000	11.111	4.5	0.122	0.000	D	F	1533.6	270.703	0.201	-0.021	1379.653	1507.188	0.025	-	0.166	0.252	-	-	-	-	-	-	-	PAVEMENT_GENERAL	Urban	F	1011101000010101	0000000000000000	-	-	-	-	-	-	-	-	-	-	Terminate	
Unknown	126.98587	01/14/0117 09:22.04	00007619	11.981	Inter747t1-3	0.200	2	2	270.000	11.111	2.7	0.122	0.000	D	F	1544.3	271.322	0.201	-0.014	1367.792	1507.407	0.025	-	0.104	0.233	-	-	-	-	-	-	-	PAVEMENT_GENERAL	Urban	F	1011101000010101	0000000000000000	-	-	-	-	-	-	-	-	-	-	Terminate	
Unknown	127.98589	01/14/0117 09:22.05	00007679	12.208	Inter747t1-3	0.454	2	2	270.000	11.111	-8.7	0.118	0.000	D	F	1549.9	270.702	0.200	0.045	1355.698	1507.660	0.025	-	-0.334	0.214	-	-	-	-	-	-	-	PAVEMENT_GENERAL	Urban	F	1011101000010101	0000000000000000	-	-	-	-	-	-	-	-	-	-	Terminate	
Unknown	128.98592	01/14/0117 09:22.06	00007739	12.410	Inter747t1-3	0.448	2	2	270.000	11.111	1.4	0.118	0.000	D	F	1552.1	269.540	0.200	-0.005	1343.387	1507.655	0.026	-	-0.004	0.191	-	-	-	-	-	-	-	PAVEMENT_GENERAL	Urban	F	1011101000010101	0000000000000000	-	-	-	-	-	-	-	-	-	-	Terminate	
Unknown	129.98593	01/14/0117 09:22.07	00007799	12.589	Inter747t1-3	0.388	2	2	270.000	11.111	2.4	0.118	0.000	D	F	1559.5	269.930	0.199	-0.013	1330.886	1507.595	0.026	-	0.098	0.177	-	-	-	-	-	-	-	PAVEMENT_GENERAL	Urban	F	1011101000010101	0000000000000000	-	-	-	-	-	-	-	-	-	-	Terminate	
Unknown	130.98595	01/14/0117 09:22.08	00007859	12.764	Inter747t1-3	0.420	2	2	270.000	11.111	-2.5	0.123	0.000	D	F	1579.0	270.278	0.200	0.011	1318.211	1507.627	0.026	-	-0.051	0.195	-	-	-	-	-	-	-	PAVEMENT_GENERAL	Urban	F	1011101000010101	0000000000000000	-	-	-	-	-	-	-	-	-	-	Terminate	
Unknown	131.98598	01/14/0117 09:22.09	00007919	12.950	Inter747t1-3	0.419	2	2	270.000	11.111	-3.0	0.122	0.000	D	F	1580.5	269.701	0.199	0.016	1305.350	1507.625	0.026	-	-0.128	0.168	-	-	-	-	-	-	-	PAVEMENT_GENERAL	Urban	F	1011101000010101	0000000000000000	-	-	-	-	-	-	-	-	-	-	Terminate	
Unknown	132.98599	01/14/0117 09:22.10	00007979	13.105	Inter747t1-3	0.290	2	2	270.000	11.111	-2.3	0.120	0.000	D	F	1582.3	269.200	0.198	0.013	1292.322	1507.497	0.026	-	-0.099	0.141	-	-	-	-	-	-	-	PAVEMENT_GENERAL	Urban	F	1011101000010101	0000000000000000	-	-	-	-	-	-	-	-	-	-	Terminate	
Unknown	133.98601	01/14/0117 09:22.11	00008039	13.253	Inter747t1-3	0.057	2	2	270.000	11.111	-1.8	0.123	0.000	D	F	1605.2	268.786	0.198	0.010	1279.147	1507.263	0.026	-	-0.082	0.167	-	-	-	-	-	-	-	PAVEMENT_GENERAL	Urban	F	1011101000010101	0000000000000000	-	-	-	-	-	-	-	-	-	-	Terminate	
Unknown	134.98604	01/14/0117 09:22.12	00008099	13.488	Inter747t1-3	-0.187	2	2	270.000	11.111	5.2	0.192	0.000	D	F	1785.1	269.473	0.201	-0.036	1265.799	1507.020	0.025	-	0.273	0.406	-	-	-	-	-	-	-	PAVEMENT_GENERAL	Urban	F	1011101000010101	0000000000000000	-	-	-	-	-	-	-	-	-	-	Terminate	
Unknown	135.98605	01/14/0117 09:22.13	00008159	14.207	Inter747t1-3	-0.213	2	2	270.000	11.111	3.6	0.245	0.000	D	F	1927.4	270.284	0.203	-0.023	1251.963	1506.994	0.023	-	0.178	0.732	-	-	-	-	-	-	-	PAVEMENT_GENERAL	Urban	F	1011101000010101	0000000000000000	-	-	-	-	-	-	-	-	-	-	Terminate	
Unknown	136.98607	01/14/0117 09:22.14	00008219	14.898	Inter747t1-3	-0.062	2	2	270.000	11.111	3.5	0.229	0.000	D	F	1946.1	270.933	0.201	-0.023	1237.405	1507.145	0.023	-	0.177	0.652	-	-	-	-	-	-	-	PAVEMENT_GENERAL	Urban	F	1011101000010101	0000000000000000	-	-	-	-	-	-	-	-	-	-	Terminate	
Unknown	137.98610	01/14/0117 09:22.15	00008279	15.516	Inter747t1-3	0.203	2	2	270.000	11.111	-3.4	0.222	0.000	D	F	1966.8	270.810	0.200	0.024	1222.195	1507.410	0.024	-	-0.173	0.591	-	-	-	-	-	-	-	PAVEMENT_GENERAL	Urban	F	1011101000010101	0000000000000000	-	-	-	-	-	-	-	-	-	-	Terminate	
Unknown	138.98611	01/14/0117 09:22.16	00008339	16.063	Inter747t1-3	0.351	2	2	270.000	11.111	-2.4	0.219	0.000	D	F	1984.5	270.254	0.198	0.017	1206.400	1507.558	0.024	-	-0.135	0.524	-	-	-	-	-	-	-	PAVEMENT_GENERAL	Urban	F	1011101000010101	0000000000000000	-	-	-	-	-	-	-	-	-	-	Terminate	
Unknown	139.98613	01/14/0117 09:22.17	00008399	16.601	Inter748t1-3	0.359	2	2	270.000	11.111	-2.5	0.233	0.000	D	F	2032.0	269.753	0.198	0.019	1190.068	1507.566	0.024	-	-0.144	0.541	-	-	-	-	-	-	-	PAVEMENT_GENERAL	Urban	F	1011101000010101	0000000000000000	-	-	-	-	-	-	-	-	-	-	Terminate	
Unknown	140.98616	01/14/0117 09:22.18	00008459	16.925	Inter748t1-3	0.221	2	2	270.000	11.111	-2.5	0.238	0.000	D	F	2051.8	269.252	0.197	0.019	1173.292	1507.428	0.025	-	-0.146	0.482	-	-	-	-	-	-	-	PAVEMENT_GENERAL	Urban	F	1011101000010101	0000000000000000	-	-	-	-	-	-	-	-	-	-	Terminate	
Unknown	141.98618	01/14/0117 09:22.19	00008519	17.438	Inter748t1-3	-0.056	2	2	270.000	11.111	2.5	0.238	0.000	D	F	2074.7	268.997	0.196	-0.013	1156.111	1507.150	0.024	-	0.079	0.500	-	-	-	-	-	-	-	PAVEMENT_GENERAL	Urban	F	1011101000010101	0000000000000000	-	-	-	-	-	-	-	-	-	-	Terminate	
Unknown	142.98619	01/14/0117 09:22.20	00008579	17.925	Inter748t1-3	-0.290	2	2	270.000	11.111	3.8	0.243	0.000	D	F	2107.6	269.567	0.196	-0.028	1138.429	1506.917	0.024	-	0.210	0.482	-	-	-	-	-	-	-	PAVEMENT_GENERAL	Urban	F	1011101000010101	0000000000000000	-	-	-	-	-	-	-	-	-	-	Terminate	
Unknown	143.98621	01/14/0117 09:22.21	00008639	18.402	Inter748t1-3	-0.315	2	2	270.000	11.111	2.2	0.243	0.000	D	F	2145.2	270.397	0.194	-0.027	1120.263	1506.892	0.024	-	0.215	0.466	-	-	-	-	-	-	-	PAVEMENT_GENERAL	Urban	F	1011101000010101	0000000000000000	-	-	-	-	-	-	-	-	-	-	Terminate	
Unknown	144.98624	01/14/0117 09:22.22	00008699	18.858	Inter748t1-3	-0.148	2	2	270.000	11.111	0.6	0.242	0.000	D	F	2177.9	270.638	0.194	-0.007	1101.631	1507.058	0.025	-	0.053	0.443	-	-	-	-	-	-	-	PAVEMENT_GENERAL	Urban	F	1011101000010101	0000000000000000	-	-	-	-	-	-	-	-	-	-	Terminate	
Unknown	145.98625	01/14/0117 09:22.23	00008759	19.297	Inter748t1-3	0.051	2	2	270.000	11.111	-0.8	0.245	0.000	D	F	2212.5	270.504	0.193	0.008	1082.553	1507.257	0.025	-	-0.060	0.435	-	-	-	-	-	-	-	PAVEMENT_GENERAL	Urban	F	1011101000010101	0000000000000000	-	-	-	-	-	-	-	-	-	-	Terminate	
Unknown	146.98627	01/14/0117 09:22.24	00008819	19.724	Inter748t1-3	0.200	2	2	270.000	11.111	-0.7	0.243	0.000	D	F	2245.3	270.340	0.192	0.007	1063.042	1507.406	0.025	-	-0.054	0.422	-	-	-	-	-	-	-	PAVEMENT_GENERAL	Urban	F	1011101000010101	0000000000000000	-	-	-	-	-	-	-	-	-	-	Terminate	
Unknown	147.98630	01/14/0117 09:22.25	00008879	20.138	Inter748t1-3	0.294	2	2	270.000	11.111	-2.6	0.245	0.000	D	F	2275.6	270.107	0.191	0.022	1043.110	1507.501	0.025	-	-0.149	0.406	-	-	-	-	-	-	-	PAVEMENT_GENERAL	Urban	F	1111101000010101	0000000000000000	-	-	-	-	-	-	-	-	-	-	Terminate	
Unknown	148.98631	01/14/0117 09:22.26	00008939	20.541	Inter748t1-3	0.256	2	2	270.000	11.111	-2.5	0.242	0.000	D	F	2304.9	269.590	0.190	0.023	1022.769	1507.463	0.025	-	-0.180	0.397	-	-	-	-	-	-	-	PAVEMENT_GENERAL	Urban	F	1011101000010101	0000000000000000	-	-	-	-	-	-	-	-	-	-	Terminate	
Unknown	149.98633	01/14/0117 09:22.27	00008999	20.931	Inter748t1-3	0.034	2	2	270.000	11.111	-2.3	0.243	0.000	D	F	2331.6	269.068	0.190	0.024	1002.033	1507.241	0.025	-	-0.185	0.382	-	-	-	-	-	-	-	PAVEMENT_GENERAL	Urban	F	1011101000010101	0000000000000000	-	-	-	-	-	-	-	-	-	-	Terminate	
Unknown	150.98636	01/14/0117 09:22.28	00009059	21.291	Inter752t1-3	-0.936	2	2	269.738	24.444	4.0	0.176	0.000	D	F	2090.4	269.574	0.460	-0.471	980.913	1506.935	0.070	-	0.280	0.142	-	-	-	-	-	-	-	FREEWAY_SMOOTH	Urban	F	1011101000010101	0000000000000000	-	-	-	-	-	-	-	-	-	-	Terminate	
Unknown	151.98637	01/14/0117 09:22.29	00009119	21.271	Inter752t1-3	-0.761	2	2	268.679	24.444	-1.4	0.120	0.000	D	F	1686.3	269.953	0.375	-0.954	959.605	1506.832	0.142	-	-0.057	-0.126	-	-	-	-	-	-	-	FREEWAY_SMOOTH	Urban	F	1011101000010101	0000000000000000	-	-	-	-	-	-	-	-	-	-	Terminate	
Unknown	152.98639	01/14/0117 09:22.30	00009179	21.160	Inter752t1-3	-0.228	2	2	266.829	24.444	-16.2	0.129	0.000	D	F	1689.7	267.749	0.397	-1.305	938.393	1506.541	0.220	-	-1.355	-0.102	-	-	-	-	-	-	-	FREEWAY_SMOOTH	Urban	F	1011101000010101	0000000000000000	-	-	-	-	-	-	-	-	-	-	Terminate	
Unknown	153.98642	01/14/0117 09:22.31	00009239	21.067	Inter752t1-3	-0.171	2	2	264.211	24.444	-17.7	0.134	0.000	D	F	1696.8	262.727	0.320	-1.768	917.348	1504.947	0.291	-	-1.884	-0.061	-	-	-	-	-	-	-	FREEWAY_SMOOTH	Urban	F	1011101000010101	0000000000000000	-	-	-	-	-	-	-	-	-	-	Terminate	
Unknown	154.98643	01/14/0117 09:22.32	00009299	20.972	Inter752t1-3	-0.833	2	2	260.842	24.444	-12.1	0.048	0.000	D	F	1518.8	258.136	0.231	-2.344	896.603	1501.547	0.331	-	-1.482	-0.183	-	-	-	-	-	-	-	FREEWAY_SMOOTH	Urban	F	1011101000010101	0000000000000000	-	-	-	-	-	-	-	-	-	-	Terminate	
Unknown	155.98645	01/14/0117 09:22.33	00009359	20.650	Inter752t1-3	-1.550	2	2	256.800	24.444	-1.2	0.062	0.000	D	F	1530.4	255.766	0.278	-2.982	876.347	1496.786	0.356	-	-0.435	-0.307	-	-	-	-	-	-	-	FREEWAY_SMOOTH	Urban	F	1011101000010101	0000000000000000	-	-	-	-	-	-	-	-	-	-	Terminate	
Unknown	156.98647	01/14/0117 09:22.34	00009419	20.339	Inter752t1-3	-1.315	2	2	252.101	24.444	-17.1	0.065	0.000	D	F	1518.7	253.689	0.415	-3.333	856.552	1491.469	0.424	-	-1.416	-0.322	-	-	-	-	-	-	-	FREEWAY_SMOOTH	Urban	F	1011101000010101	0000000000000000	-	-	-	-	-	-	-	-	-	-	Terminate	
Unknown	157.98650	01/14/0117 09:22.35	00009479	19.970	Inter752t1-3	-0.736	2	2	247.084	24.444	-23.9	0.063	0.000	D	F	1493.1	247.582	0.212	-3.207	837.499	1484.919	0.459	-	-2.320	-0.354	-	-	-	-	-	-	-	FREEWAY_SMOOTH	Urban	F	1011101000010101	0000000000000000	-	-	-	-	-	-	-	-	-	-	Terminate	
Unknown	158.98651	01/14/0117 09:22.36	00009539	19.579	Inter752t1-3	-0.829	2	2	242.175	24.444	-9.4	0.060	0.000	D	F	1466.8	239.729	0.028	-3.247	819.713	1476.313	0.454	-	-2.120	-0.313	-	-	-	-	-	-	-	FREEWAY_SMOOTH	Urban	F	1011101000010101	0000000000000000	-	-	-	-	-	-	-	-	-	-	Terminate	
Unknown	159.98653	01/14/0117 09:22.37	00009599	19.255	Inter752t1-3	-1.142	2	2	237.381	24.444	-4.4	0.067	0.000	D	F	1462.0	237.926	0.218	-3.444	803.123	1466.224	0.435	-	-0.517	-0.321	-	-	-	-	-	-	-	FREEWAY_SMOOTH	Urban	F	1011101000010101	0000000000000000	-	-	-	-	-	-	-	-	-	-	Terminate	
Unknown	160.98656	01/14/0117 09:22.38	00009659	18.932	Inter752t1-3	-0.544	2	2	232.664	24.444	-19.4	0.065	0.000	D	F	1447.5	235.139	0.330	-3.310	787.172	1455.726	0.471	-	-1.443	-0.333	-	-	-	-	-	-	-	FREEWAY_SMOOTH	Urban	F	1011101000010101	0000000000000000	-	-	-	-	-	-	-	-	-	-	Terminate	
Unknown	161.98657	01/14/0117 09:22.39	00009719	18.595	Inter752t1-3	0.060	2	2	228.091	24.444	-27.4	0.071	0.000	D	F	1433.2	228.073	0.180	-3.181	772.385	1444.189	0.507	-	-2.503	-0.305	-	-	-	-	-	-	-	FREEWAY_SMOOTH	Urban	F	1011101000010101	0000000000000000	-	-	-	-	-	-	-	-	-	-	Terminate	
Unknown	162.98659	01/14/0117 09:22.40	00009779	18.289	Inter752t1-3	-0.280	2	2	223.577	24.444	-17.4	0.072	0.000	D	F	1422.1	220.422	-0.002	-3.228	759.456	1431.060	0.487	-	-2.126	-0.253	-	-	-	-	-	-	-	FREEWAY_SMOOTH	Urban	F	1011101000010101	0000000000000000	-	-	-	-	-	-	-	-	-	-	Terminate	
Unknown	163.98662	01/14/0117 09:22.41	00009839	18.031	Inter752t1-3	-1.004	2	2	219.069	24.444	-4.1	0.067	0.000	D	F	1410.5	217.900	0.126	-3.447	748.071	1416.911	0.443	-	-0.491	-0.254	-	-	-	-	-	-	-	FREEWAY_SMOOTH	Urban	F	1011101000010101	0000000000000000	-	-	-	-	-	-	-	-	-	-	Terminate	
Unknown	164.98663	01/14/0117 09:22.42	00009899	17.761	Inter752t1-3	-0.964	2	2	214.618	24.444	-12.4	0.069	0.000	D	F	1390.0	215.756	0.270	-3.380	737.352	1402.577	0.445	-	-0.943	-0.277	-	-	-	-	-	-	-	FREEWAY_SMOOTH	Urban	F	1011101000010101	0000000000000000	-	-	-	-	-	-	-	-	-	-	Terminate	
Unknown	165.98665	01/14/0117 09:22.43	00009959	17.480	Inter752t1-3	-0.515	2	2	210.323	24.444	-17.0	0.069	0.000	D	F	1381.4	211.590	0.274	-3.323	727.568	1387.925	0.472	-	-1.421	-0.280	-	-	-	-	-	-	-	FREEWAY_SMOOTH	Urban	F	1011101000010101	0000000000000000	-	-	-	-	-	-	-	-	-	-	Terminate	
Unknown	166.98668	01/14/0117 09:22.44	00010019	17.205	Inter752t1-3	-0.163	2	2	205.949	24.444	-18.3	0.071	0.000	D	F	1366.8	206.523	0.225	-3.305	719.129	1372.779	0.493	-	-1.566	-0.258	-	-	-	-	-	-	-	FREEWAY_SMOOTH	Urban	F	1011101000010101	0000000000000000	-	-	-	-	-	-	-	-	-	-	Terminate	
Unknown	167.98669	01/14/0117 09:22.45	00010079	16.949	Inter752t1-3	-0.101	2	2	201.835	24.444	-19.4	0.069	0.000	D	F	1356.6	201.229	0.143	-3.302	712.204	1357.175	0.497	-	-1.601	-0.248	-	-	-	-	-	-	-	FREEWAY_SMOOTH	Urban	F	1011101000010101	0000000000000000	-	-	-	-	-	-	-	-	-	-	Terminate	
Unknown	168.98671	01/14/0117 09:22.46	00010139	16.709	Inter752t1-3	-0.402	2	2	197.660	24.444	-19.1	0.067	0.000	D	F	1340.3	195.782	0.021	-3.283	706.857	1341.224	0.478	-	-1.559	-0.234	-	-	-	-	-	-	-	FREEWAY_SMOOTH	Urban	F	1011101000010101	0000000000000000	-	-	-	-	-	-	-	-	-	-	Terminate	
Unknown	169.98674	01/14/0117 09:22.47	00010199	16.430	Inter752t1-3	-1.044	2	2	193.790	24.444	-15.3	0.067	0.000	D	F	1326.8	191.008	-0.129	-2.901	703.042	1325.104	0.391	-	-1.243	-0.272	-	-	-	-	-	-	-	FREEWAY_SMOOTH	Urban	F	1011101000010101	0000000000000000	-	-	-	-	-	-	-	-	-	-	Terminate	
Unknown	170.98676	01/14/0117 09:22.48	00010259	16.166	Inter752t1-2	1.688	1	2	190.458	24.444	-11.2	0.067	0.000	D	F	1314.0	186.981	-0.113	-2.533	700.517	1309.006	0.304	-	-0.989	-0.264	-	-	-	-	-	-	-	FREEWAY_SMOOTH	Urban	F	1011101000010101	0000000000000000	-	-	-	-	-	-	-	-	-	-	Terminate	
Unknown	171.98677	01/14/0117 09:22.49	00010319	15.903	Inter752t1-2	0.818	1	2	187.608	24.444	0.6	0.069	0.000	D	F	1316.9	185.081	-0.034	-2.243	698.900	1293.054	0.229	-	-0.249	-0.250	-	-	-	-	-	-	-	FREEWAY_SMOOTH	Urban	F	1011101000010101	0000000000000000	-	-	-	-	-	-	-	-	-	-	Terminate	
Unknown	172.98679	01/14/0117 09:22.50	00010379	15.655	Inter752t1-2	0.430	1	2	185.237	24.444	-7.7	0.078	0.000	D	F	1339.4	185.052	0.071	-1.843	697.552	1277.335	0.182	-	-0.281	-0.226	-	-	-	-	-	-	-	FREEWAY_SMOOTH	Urban	F	1011101000010101	0000000000000000	-	-	-	-	-	-	-	-	-	-	Terminate	
Unknown	173.98682	01/14/0117 09:22.51	00010439	15.428	Inter752t1-2	0.337	1	2	183.335	24.444	-6.8	0.074	0.000	D	F	1320.4	182.795	0.062	-1.433	696.512	1261.829	0.149	-	-0.523	-0.230	-	-	-	-	-	-	-	FREEWAY_SMOOTH	Urban	F	1011101000010101	0000000000000000	-	-	-	-	-	-	-	-	-	-	Terminate	
Unknown	174.98683	01/14/0117 09:22.52	00010499	15.205	Inter752t1-2	0.231	1	2	181.866	24.444	-1.0	0.074	0.000	D	F	1321.8	181.773	0.075	-1.106	695.946	1246.523	0.116	-	-0.140	-0.220	-	-	-	-	-	-	-	FREEWAY_SMOOTH	Urban	F	1011101000010101	0000000000000000	-	-	-	-	-	-	-	-	-	-	Terminate	
Unknown	175.98685	01/14/0117 09:22.53	00010559	14.994	Inter752t1-2	0.302	1	2	180.832	24.444	-0.3	0.078	0.000	D	F	1315.4	181.516	0.086	-0.741	695.538	1231.429	0.088	-	-0.045	-0.211	-	-	-	-	-	-	-	FREEWAY_SMOOTH	Urban	F	1011101000010101	0000000000000000	-	-	-	-	-	-	-	-	-	-	Terminate	
Unknown	176.98688	01/14/0117 09:22.54	00010619	14.782	Inter752t1-2	0.529	1	2	180.216	24.444	-2.9	0.074	0.000	D	F	1306.8	181.239	0.077	-0.357	695.189	1216.545	0.060	-	-0.120	-0.215	-	-	-	-	-	-	-	FREEWAY_SMOOTH	Urban	F	1011101000010101	0000000000000000	-	-	-	-	-	-	-	-	-	-	Terminate	
Unknown	177.98689	01/14/0117 09:22.55	00010679	14.577	Inter752t1-2	0.728	1	2	180.000	24.444	-5.7	0.072	0.000	D	F	1293.1	180.351	0.065	0.029	694.972	1201.868	0.030	-	-0.287	-0.211	-	-	-	Ambient414	4.902	71.461	17.162	FREEWAY_SMOOTH	Urban	F	1111101000010101	0000000000000000	-	-	-	-	-	-	-	-	-	-	Terminate	
Unknown	178.98691	01/14/0117 09:22.56	00010739	14.421	Inter754t3-2	1.372	1	2	180.000	11.111	-4.4	0.078	0.000	D	F	1296.0	179.235	0.194	0.031	695.021	1187.371	0.027	-	-0.243	-0.145	-	-	-	Ambient414	4.671	67.364	16.809	PAVEMENT_GENERAL	Urban	F	1011101000010101	0000000000000000	-	-	-	-	-	-	-	-	-	-	Terminate	
Unknown	179.98694	01/14/0117 09:22.57	00010799	14.277	Inter754t3-2	1.110	1	2	180.000	11.111	-0.0	0.071	0.000	D	F	1288.0	178.783	0.194	0.001	695.284	1173.025	0.027	-	-0.020	-0.141	-	-	-	Ambient414	4.443	63.427	16.416	PAVEMENT_GENERAL	Urban	F	1011101000010101	0000000000000000	-	-	-	-	-	-	-	-	-	-	Terminate	
Unknown	180.98695	01/14/0117 09:22.58	00010859	14.138	Inter754t3-2	0.842	1	2	180.000	11.111	4.9	0.072	0.000	D	F	1288.2	179.228	0.194	-0.029	695.551	1158.821	0.027	-	0.219	-0.142	-	-	-	Ambient414	4.380	61.919	16.622	PAVEMENT_GENERAL	Urban	F	1011101000010101	0000000000000000	-	-	-	-	-	-	-	-	-	-	Terminate	
Unknown	181.98697	01/14/0117 09:22.59	00010919	14.009	Inter754t3-2	0.772	1	2	180.000	11.111	5.2	0.079	0.000	D	F	1325.2	180.245	0.196	-0.032	695.621	1144.751	0.027	-	0.253	-0.095	-	-	-	Ambient414	4.159	58.260	16.201	PAVEMENT_GENERAL	Urban	F	1011101000010101	0000000000000000	-	-	-	-	-	-	-	-	-	-	Terminate	
Unknown	182.98700	01/14/0117 09:23.00	00010979	13.904	Inter754t3-2	0.906	1	2	180.000	11.111	-3.6	0.081	0.000	D	F	1311.4	180.554	0.195	0.022	695.488	1130.795	0.027	-	-0.138	-0.091	-	-	-	Ambient414	3.935	54.720	15.672	PAVEMENT_GENERAL	Urban	F	1011101000010101	0000000000000000	-	-	-	-	-	-	-	-	-	-	Terminate	
Unknown	183.98701	01/14/0117 09:23.01	00011039	13.951	Inter754t3-2	0.956	1	2	180.000	11.111	-3.3	0.146	0.000	D	F	1651.4	179.863	0.197	0.020	695.437	1116.901	0.025	-	-0.156	0.219	-	-	-	Ambient414	3.673	51.240	14.482	PAVEMENT_GENERAL	Urban	F	1111101000010101	0000000000000000	-	-	-	-	-	-	-	-	-	-	Terminate	
Unknown	184.98703	01/14/0117 09:23.02	00011099	14.134	Inter754t3-2	0.846	1	2	180.000	11.111	-3.0	0.092	0.000	D	F	1577.4	179.238	0.198	0.019	695.547	1102.819	0.027	-	-0.145	-0.021	-	-	-	Ambient414	3.366	47.572	12.783	PAVEMENT_GENERAL	Urban	F	1011101000010101	0000000000000000	-	-	-	-	-	-	-	-	-	-	Terminate	
Unknown	185.98706	01/14/0117 09:23.03	00011159	13.846	Inter754t9-0	0.600	1	1	179.992	11.111	-1.1	0.000	0.000	D	F	1359.9	178.782	0.188	0.009	695.794	1088.763	0.029	-	-0.072	-0.558	-	-	-	Ambient414	3.173	43.927	12.797	PAVEMENT_GENERAL	Urban	F	1011101000010101	0000000000000000	-	-	-	-	-	-	-	-	-	-	Terminate	
Unknown	186.98708	01/14/0117 09:23.04	00011219	13.828	Inter754t9-0	0.294	1	1	179.989	11.111	2.4	0.123	0.000	D	F	1633.0	178.764	0.194	-0.011	696.102	1074.986	0.025	-	0.088	0.144	-	-	-	Ambient414	2.761	38.172	11.178	PAVEMENT_GENERAL	Urban	F	1011101000010101	0000000000000000	-	-	-	-	-	-	-	-	-	-	Terminate	
Unknown	187.98709	01/14/0117 09:23.05	00011279	13.951	Inter754t9-0	0.069	1	1	179.989	11.111	3.8	0.111	0.000	D	F	1613.2	179.422	0.196	-0.023	696.329	1061.102	0.026	-	0.180	0.100	-	-	-	Ambient414	2.488	34.707	9.809	PAVEMENT_GENERAL	Urban	F	1011101000010101	0000000000000000	-	-	-	-	-	-	-	-	-	-	Terminate	
Unknown	188.98711	01/14/0117 09:23.06	00011339	13.896	Inter754t9-0	0.007	1	1	179.992	11.111	2.7	0.072	0.000	D	F	1519.9	180.025	0.195	-0.016	696.394	1047.147	0.027	-	0.127	-0.110	-	-	-	Ambient414	2.412	33.518	9.622	PAVEMENT_GENERAL	Urban	F	1011101000010101	0000000000000000	-	-	-	-	-	-	-	-	-	-	Terminate	
Unknown	189.98714	01/14/0117 09:23.07	00011399	13.552	Inter754t9-0	0.075	1	1	179.996	11.111	2.2	0.004	0.000	D	F	1331.2	180.543	0.191	-0.016	696.328	1033.374	0.029	-	0.125	-0.517	-	-	-	Ambient414	2.228	30.188	9.617	PAVEMENT_GENERAL	Urban	F	1011101000010101	0000000000000000	-	-	-	-	-	-	-	-	-	-	Terminate	
Unknown	190.98715	01/14/0117 09:23.08	00011459	13.118	Inter754t9-0	0.213	1	1	179.996	11.111	-3.1	0.021	0.000	D	F	1292.6	180.409	0.192	0.020	696.191	1020.052	0.028	-	-0.144	-0.410	-	-	-	Ambient414	1.900	24.925	9.213	PAVEMENT_GENERAL	Urban	F	1011101000010101	0000000000000000	-	-	-	-	-	-	-	-	-	-	Terminate	
Unknown	191.98717	01/14/0117 09:23.09	00011519	12.702	Inter754t1-1	0.230	1	1	180.000	11.111	-3.2	0.016	0.000	D	F	1250.1	179.744	0.192	0.020	696.173	1007.138	0.028	-	-0.152	-0.434	-	-	-	Ambient414	1.951	24.776	10.823	PAVEMENT_GENERAL	Urban	F	1011101000010101	0000000000000000	-	-	-	-	-	-	-	-	-	-	Terminate	
Unknown	192.98720	01/14/0117 09:23.10	00011579	12.297	Inter686t1-0	0.103	1	1	180.000	11.111	0.9	0.012	0.000	D	F	1210.5	179.272	0.193	-0.004	696.293	994.636	0.028	-	0.009	-0.428	-	-	-	Ambient414	1.845	22.686	12.038	PAVEMENT_GENERAL	Urban	F	1011101000010101	0000000000000000	-	-	-	-	-	-	-	-	-	-	Terminate	
Unknown	193.98721	01/14/0117 09:23.11	00011639	11.906	Inter686t1-0	-0.023	1	1	180.000	11.111	2.0	0.026	0.000	D	F	1213.6	179.600	0.195	-0.011	696.419	982.542	0.028	-	0.089	-0.359	-	-	-	Ambient414	1.764	21.003	14.071	PAVEMENT_GENERAL	Urban	F	1011101000010101	0000000000000000	-	-	-	-	-	-	-	-	-	-	Terminate	
Unknown	194.98723	01/14/0117 09:23.12	00011699	11.521	Inter686t1-0	-0.075	1	1	180.000	11.111	0.8	0.018	0.000	D	F	1144.5	179.848	0.195	-0.004	696.471	970.826	0.028	-	0.033	-0.393	-	-	-	Ambient414	1.710	19.698	17.769	PAVEMENT_GENERAL	Urban	F	1011101000010101	0000000000000000	-	-	-	-	-	-	-	-	-	-	Terminate	
Unknown	195.98726	01/14/0117 09:23.13	00011759	11.115	Inter686t1-0	-0.089	1	1	180.000	11.111	0.9	0.012	0.000	D	F	1094.7	180.009	0.195	-0.004	696.485	959.507	0.028	-	0.032	-0.407	-	-	-	Ambient414	1.691	18.791	26.765	PAVEMENT_GENERAL	Urban	F	1011101000010101	0000000000000000	-	-	-	-	-	-	-	-	-	-	Terminate	
Unknown	196.98727	01/14/0117 09:23.14	00011819	10.706	Inter686t1-0	-0.071	1	1	180.000	11.111	0.9	0.016	0.000	D	F	1091.6	180.170	0.196	-0.004	696.467	948.597	0.028	-	0.031	-0.391	-	-	-	Ambient414	1.709	18.292	62.319	PAVEMENT_GENERAL	Urban	F	1011101000010101	0000000000000000	-	-	-	-	-	-	-	-	-	-	Terminate	
Unknown	197.98729	01/14/0117 09:23.15	00011879	10.396	Inter686t1-0	-0.023	1	1	180.000	11.111	0.9	0.046	0.000	D	F	1192.8	180.332	0.197	-0.003	696.420	938.065	0.027	-	0.028	-0.166	-	-	-	Ambient414	1.748	18.171	-	PAVEMENT_GENERAL	Urban	F	1011101000010101	0000000000000000	-	-	-	-	-	-	-	-	-	-	Terminate	
Unknown	198.98732	01/14/0117 09:23.16	00011939	10.274	Inter686t1-0	0.052	1	1	180.000	11.111	0.9	0.051	0.000	D	F	1188.2	180.494	0.198	-0.004	696.344	927.736	0.027	-	0.029	-0.141	-	-	-	Ambient414	1.777	18.254	-	PAVEMENT_GENERAL	Urban	F	1011101000010101	0000000000000000	-	-	-	-	-	-	-	-	-	-	Terminate	
Unknown	199.98734	01/14/0117 09:23.17	00011999	10.069	Inter686t1-0	0.128	1	1	180.000	11.111	-2.0	0.039	0.000	D	F	1130.5	180.295	0.198	0.008	696.268	917.558	0.027	-	-0.058	-0.225	-	-	-	Ambient414	1.836	18.487	-	PAVEMENT_GENERAL	Urban	F	1011101000010101	0000000000000000	-	-	-	-	-	-	-	-	-	-	Terminate	
Unknown	200.98735	01/14/0117 09:23.18	00012059	9.919	Inter686t1-0	0.147	1	1	180.000	11.111	-2.0	0.056	0.000	D	F	1202.1	179.964	0.199	0.007	696.249	907.579	0.027	-	-0.056	-0.086	-	-	-	Ambient414	1.907	18.919	-	PAVEMENT_GENERAL	Urban	F	1011101000010101	0000000000000000	-	-	-	-	-	-	-	-	-	-	Terminate	
Unknown	201.98737	01/14/0117 09:23.19	00012119	9.805	Inter686t1-0	0.110	1	1	180.000	11.111	-0.3	0.049	0.000	D	F	1179.8	179.667	0.199	0.000	696.286	897.717	0.027	-	-0.014	-0.110	-	-	-	Ambient414	1.985	19.468	-	PAVEMENT_GENERAL	Urban	F	1011101000010101	0000000000000000	-	-	-	-	-	-	-	-	-	-	Terminate	
Unknown	202.98740	01/14/0117 09:23.20	00012179	9.689	Inter686t1-0	0.051	1	1	180.000	11.111	0.4	0.055	0.000	D	F	1180.2	179.668	0.200	-0.001	696.345	887.971	0.027	-	0.011	-0.096	-	-	-	Ambient414	2.078	20.134	-	PAVEMENT_GENERAL	Urban	F	1011101000010101	0000000000000000	-	-	-	-	-	-	-	-	-	-	Terminate	
Unknown	203.98741	01/14/0117 09:23.21	00012239	9.841	Inter686t1-0	0.001	1	1	180.000	11.111	0.5	0.097	0.000	D	F	1380.5	179.728	0.202	-0.002	696.395	878.252	0.025	-	0.013	0.254	-	-	-	Ambient414	2.116	20.827	-	PAVEMENT_GENERAL	Urban	F	1011101000010101	0000000000000000	-	-	-	-	-	-	-	-	-	-	Terminate	
Unknown	204.98743	01/14/0117 09:23.22	00012299	10.041	Inter686t1-0	-0.038	1	1	180.000	11.111	0.5	0.088	0.000	D	F	1370.5	179.813	0.201	-0.002	696.434	868.309	0.025	-	0.016	0.172	-	-	-	Ambient414	2.121	21.295	-	PAVEMENT_GENERAL	Urban	F	1011101000010101	0000000000000000	-	-	-	-	-	-	-	-	-	-	Terminate	
Unknown	205.98746	01/14/0117 09:23.23	00012359	10.217	Inter686t1-0	-0.061	1	1	180.000	11.111	0.7	0.090	0.000	D	F	1369.7	179.923	0.201	-0.003	696.457	858.179	0.026	-	0.022	0.157	-	-	-	Ambient414	2.112	21.577	-	PAVEMENT_GENERAL	Urban	F	1011101000010101	0000000000000000	-	-	-	-	-	-	-	-	-	-	Terminate	
Unknown	206.98747	01/14/0117 09:23.24	00012419	10.354	Inter686t1-0	-0.063	1	1	180.000	11.111	0.7	0.085	0.000	D	F	1361.4	180.046	0.201	-0.003	696.459	847.891	0.026	-	0.023	0.123	-	-	-	Ambient414	2.096	21.700	-	PAVEMENT_GENERAL	Urban	F	1011101000010101	0000000000000000	-	-	-	-	-	-	-	-	-	-	Terminate	
Unknown	207.98749	01/14/0117 09:23.25	00012479	10.470	Inter686t1-0	-0.046	1	1	180.000	11.111	-0.9	0.090	0.000	D	F	1369.2	180.085	0.201	0.003	696.442	837.479	0.026	-	-0.025	0.115	-	-	-	Ambient414	2.072	21.699	377.831	PAVEMENT_GENERAL	Urban	F	1011101000010101	0000000000000000	-	-	-	-	-	-	-	-	-	-	Terminate	
Unknown	208.98752	01/14/0117 09:23.26	00012539	10.578	Inter686t1-0	-0.045	1	1	180.000	11.111	-0.6	0.088	0.000	D	F	1375.7	179.943	0.201	0.003	696.441	826.954	0.026	-	-0.021	0.106	-	-	-	Ambient414	2.041	21.586	130.759	PAVEMENT_GENERAL	Urban	F	1011101000010101	0000000000000000	-	-	-	-	-	-	-	-	-	-	Terminate	
