"Name"	"Project"	"Time"	ZoneName	Time	SystemTime	Frame	Velocity	LaneName	LanePos	LaneIndex	LaneCount	LaneHeading	SpeedLimit	Steer	Accel	Brake	Gear	Horn	SubjectEngineRPM	SubjectHeading	SubjectPitch	SubjectRoll	SubjectX	SubjectY	SubjectZ	Signal	LatAccel	LongAccel	Collision	CollisionAngle	CollisionVelocity	VehAhead	HeadwayTime	HeadwayDist	TTC	TerrainType	CultureType	Slip	DigitalInputs	DigitalInputs2	ActiveTrigger	EntityName	DistToEntity	TimeToEntity	EntityVelocity	EntityAccel	EntityHeading	EntityX	EntityY	EntityZ	GrabData	
"Student2mode3"	"Tanvi_6"	"Nov 22, 2016 08:13:20 AM"	Unknown	0.98335	10/22/0116 08:13.24	00000059	0.002	Inter625t13-0	-0.088	1	2	0.000	11.111	-20.6	0.002	0.000	D	F	0.0	0.000	0.154	0.007	1503.500	523.206	0.019	-	0.000	0.000	-	-	-	-	-	-	-	PAVEMENT_GENERAL	Urban	F	1111101000000001	0000000000000000	-	car	928.855	773626.562	0.000	0.000	180.000	696.000	987.000	-0.000	Terminate	
"Student2mode3"	"Tanvi_6"	"Nov 22, 2016 08:13:20 AM"	Unknown	1.98337	10/22/0116 08:13.25	00000119	0.000	Inter625t13-0	-0.088	1	2	0.000	11.111	-20.9	0.000	0.000	D	F	0.0	0.000	0.197	0.000	1503.500	523.208	0.026	-	-0.000	-0.001	-	-	-	-	-	-	-	PAVEMENT_GENERAL	Urban	F	1011101000000001	0000000000000000	-	car	928.855	4200686.500	0.000	0.000	180.000	696.000	987.000	-0.000	Terminate	
"Student2mode3"	"Tanvi_6"	"Nov 22, 2016 08:13:20 AM"	Unknown	2.98339	10/22/0116 08:13.26	00000179	0.000	Inter625t13-0	-0.088	1	2	0.000	11.111	-20.9	0.000	0.000	D	F	100.0	0.000	0.207	0.000	1503.500	523.208	0.028	-	-0.000	0.001	-	-	-	-	-	-	-	PAVEMENT_GENERAL	Urban	F	1111101000000011	0000000000000000	-	car	928.855	6169265.500	0.000	0.000	180.000	696.000	987.000	-0.000	Terminate	
"Student2mode3"	"Tanvi_6"	"Nov 22, 2016 08:13:20 AM"	Unknown	3.98341	10/22/0116 08:13.27	00000239	0.001	Inter625t13-0	-0.088	1	2	0.000	11.111	-20.8	0.000	0.000	D	F	433.3	0.000	0.209	0.000	1503.500	523.208	0.028	-	-0.000	0.005	-	-	-	-	-	-	-	PAVEMENT_GENERAL	Urban	F	1011101000000001	0000000000000000	-	car	928.854	1591501.625	0.000	0.000	180.000	696.000	987.000	-0.000	Terminate	
"Student2mode3"	"Tanvi_6"	"Nov 22, 2016 08:13:20 AM"	Unknown	4.98343	10/22/0116 08:13.28	00000299	1.402	Inter625t13-0	-0.092	1	2	0.000	11.111	-19.5	0.159	0.000	D	F	1384.8	359.852	0.233	0.009	1503.496	523.517	0.013	-	-0.053	3.401	-	-	-	-	-	-	-	PAVEMENT_GENERAL	Urban	F	1011101000000001	0000000000000000	-	car	928.696	1325.100	0.000	0.000	180.000	696.000	987.000	-0.000	Terminate	
"Student2mode3"	"Tanvi_6"	"Nov 22, 2016 08:13:20 AM"	Unknown	5.98345	10/22/0116 08:13.29	00000359	4.094	Inter625t13-0	-0.148	1	2	0.000	11.111	-9.4	0.155	0.000	D	F	1615.6	358.963	0.218	0.010	1503.440	526.381	0.015	-	-0.052	2.108	-	-	-	-	-	-	-	PAVEMENT_GENERAL	Urban	F	1111101000000001	0000000000000000	-	car	927.226	443.109	0.000	0.000	180.000	696.000	987.000	-0.000	Terminate	
"Student2mode3"	"Tanvi_6"	"Nov 22, 2016 08:13:20 AM"	Unknown	6.98347	10/22/0116 08:13.30	00000419	5.819	Inter625t13-0	-0.254	1	2	0.000	11.111	4.6	0.157	0.000	D	F	1873.0	358.931	0.215	-0.003	1503.334	531.391	0.019	-	0.048	1.472	-	-	-	-	-	-	-	PAVEMENT_GENERAL	Urban	F	1011101000000001	0000000000000000	-	car	924.662	313.016	0.000	0.000	180.000	696.000	987.000	-0.000	Terminate	
"Student2mode3"	"Tanvi_6"	"Nov 22, 2016 08:13:20 AM"	Unknown	7.98349	10/22/0116 08:13.31	00000479	7.098	Inter625t49-0	-0.341	1	1	0.006	11.111	0.8	0.146	0.000	D	F	1587.5	359.311	0.210	0.001	1503.248	537.902	0.021	-	0.009	1.014	-	-	-	-	-	-	-	PAVEMENT_GENERAL	Urban	F	1011101000000001	0000000000000000	-	car	921.403	261.380	0.000	0.000	180.000	696.000	987.000	-0.000	Terminate	
"Student2mode3"	"Tanvi_6"	"Nov 22, 2016 08:13:20 AM"	Unknown	8.98351	10/22/0116 08:13.32	00000539	7.840	Inter625t49-0	-0.434	1	1	0.007	11.111	0.2	0.132	0.000	D	F	1603.6	359.219	0.212	0.000	1503.156	545.404	0.023	-	0.002	0.792	-	-	-	-	-	-	-	PAVEMENT_GENERAL	Urban	F	1011101000000001	0000000000000000	-	car	917.699	237.957	0.000	0.000	180.000	696.000	987.000	-0.000	Terminate	
"Student2mode3"	"Tanvi_6"	"Nov 22, 2016 08:13:20 AM"	Unknown	9.98353	10/22/0116 08:13.33	00000599	8.546	Inter625t49-0	-0.499	1	1	0.007	11.111	3.6	0.138	0.000	D	F	1640.7	359.911	0.208	-0.004	1503.091	553.598	0.023	-	0.079	0.680	-	-	-	-	-	-	-	PAVEMENT_GENERAL	Urban	F	1011101000000001	0000000000000000	-	car	913.738	225.360	0.000	0.000	180.000	696.000	987.000	-0.000	Terminate	
"Student2mode3"	"Tanvi_6"	"Nov 22, 2016 08:13:20 AM"	Unknown	10.98355	10/22/0116 08:13.34	00000659	9.100	Inter625t49-0	-0.491	1	1	0.006	11.111	-0.0	0.111	0.000	D	F	1618.3	0.051	0.204	-0.003	1503.101	562.453	0.024	-	0.001	0.383	-	-	-	-	-	-	-	PAVEMENT_GENERAL	Urban	F	1111101000000001	0000000000000000	-	car	909.590	215.082	0.000	0.000	180.000	696.000	987.000	-0.000	Terminate	
"Student2mode3"	"Tanvi_6"	"Nov 22, 2016 08:13:20 AM"	Unknown	11.98357	10/22/0116 08:13.35	00000719	9.535	Inter625t49-0	-0.470	1	1	0.005	11.111	1.7	0.134	0.000	D	F	1712.8	0.271	0.205	-0.003	1503.122	571.754	0.024	-	0.050	0.523	-	-	-	-	-	-	-	PAVEMENT_GENERAL	Urban	F	1011101000000001	0000000000000000	-	car	905.316	209.476	0.000	0.000	180.000	696.000	987.000	-0.000	Terminate	
"Student2mode3"	"Tanvi_6"	"Nov 22, 2016 08:13:20 AM"	Unknown	12.98359	10/22/0116 08:13.36	00000779	10.062	Inter625t49-0	-0.424	1	1	0.005	11.111	-1.3	0.139	0.000	D	F	1777.2	0.200	0.205	0.004	1503.169	581.554	0.024	-	-0.038	0.507	-	-	-	-	-	-	-	PAVEMENT_GENERAL	Urban	F	1011101000000001	0000000000000000	-	car	900.917	200.866	0.000	0.000	180.000	696.000	987.000	-0.000	Terminate	
"Student2mode3"	"Tanvi_6"	"Nov 22, 2016 08:13:20 AM"	Unknown	13.98361	10/22/0116 08:13.37	00000839	10.513	Inter625t15-0	-0.427	1	2	0.000	11.111	-0.6	0.123	0.000	D	F	1506.8	359.796	0.202	0.003	1503.166	591.857	0.025	-	-0.031	0.344	-	-	-	-	-	-	-	PAVEMENT_GENERAL	Urban	F	1111101000000001	0000000000000000	-	car	896.337	192.504	0.000	0.000	180.000	696.000	987.000	-0.000	Terminate	
"Student2mode3"	"Tanvi_6"	"Nov 22, 2016 08:13:20 AM"	Unknown	14.98363	10/22/0116 08:13.38	00000899	10.867	Inter614t1-0	-0.464	1	2	0.000	11.111	3.1	0.146	0.000	D	F	1549.1	359.913	0.204	-0.013	1503.129	602.542	0.025	-	0.096	0.416	-	-	-	-	-	-	-	PAVEMENT_GENERAL	Urban	F	1111101000000001	0000000000000000	-	car	891.657	190.198	0.000	0.000	180.000	696.000	987.000	-0.000	Terminate	
"Student2mode3"	"Tanvi_6"	"Nov 22, 2016 08:13:20 AM"	Unknown	15.98365	10/22/0116 08:13.39	00000959	11.292	Inter614t1-0	-0.422	1	2	0.000	11.111	2.9	0.143	0.000	D	F	1576.0	0.461	0.203	-0.013	1503.171	613.622	0.024	-	0.102	0.414	-	-	-	-	-	-	-	PAVEMENT_GENERAL	Urban	F	1011101000000001	0000000000000000	-	car	886.986	190.419	0.000	0.000	180.000	696.000	987.000	-0.000	Terminate	
"Student2mode3"	"Tanvi_6"	"Nov 22, 2016 08:13:20 AM"	Unknown	16.98367	10/22/0116 08:13.40	00001019	11.696	Inter614t1-0	-0.274	1	2	0.000	11.111	1.9	0.143	0.000	D	F	1595.6	0.969	0.202	-0.010	1503.319	625.118	0.025	-	0.081	0.388	-	-	-	-	-	-	-	PAVEMENT_GENERAL	Urban	F	1011101000000001	0000000000000000	-	car	882.357	191.700	0.000	0.000	180.000	696.000	987.000	-0.000	Terminate	
"Student2mode3"	"Tanvi_6"	"Nov 22, 2016 08:13:20 AM"	Unknown	17.98369	10/22/0116 08:13.41	00001079	12.067	Inter614t1-0	-0.094	1	2	0.000	11.111	-4.2	0.145	0.000	D	F	1610.4	0.561	0.202	0.021	1503.499	637.001	0.025	-	-0.167	0.356	-	-	-	-	-	-	-	PAVEMENT_GENERAL	Urban	F	1011101000000001	0000000000000000	-	car	877.728	187.135	0.000	0.000	180.000	696.000	987.000	-0.000	Terminate	
"Student2mode3"	"Tanvi_6"	"Nov 22, 2016 08:13:20 AM"	Unknown	18.98371	10/22/0116 08:13.42	00001139	12.437	Inter614t1-0	-0.036	1	2	0.000	11.111	-0.9	0.153	0.000	D	F	1652.9	0.111	0.201	0.005	1503.557	649.249	0.025	-	-0.042	0.386	-	-	-	-	-	-	-	PAVEMENT_GENERAL	Urban	F	1011101000000001	0000000000000000	-	car	872.983	182.755	0.000	0.000	180.000	696.000	987.000	-0.000	Terminate	
"Student2mode3"	"Tanvi_6"	"Nov 22, 2016 08:13:20 AM"	Unknown	19.98373	10/22/0116 08:13.43	00001199	12.812	Inter614t1-0	-0.033	1	2	0.000	11.111	-0.2	0.155	0.000	D	F	1671.9	359.929	0.201	0.000	1503.560	661.876	0.025	-	-0.015	0.368	-	-	-	-	-	-	-	PAVEMENT_GENERAL	Urban	F	1011101000000001	0000000000000000	-	car	868.192	180.896	0.000	0.000	180.000	696.000	987.000	-0.000	Terminate	
"Student2mode3"	"Tanvi_6"	"Nov 22, 2016 08:13:20 AM"	Unknown	20.98375	10/22/0116 08:13.44	00001259	13.562	Inter614t1-0	-0.038	1	2	0.000	11.111	1.5	0.309	0.000	D	F	1954.9	0.090	0.206	-0.010	1503.555	675.023	0.022	-	0.068	0.898	-	-	-	-	-	-	-	PAVEMENT_GENERAL	Urban	F	1111101000000001	0000000000000000	-	car	863.363	177.377	0.000	0.000	180.000	696.000	987.000	-0.000	Terminate	
"Student2mode3"	"Tanvi_6"	"Nov 22, 2016 08:13:20 AM"	Unknown	21.98377	10/22/0116 08:13.45	00001319	14.750	Inter614t1-0	0.035	1	2	0.000	11.111	1.4	0.272	0.000	D	F	2518.4	0.569	0.206	-0.014	1503.628	689.133	0.020	-	0.109	1.268	-	-	-	-	-	-	-	PAVEMENT_GENERAL	Urban	F	1011101000000001	0000000000000000	-	car	858.447	172.853	0.000	0.000	180.000	696.000	987.000	-0.000	Terminate	
"Student2mode3"	"Tanvi_6"	"Nov 22, 2016 08:13:20 AM"	Unknown	22.98379	10/22/0116 08:13.46	00001379	15.196	Inter614t1-0	0.186	1	2	0.000	11.111	-0.1	0.168	0.000	D	F	1821.1	0.467	0.197	0.003	1503.779	704.157	0.025	-	-0.045	0.287	-	-	-	-	-	-	-	PAVEMENT_GENERAL	Urban	F	1011101000000001	0000000000000000	-	car	853.507	174.010	0.000	0.000	180.000	696.000	987.000	-0.000	Terminate	
"Student2mode3"	"Tanvi_6"	"Nov 22, 2016 08:13:20 AM"	Unknown	23.98381	10/22/0116 08:13.47	00001439	15.513	Inter614t1-0	0.319	1	2	0.000	11.111	1.8	0.176	0.000	D	F	1850.3	0.607	0.197	-0.011	1503.912	719.510	0.025	-	0.092	0.319	-	-	-	-	-	-	-	PAVEMENT_GENERAL	Urban	F	1011101000000001	0000000000000000	-	car	848.682	179.821	0.000	0.000	180.000	696.000	987.000	-0.000	Terminate	
"Student2mode3"	"Tanvi_6"	"Nov 22, 2016 08:13:20 AM"	Unknown	24.98383	10/22/0116 08:13.48	00001499	15.824	Inter614t1-0	0.522	1	2	0.000	11.111	1.0	0.176	0.000	D	F	1861.2	0.866	0.197	-0.006	1504.115	735.179	0.025	-	0.054	0.299	-	-	-	-	-	-	-	PAVEMENT_GENERAL	Urban	F	1011101000000001	0000000000000000	-	car	844.082	188.463	0.000	0.000	180.000	696.000	987.000	-0.000	Terminate	
"Student2mode3"	"Tanvi_6"	"Nov 22, 2016 08:13:20 AM"	Unknown	25.98385	10/22/0116 08:13.49	00001559	16.111	Inter614t1-0	0.790	1	2	0.000	11.111	1.3	0.175	0.000	D	F	1878.5	1.095	0.196	-0.008	1504.383	751.146	0.025	-	0.070	0.279	-	-	-	-	-	-	-	PAVEMENT_GENERAL	Urban	F	1111101000000001	0000000000000000	-	car	839.727	199.171	0.000	0.000	180.000	696.000	987.000	-0.000	Terminate	
"Student2mode3"	"Tanvi_6"	"Nov 22, 2016 08:13:20 AM"	Unknown	26.98387	10/22/0116 08:13.50	00001619	16.389	Inter614t1-0	1.150	1	2	0.000	11.111	2.2	0.173	0.000	D	F	1903.6	1.511	0.196	-0.017	1504.743	767.393	0.025	-	0.128	0.279	-	-	-	11	8.997	147.459	-	PAVEMENT_GENERAL	Urban	F	1111101000000001	0000000000000000	-	car	835.670	215.576	0.000	0.000	180.000	696.000	987.000	-0.000	Terminate	
"Student2mode3"	"Tanvi_6"	"Nov 22, 2016 08:13:20 AM"	Unknown	27.98389	10/22/0116 08:13.51	00001679	16.680	Inter614t1-0	1.529	1	2	0.000	11.111	-9.1	0.189	0.000	D	F	1946.4	0.611	0.195	0.069	1505.122	783.916	0.025	-	-0.526	0.331	-	-	-	11	8.921	148.805	-	PAVEMENT_GENERAL	Urban	F	1111101000000001	0000000000000000	-	car	831.860	213.972	0.000	0.000	180.000	696.000	987.000	-0.000	Terminate	
"Student2mode3"	"Tanvi_6"	"Nov 22, 2016 08:13:20 AM"	Unknown	28.98391	10/22/0116 08:13.52	00001739	16.996	Inter612t1-0	1.454	1	2	0.000	11.111	-6.3	0.190	0.000	D	F	1969.4	358.721	0.194	0.059	1505.047	800.755	0.025	-	-0.463	0.311	-	-	-	11	8.815	149.824	-	PAVEMENT_GENERAL	Urban	F	1011101000000001	0000000000000000	-	car	827.848	197.978	0.000	0.000	180.000	696.000	987.000	-0.000	Terminate	
"Student2mode3"	"Tanvi_6"	"Nov 22, 2016 08:13:20 AM"	Unknown	29.98393	10/22/0116 08:13.53	00001799	17.300	Inter612t1-0	0.966	1	2	0.000	11.111	2.2	0.189	0.000	D	F	1990.2	358.208	0.195	-0.011	1504.560	817.897	0.025	-	0.070	0.296	-	-	-	11	8.975	155.273	-	PAVEMENT_GENERAL	Urban	F	1011101000000001	0000000000000000	-	car	823.694	202.422	0.000	0.000	180.000	696.000	987.000	-0.000	Terminate	
"Student2mode3"	"Tanvi_6"	"Nov 22, 2016 08:13:20 AM"	Unknown	30.98395	10/22/0116 08:13.54	00001859	17.596	Inter612t1-0	0.493	1	2	0.000	11.111	3.4	0.190	0.000	D	F	2014.2	358.733	0.194	-0.024	1504.086	835.339	0.025	-	0.181	0.289	-	-	-	-	-	-	-	PAVEMENT_GENERAL	Urban	F	1111101000000001	0000000000000000	-	car	819.835	226.014	0.000	0.000	180.000	696.000	987.000	-0.000	Terminate	
"Student2mode3"	"Tanvi_6"	"Nov 22, 2016 08:13:20 AM"	Unknown	31.98397	10/22/0116 08:13.55	00001919	17.881	Inter612t1-0	0.193	1	2	0.000	11.111	-0.1	0.189	0.000	D	F	2035.8	359.352	0.193	-0.004	1503.787	853.076	0.025	-	0.072	0.282	-	-	-	-	-	-	-	PAVEMENT_GENERAL	Urban	F	1011101000000001	0000000000000000	-	car	816.454	261.350	0.000	0.000	180.000	696.000	987.000	-0.000	Terminate	
"Student2mode3"	"Tanvi_6"	"Nov 22, 2016 08:13:20 AM"	Unknown	32.98399	10/22/0116 08:13.56	00001979	18.156	Inter612t1-0	-0.003	1	2	0.000	11.111	0.7	0.192	0.000	D	F	2054.1	359.437	0.193	-0.005	1503.590	871.094	0.025	-	0.039	0.270	-	-	-	-	-	-	-	PAVEMENT_GENERAL	Urban	F	1011101000000001	0000000000000000	-	car	813.505	295.192	0.000	0.000	180.000	696.000	987.000	-0.000	Terminate	
"Student2mode3"	"Tanvi_6"	"Nov 22, 2016 08:13:20 AM"	Unknown	33.98401	10/22/0116 08:13.57	00002039	18.419	Inter612t1-0	-0.145	1	2	0.000	11.111	1.7	0.192	0.000	D	F	2072.1	359.745	0.193	-0.014	1503.448	889.382	0.025	-	0.112	0.257	-	-	-	-	-	-	-	PAVEMENT_GENERAL	Urban	F	1011101000000001	0000000000000000	-	car	810.968	353.817	0.000	0.000	180.000	696.000	987.000	-0.000	Terminate	
"Student2mode3"	"Tanvi_6"	"Nov 22, 2016 08:13:20 AM"	Unknown	34.98403	10/22/0116 08:13.58	00002099	18.669	Inter612t1-0	-0.184	1	2	0.000	11.111	0.6	0.187	0.000	D	F	2085.3	0.023	0.192	-0.005	1503.409	907.927	0.026	-	0.049	0.243	-	-	-	-	-	-	-	PAVEMENT_GENERAL	Urban	F	1111101000000001	0000000000000000	-	car	808.913	446.406	0.000	0.000	180.000	696.000	987.000	-0.000	Terminate	
"Student2mode3"	"Tanvi_6"	"Nov 22, 2016 08:13:20 AM"	Unknown	35.98405	10/22/0116 08:13.59	00002159	18.826	Inter612t1-0	-0.174	1	2	0.000	11.111	-0.4	0.152	0.000	D	F	2049.7	0.000	0.189	0.005	1503.419	926.696	0.026	-	-0.043	0.058	-	-	-	-	-	-	-	PAVEMENT_GENERAL	Urban	F	1111101000000001	0000000000000000	-	car	807.308	572.614	0.000	0.000	180.000	696.000	987.000	-0.000	Terminate	
"Student2mode3"	"Tanvi_6"	"Nov 22, 2016 08:13:20 AM"	Unknown	36.98407	10/22/0116 08:14.00	00002219	18.820	Inter612t1-0	-0.186	1	2	0.000	11.111	0.1	0.120	0.000	D	F	2006.9	0.000	0.188	-0.001	1503.407	945.537	0.027	-	0.009	-0.080	-	-	-	-	-	-	-	PAVEMENT_GENERAL	Urban	F	1111101000000001	0000000000000000	-	car	806.111	825.524	0.000	0.000	180.000	696.000	987.000	-0.000	Terminate	
"Student2mode3"	"Tanvi_6"	"Nov 22, 2016 08:13:20 AM"	Unknown	37.98409	10/22/0116 08:14.01	00002279	18.720	Inter612t1-0	-0.200	1	2	0.000	11.111	-0.0	0.108	0.000	D	F	1630.2	359.933	0.188	0.001	1503.393	964.312	0.027	-	-0.012	-0.116	-	-	-	-	-	-	-	PAVEMENT_GENERAL	Urban	F	1011101000000001	0000000000000000	-	car	805.353	1470.169	0.000	0.000	180.000	696.000	987.000	-0.000	Terminate	
"Student2mode3"	"Tanvi_6"	"Nov 22, 2016 08:13:20 AM"	Unknown	38.98411	10/22/0116 08:14.02	00002339	18.591	Inter612t1-0	-0.216	1	2	0.000	11.111	0.4	0.109	0.000	D	F	1542.6	0.000	0.188	-0.004	1503.377	982.969	0.027	-	0.028	-0.131	-	-	-	-	-	-	-	PAVEMENT_GENERAL	Urban	F	1011101000000001	0000000000000000	-	car	805.027	8357.364	0.000	0.000	180.000	696.000	987.000	-0.000	Terminate	
"Student2mode3"	"Tanvi_6"	"Nov 22, 2016 08:13:20 AM"	Unknown	39.98413	10/22/0116 08:14.03	00002399	18.471	Inter613t1-0	-0.209	1	2	0.000	11.111	0.3	0.113	0.000	D	F	1553.5	0.071	0.189	-0.003	1503.385	1001.499	0.027	-	0.022	-0.111	-	-	-	-	-	-	-	PAVEMENT_GENERAL	Urban	F	1111101000000001	0000000000000000	-	car	805.155	-2271.426	0.000	0.000	180.000	696.000	987.000	-0.000	Terminate	
"Student2mode3"	"Tanvi_6"	"Nov 22, 2016 08:13:20 AM"	Unknown	40.98415	10/22/0116 08:14.04	00002459	18.390	Inter613t1-0	-0.180	1	2	0.000	11.111	0.3	0.127	0.000	D	F	1588.4	0.114	0.190	-0.002	1503.413	1019.924	0.027	-	0.014	-0.057	-	-	-	-	-	-	-	PAVEMENT_GENERAL	Urban	F	1011101000000001	0000000000000000	-	car	805.725	-1025.300	0.000	0.000	180.000	696.000	987.000	-0.000	Terminate	
"Student2mode3"	"Tanvi_6"	"Nov 22, 2016 08:13:20 AM"	Unknown	41.98417	10/22/0116 08:14.05	00002519	18.379	Inter613t1-0	-0.136	1	2	0.000	11.111	0.3	0.145	0.000	D	F	1634.2	0.168	0.190	-0.002	1503.457	1038.300	0.027	-	0.017	0.014	-	-	-	-	-	-	-	PAVEMENT_GENERAL	Urban	F	1011101000000001	0000000000000000	-	car	806.726	-661.667	0.000	0.000	180.000	696.000	987.000	-0.000	Terminate	
"Student2mode3"	"Tanvi_6"	"Nov 22, 2016 08:13:20 AM"	Unknown	42.98419	10/22/0116 08:14.06	00002579	18.396	Inter613t1-0	-0.075	1	2	0.000	11.111	-0.2	0.150	0.000	D	F	1648.1	0.213	0.190	-0.001	1503.518	1056.686	0.027	-	0.003	0.028	-	-	-	-	-	-	-	PAVEMENT_GENERAL	Urban	F	1111101000000001	0000000000000000	-	car	808.160	-489.881	0.000	0.000	180.000	696.000	987.000	-0.000	Terminate	
"Student2mode3"	"Tanvi_6"	"Nov 22, 2016 08:13:20 AM"	Unknown	43.98421	10/22/0116 08:14.07	00002639	18.414	Inter613t1-0	-0.015	1	2	0.000	11.111	-0.3	0.141	0.000	D	F	1624.9	0.157	0.190	0.002	1503.578	1075.095	0.027	-	-0.016	-0.004	-	-	-	-	-	-	-	PAVEMENT_GENERAL	Urban	F	1011101000000001	0000000000000000	-	car	810.009	-395.680	0.000	0.000	180.000	696.000	987.000	-0.000	Terminate	
"Student2mode3"	"Tanvi_6"	"Nov 22, 2016 08:13:20 AM"	Unknown	44.98423	10/22/0116 08:14.08	00002699	18.345	Inter613t1-0	0.027	1	2	0.000	11.111	-0.4	0.102	0.000	D	F	1519.2	0.084	0.188	0.004	1503.620	1093.490	0.027	-	-0.027	-0.148	-	-	-	-	-	-	-	PAVEMENT_GENERAL	Urban	F	1011101000000001	0000000000000000	-	car	812.251	-334.956	0.000	0.000	180.000	696.000	987.000	-0.000	Terminate	
"Student2mode3"	"Tanvi_6"	"Nov 22, 2016 08:13:20 AM"	Unknown	45.98425	10/22/0116 08:14.09	00002759	18.226	Inter613t1-0	0.048	1	2	0.000	11.111	-0.5	0.106	0.000	D	F	1538.6	0.049	0.189	0.004	1503.641	1111.772	0.027	-	-0.022	-0.107	-	-	-	-	-	-	-	PAVEMENT_GENERAL	Urban	F	1011101000000001	0000000000000000	-	car	814.863	-291.242	0.000	0.000	180.000	696.000	987.000	-0.000	Terminate	
"Student2mode3"	"Tanvi_6"	"Nov 22, 2016 08:13:20 AM"	Unknown	46.98427	10/22/0116 08:14.10	00002819	18.119	Inter613t1-0	0.051	1	2	0.000	11.111	-0.8	0.111	0.000	D	F	1539.0	359.942	0.189	0.006	1503.645	1129.943	0.027	-	-0.047	-0.100	-	-	-	-	-	-	-	PAVEMENT_GENERAL	Urban	F	1111101000000001	0000000000000000	-	car	817.837	-260.486	0.000	0.000	180.000	696.000	987.000	-0.000	Terminate	
"Student2mode3"	"Tanvi_6"	"Nov 22, 2016 08:13:20 AM"	Unknown	47.98429	10/22/0116 08:14.11	00002879	18.020	Inter613t1-0	0.010	1	2	0.000	11.111	-0.9	0.109	0.000	D	F	1538.6	359.764	0.190	0.008	1503.603	1148.012	0.027	-	-0.058	-0.094	-	-	-	-	-	-	-	PAVEMENT_GENERAL	Urban	F	1111101000000001	0000000000000000	-	car	821.138	-237.976	0.000	0.000	180.000	696.000	987.000	-0.000	Terminate	
"Student2mode3"	"Tanvi_6"	"Nov 22, 2016 08:13:20 AM"	Unknown	48.98431	10/22/0116 08:14.12	00002939	17.928	Inter613t1-0	-0.086	1	2	0.000	11.111	-0.3	0.109	0.000	D	F	1534.9	359.605	0.190	0.005	1503.507	1165.985	0.027	-	-0.037	-0.093	-	-	-	-	-	-	-	PAVEMENT_GENERAL	Urban	F	1011101000000001	0000000000000000	-	car	824.746	-219.417	0.000	0.000	180.000	696.000	987.000	-0.000	Terminate	
"Student2mode3"	"Tanvi_6"	"Nov 22, 2016 08:13:20 AM"	Unknown	49.98433	10/22/0116 08:14.13	00002999	17.544	Inter613t1-0	-0.209	1	2	0.000	11.111	-5.7	0.000	0.000	D	F	1196.3	359.486	0.184	0.036	1503.385	1183.777	0.029	-	-0.258	-0.567	-	-	-	-	-	-	-	PAVEMENT_GENERAL	Urban	F	1011101000000001	0000000000000000	-	car	828.659	-207.101	0.000	0.000	180.000	696.000	987.000	-0.000	Terminate	
"Student2mode3"	"Tanvi_6"	"Nov 22, 2016 08:13:20 AM"	Unknown	50.98435	10/22/0116 08:14.14	00003059	16.978	Inter615t9-0	-0.628	1	2	0.000	11.111	-10.2	0.000	0.000	D	F	1157.7	357.312	0.184	0.101	1502.965	1201.032	0.029	L	-0.756	-0.561	-	-	-	-	-	-	-	PAVEMENT_GENERAL	Urban	F	1011101000100001	0000000000000000	-	car	832.507	-232.668	0.000	0.000	180.000	696.000	987.000	-0.000	Terminate	
"Student2mode3"	"Tanvi_6"	"Nov 22, 2016 08:13:20 AM"	Unknown	51.98437	10/22/0116 08:14.15	00003119	16.419	Inter615t31-0	-1.676	1	1	356.749	11.111	-5.7	0.000	0.000	D	F	1119.8	354.947	0.185	0.072	1501.866	1217.692	0.029	L	-0.544	-0.552	-	-	-	22	3.460	56.818	3.460	PAVEMENT_GENERAL	Urban	F	1011101000100001	0000000000000000	-	car	835.877	-268.694	0.000	0.000	180.000	696.000	987.000	-0.000	Terminate	
"Student2mode3"	"Tanvi_6"	"Nov 22, 2016 08:13:20 AM"	Unknown	52.98439	10/22/0116 08:14.16	00003179	14.307	-	-	SH	1	-	-	20.4	0.000	0.206	D	F	949.6	355.934	0.143	-0.130	1500.494	1233.289	0.035	-	0.912	-3.134	-	-	-	-	-	-	-	PAVEMENT_GENERAL	Urban	F	1011101000000001	0000000000000000	-	car	838.990	-261.564	0.000	0.000	180.000	696.000	987.000	-0.000	Terminate	
"Student2mode3"	"Tanvi_6"	"Nov 22, 2016 08:13:20 AM"	Unknown	53.98441	10/22/0116 08:14.17	00003239	11.063	Inter615t31-0	-1.406	1	1	356.195	11.111	11.9	0.000	0.212	D	F	1036.9	0.223	0.141	-0.081	1500.033	1245.958	0.035	L	0.622	-3.240	-	-	-	22	2.574	28.476	2.574	PAVEMENT_GENERAL	Urban	F	1011101000100001	0000000000000000	-	car	842.347	-245.409	0.000	0.000	180.000	696.000	987.000	-0.000	Terminate	
"Student2mode3"	"Tanvi_6"	"Nov 22, 2016 08:13:20 AM"	Unknown	54.98443	10/22/0116 08:14.18	00003299	7.991	Inter615t31-0	-0.561	1	1	356.903	11.111	-7.5	0.000	0.167	D	F	767.6	0.766	0.161	0.017	1500.158	1255.380	0.033	L	-0.150	-2.577	-	-	-	22	2.394	19.134	2.394	PAVEMENT_GENERAL	Urban	F	1011101000100001	0000000000000000	-	car	845.401	-321.342	0.000	0.000	180.000	696.000	987.000	-0.000	Terminate	
"Student2mode3"	"Tanvi_6"	"Nov 22, 2016 08:13:20 AM"	Unknown	55.98445	10/22/0116 08:14.19	00003359	5.458	Inter615t31-0	-0.167	1	1	356.903	11.111	-2.9	0.000	0.170	D	F	524.5	0.000	0.167	0.001	1500.187	1262.144	0.033	L	-0.023	-2.558	-	-	-	22	2.268	12.382	2.268	PAVEMENT_GENERAL	Urban	F	1011101000100001	0000000000000000	-	car	847.594	-479.888	0.000	0.000	180.000	696.000	987.000	-0.000	Terminate	
"Student2mode3"	"Tanvi_6"	"Nov 22, 2016 08:13:20 AM"	Unknown	56.98447	10/22/0116 08:14.20	00003419	3.028	Inter615t31-0	0.047	1	1	356.903	11.111	-1.8	0.000	0.143	D	F	477.5	359.822	0.168	-0.001	1500.176	1266.321	0.032	L	-0.001	-2.148	-	-	-	22	1.930	5.844	1.930	PAVEMENT_GENERAL	Urban	F	1011101000100001	0000000000000000	-	car	848.944	-862.095	0.000	0.000	180.000	696.000	987.000	-0.000	Terminate	
"Student2mode3"	"Tanvi_6"	"Nov 22, 2016 08:13:20 AM"	Unknown	57.98449	10/22/0116 08:14.21	00003479	1.474	Inter615t11-0	0.103	LT1	2	0.000	11.111	-1.1	0.000	0.048	D	F	477.5	359.756	0.205	0.000	1500.166	1268.478	0.030	L	-0.000	-0.855	-	-	-	22	4.104	6.049	4.104	PAVEMENT_GENERAL	Urban	F	1011101000100001	0000000000000000	-	car	849.645	-1766.585	0.000	0.000	180.000	696.000	987.000	-0.000	Terminate	
"Student2mode3"	"Tanvi_6"	"Nov 22, 2016 08:13:20 AM"	Unknown	58.98451	10/22/0116 08:14.22	00003539	1.068	Inter615t11-0	0.097	LT1	2	0.000	11.111	-0.8	0.000	0.030	D	F	477.5	359.732	0.197	-0.000	1500.159	1269.734	0.028	L	-0.000	-0.439	-	-	-	22	4.485	4.792	4.485	PAVEMENT_GENERAL	Urban	F	1011101000100001	0000000000000000	-	car	850.055	-2431.160	0.000	0.000	180.000	696.000	987.000	-0.000	Terminate	
"Student2mode3"	"Tanvi_6"	"Nov 22, 2016 08:13:20 AM"	Unknown	59.98453	10/22/0116 08:14.23	00003599	0.377	Inter615t11-0	0.093	LT1	2	0.000	11.111	-0.8	0.000	0.063	D	F	477.5	359.720	0.205	-0.000	1500.156	1270.438	0.028	L	0.000	-0.403	-	-	-	22	10.839	4.089	10.839	PAVEMENT_GENERAL	Urban	F	1111101000100001	0000000000000000	-	car	850.285	-6876.096	0.000	0.000	180.000	696.000	987.000	-0.000	Terminate	
"Student2mode3"	"Tanvi_6"	"Nov 22, 2016 08:13:20 AM"	Unknown	60.98455	10/22/0116 08:14.24	00003659	0.266	Inter615t11-0	0.092	LT1	2	0.000	11.111	-0.9	0.000	0.036	D	F	477.5	359.714	0.205	-0.000	1500.154	1270.735	0.027	L	-0.000	-0.033	-	-	-	22	17.024	4.528	-	PAVEMENT_GENERAL	Urban	F	1011101000100001	0000000000000000	-	car	850.383	-9747.165	0.000	0.000	180.000	696.000	987.000	-0.000	Terminate	
"Student2mode3"	"Tanvi_6"	"Nov 22, 2016 08:13:20 AM"	Unknown	61.98457	10/22/0116 08:14.25	00003719	0.425	Inter615t11-0	0.090	LT1	2	0.000	11.111	-0.3	0.101	0.000	D	F	950.7	359.709	0.212	-0.000	1500.152	1271.067	0.026	L	0.000	0.530	-	-	-	22	16.249	6.914	-	PAVEMENT_GENERAL	Urban	F	1111101000100001	0000000000000000	-	car	850.491	-6088.946	0.000	0.000	180.000	696.000	987.000	-0.000	Terminate	
"Student2mode3"	"Tanvi_6"	"Nov 22, 2016 08:13:20 AM"	Unknown	62.98459	10/22/0116 08:14.26	00003779	2.950	Inter615t11-0	0.081	LT1	2	0.000	11.111	-0.2	0.118	0.000	D	F	1399.8	359.708	0.210	0.000	1500.143	1272.790	0.016	L	-0.001	2.099	-	-	-	22	3.375	9.955	-	PAVEMENT_GENERAL	Urban	F	1111101000100001	0000000000000000	-	car	851.059	-874.064	0.000	0.000	180.000	696.000	987.000	-0.000	Terminate	
"Student2mode3"	"Tanvi_6"	"Nov 22, 2016 08:13:20 AM"	Unknown	63.98461	10/22/0116 08:14.27	00003839	4.689	Inter615t11-0	0.063	LT1	2	0.000	11.111	0.8	0.146	0.000	D	F	1657.4	359.742	0.220	-0.003	1500.125	1276.654	0.019	L	0.012	1.643	-	-	-	22	2.733	12.815	-	PAVEMENT_GENERAL	Urban	F	1011101000100001	0000000000000000	-	car	852.343	-543.210	0.000	0.000	180.000	696.000	987.000	-0.000	Terminate	
"Student2mode3"	"Tanvi_6"	"Nov 22, 2016 08:13:20 AM"	Unknown	64.98463	10/22/0116 08:14.28	00003899	6.188	Inter615t65-0	0.030	1	1	357.395	11.111	-25.8	0.153	0.000	D	F	1656.4	359.312	0.211	0.063	1500.085	1282.104	0.019	L	-0.426	1.368	-	-	-	22	2.596	16.062	-	PAVEMENT_GENERAL	Urban	F	1011101000100001	0000000000000000	-	car	854.167	-414.211	0.000	0.000	180.000	696.000	987.000	-0.000	Terminate	
"Student2mode3"	"Tanvi_6"	"Nov 22, 2016 08:13:20 AM"	Unknown	65.98465	10/22/0116 08:14.29	00003959	7.298	Inter615t65-0	0.766	1	1	338.908	11.111	-94.8	0.159	0.000	D	F	1610.7	351.264	0.206	0.235	1499.455	1288.840	0.022	L	-1.703	0.943	-	-	-	22	2.663	19.433	-	PAVEMENT_GENERAL	Urban	F	1011101000100001	0000000000000000	-	car	855.922	-570.910	0.000	0.000	180.000	696.000	987.000	-0.000	Terminate	
"Student2mode3"	"Tanvi_6"	"Nov 22, 2016 08:13:20 AM"	Unknown	66.98467	10/22/0116 08:14.30	00004019	8.154	-Inter615t59-0	0.264	-1	1	89.733	11.111	-151.2	0.153	0.000	D	F	1655.8	333.835	0.192	0.431	1496.930	1296.138	0.024	L	-3.267	0.609	-	-	-	22	3.243	26.445	-	PAVEMENT_GENERAL	Urban	F	1011101000100001	0000000000000000	-	car	856.160	1190.524	0.000	0.000	180.000	696.000	987.000	-0.000	Terminate	
"Student2mode3"	"Tanvi_6"	"Nov 22, 2016 08:13:20 AM"	Unknown	67.98470	10/22/0116 08:14.31	00004079	8.833	Inter615t75-0	-1.100	1	1	269.734	11.111	-162.0	0.159	0.000	D	F	1711.2	308.674	0.172	0.522	1491.357	1302.476	0.026	L	-4.005	0.495	-	-	-	22	3.484	30.771	-	PAVEMENT_GENERAL	Urban	F	1011101000100001	0000000000000000	-	car	853.279	195.032	0.000	0.000	180.000	696.000	987.000	-0.000	Terminate	
"Student2mode3"	"Tanvi_6"	"Nov 22, 2016 08:13:20 AM"	Unknown	68.98471	10/22/0116 08:14.32	00004139	9.442	Inter615t77-0	-1.097	1	1	269.734	11.111	-131.7	0.162	0.000	D	F	1769.0	282.687	0.162	0.486	1483.021	1306.041	0.026	L	-3.783	0.542	-	-	-	22	4.196	39.618	-	PAVEMENT_GENERAL	Urban	F	1111101000100001	0000000000000000	-	car	846.869	109.162	0.000	0.000	180.000	696.000	987.000	-0.000	Terminate	
"Student2mode3"	"Tanvi_6"	"Nov 22, 2016 08:13:20 AM"	Unknown	69.98473	10/22/0116 08:14.33	00004199	10.137	Inter615t3-4	-0.551	2	2	270.000	11.111	-12.5	0.162	0.000	D	F	1836.8	269.043	0.200	0.048	1473.266	1306.580	0.023	L	-0.532	0.693	-	-	-	-	-	-	-	PAVEMENT_GENERAL	Urban	F	1111101000100001	0000000000000000	-	car	838.041	88.788	0.000	0.000	180.000	696.000	987.000	-0.000	Terminate	
"Student2mode3"	"Tanvi_6"	"Nov 22, 2016 08:13:20 AM"	Unknown	70.98476	10/22/0116 08:14.34	00004259	10.842	Inter615t17-0	-0.774	1	1	270.075	11.111	10.4	0.178	0.000	D	F	1935.0	269.364	0.207	-0.043	1462.780	1306.362	0.023	-	0.341	0.713	-	-	-	-	-	-	-	PAVEMENT_GENERAL	Urban	F	1011101000000001	0000000000000000	-	car	828.269	82.380	0.000	0.000	180.000	696.000	987.000	-0.000	Terminate	
"Student2mode3"	"Tanvi_6"	"Nov 22, 2016 08:13:20 AM"	Unknown	71.98477	10/22/0116 08:14.35	00004319	11.580	Inter615t17-0	-0.733	1	1	270.110	11.111	2.6	0.185	0.000	D	F	2038.0	270.854	0.206	-0.016	1451.572	1306.415	0.023	-	0.134	0.749	-	-	-	-	-	-	-	PAVEMENT_GENERAL	Urban	F	1011101000000001	0000000000000000	-	car	817.954	77.179	0.000	0.000	180.000	696.000	987.000	-0.000	Terminate	
"Student2mode3"	"Tanvi_6"	"Nov 22, 2016 08:13:20 AM"	Unknown	72.98479	10/22/0116 08:14.36	00004379	12.355	Inter615t17-0	-0.611	1	1	270.079	11.111	-9.7	0.199	0.000	D	F	2141.0	270.174	0.206	0.046	1439.607	1306.560	0.023	L	-0.359	0.776	-	-	-	-	-	-	-	PAVEMENT_GENERAL	Urban	F	1011101000100001	0000000000000000	-	car	807.005	71.187	0.000	0.000	180.000	696.000	987.000	-0.000	Terminate	
"Student2mode3"	"Tanvi_6"	"Nov 22, 2016 08:13:20 AM"	Unknown	73.98481	10/22/0116 08:14.37	00004439	13.131	Inter615t17-0	-0.810	1	1	270.061	11.111	-5.8	0.205	0.000	D	F	1940.4	268.299	0.202	0.035	1426.869	1306.379	0.023	L	-0.304	0.733	-	-	-	-	-	-	-	PAVEMENT_GENERAL	Urban	F	1011101000100001	0000000000000000	-	car	795.245	65.276	0.000	0.000	180.000	696.000	987.000	-0.000	Terminate	
"Student2mode3"	"Tanvi_6"	"Nov 22, 2016 08:13:20 AM"	Unknown	74.98483	10/22/0116 08:14.38	00004499	13.802	Inter615t1-3	-1.341	2	2	270.000	11.111	-0.8	0.212	0.000	D	F	1866.4	267.341	0.202	0.010	1413.409	1305.859	0.023	L	-0.102	0.654	-	-	-	22	6.273	86.584	-	PAVEMENT_GENERAL	Urban	F	1011101000100001	0000000000000000	-	car	782.718	60.872	0.000	0.000	180.000	696.000	987.000	-0.000	Terminate	
"Student2mode3"	"Tanvi_6"	"Nov 22, 2016 08:13:20 AM"	Unknown	75.98486	10/22/0116 08:14.39	00004559	14.432	Inter616t1-2	1.635	1	2	270.000	11.111	2.7	0.212	0.000	D	F	1897.2	267.826	0.201	-0.017	1399.302	1305.242	0.024	L	0.155	0.612	-	-	-	22	6.250	90.197	-	PAVEMENT_GENERAL	Urban	F	1111101000100001	0000000000000000	-	car	769.594	57.584	0.000	0.000	180.000	696.000	987.000	-0.000	Terminate	
"Student2mode3"	"Tanvi_6"	"Nov 22, 2016 08:13:20 AM"	Unknown	76.98487	10/22/0116 08:14.40	00004619	15.024	Inter616t1-2	1.161	1	2	270.000	11.111	5.1	0.213	0.000	D	F	1923.7	268.595	0.200	-0.033	1384.579	1304.768	0.024	L	0.251	0.573	-	-	-	22	6.363	95.593	-	PAVEMENT_GENERAL	Urban	F	1111101000100001	0000000000000000	-	car	756.005	54.815	0.000	0.000	180.000	696.000	987.000	-0.000	Terminate	
"Student2mode3"	"Tanvi_6"	"Nov 22, 2016 08:13:20 AM"	Unknown	77.98489	10/22/0116 08:14.41	00004679	15.580	Inter616t1-2	0.874	1	2	270.000	11.111	-0.4	0.217	0.000	D	F	1950.1	269.118	0.199	-0.003	1369.277	1304.480	0.024	L	0.019	0.540	-	-	-	22	6.434	100.244	-	PAVEMENT_GENERAL	Urban	F	1011101000100001	0000000000000000	-	car	742.016	52.284	0.000	0.000	180.000	696.000	987.000	-0.000	Terminate	
"Student2mode3"	"Tanvi_6"	"Nov 22, 2016 08:13:20 AM"	Unknown	78.98492	10/22/0116 08:14.42	00004739	16.100	Inter616t1-2	0.617	1	2	270.000	11.111	0.9	0.212	0.000	D	F	1974.5	269.056	0.198	-0.003	1353.436	1304.224	0.024	-	0.024	0.504	-	-	-	22	6.436	103.626	-	PAVEMENT_GENERAL	Urban	F	1011101000000001	0000000000000000	-	car	727.608	49.790	0.000	0.000	180.000	696.000	987.000	-0.000	Terminate	
"Student2mode3"	"Tanvi_6"	"Nov 22, 2016 08:13:20 AM"	Unknown	79.98493	10/22/0116 08:14.43	00004799	16.590	Inter616t1-2	0.375	1	2	270.000	11.111	4.1	0.215	0.000	D	F	2002.4	269.322	0.197	-0.028	1337.090	1303.982	0.024	-	0.176	0.480	-	-	-	22	6.369	105.662	-	PAVEMENT_GENERAL	Urban	F	1111101000000001	0000000000000000	-	car	712.814	47.655	0.000	0.000	180.000	696.000	987.000	-0.000	Terminate	
"Student2mode3"	"Tanvi_6"	"Nov 22, 2016 08:13:20 AM"	Unknown	80.98495	10/22/0116 08:14.44	00004859	17.066	Inter616t1-2	0.269	1	2	270.000	11.111	-2.1	0.219	0.000	D	F	2035.3	269.781	0.197	0.010	1320.261	1303.875	0.024	-	-0.072	0.472	-	-	-	22	6.239	106.478	-	PAVEMENT_GENERAL	Urban	F	1011101000000001	0000000000000000	-	car	697.721	45.761	0.000	0.000	180.000	696.000	987.000	-0.000	Terminate	
"Student2mode3"	"Tanvi_6"	"Nov 22, 2016 08:13:20 AM"	Unknown	81.98497	10/22/0116 08:14.45	00004919	17.525	Inter616t1-2	0.158	1	2	270.000	11.111	1.2	0.219	0.000	D	F	2058.6	269.593	0.196	-0.005	1302.964	1303.764	0.025	-	0.046	0.443	-	-	-	22	6.059	106.175	131.203	PAVEMENT_GENERAL	Urban	F	1111101000000001	0000000000000000	-	car	682.290	43.755	0.000	0.000	180.000	696.000	987.000	-0.000	Terminate	
"Student2mode3"	"Tanvi_6"	"Nov 22, 2016 08:13:20 AM"	Unknown	82.98499	10/22/0116 08:14.46	00004979	17.953	Inter616t1-2	0.065	1	2	270.000	11.111	-0.8	0.220	0.000	D	F	2088.5	269.776	0.195	0.004	1285.223	1303.672	0.025	-	-0.012	0.415	-	-	-	22	5.841	104.857	58.383	PAVEMENT_GENERAL	Urban	F	1111101000000001	0000000000000000	-	car	666.568	42.063	0.000	0.000	180.000	696.000	987.000	-0.000	Terminate	
"Student2mode3"	"Tanvi_6"	"Nov 22, 2016 08:13:20 AM"	Unknown	83.98502	10/22/0116 08:14.47	00005039	18.353	Inter616t1-2	-0.019	1	2	270.000	11.111	0.9	0.217	0.000	D	F	2109.6	269.771	0.194	-0.006	1267.066	1303.588	0.025	-	0.052	0.378	-	-	-	22	5.591	102.612	38.055	PAVEMENT_GENERAL	Urban	F	1111101000000001	0000000000000000	-	car	650.591	40.442	0.000	0.000	180.000	696.000	987.000	-0.000	Terminate	
"Student2mode3"	"Tanvi_6"	"Nov 22, 2016 08:13:20 AM"	Unknown	84.98503	10/22/0116 08:14.48	00005099	18.707	Inter616t1-2	-0.075	1	2	270.000	11.111	-0.3	0.208	0.000	D	F	2129.9	269.844	0.193	0.001	1248.533	1303.531	0.025	-	-0.015	0.347	-	-	-	22	5.318	99.491	28.355	PAVEMENT_GENERAL	Urban	F	1011101000000001	0000000000000000	-	car	634.418	39.022	0.000	0.000	180.000	696.000	987.000	-0.000	Terminate	
"Student2mode3"	"Tanvi_6"	"Nov 22, 2016 08:13:20 AM"	Unknown	85.98505	10/22/0116 08:14.49	00005159	19.042	Inter616t1-2	-0.138	1	2	270.000	11.111	0.1	0.206	0.000	D	F	2149.9	269.757	0.192	0.003	1229.657	1303.469	0.025	-	-0.019	0.326	-	-	-	22	5.023	95.650	23.131	PAVEMENT_GENERAL	Urban	F	1111101000000001	0000000000000000	-	car	618.077	37.643	0.000	0.000	180.000	696.000	987.000	-0.000	Terminate	
"Student2mode3"	"Tanvi_6"	"Nov 22, 2016 08:13:20 AM"	Unknown	86.98507	10/22/0116 08:14.50	00005219	19.331	Inter616t1-2	-0.198	1	2	270.000	11.111	1.0	0.169	0.000	D	F	2119.6	269.971	0.185	-0.011	1210.458	1303.409	0.026	-	0.091	0.131	-	-	-	22	4.719	91.223	19.519	PAVEMENT_GENERAL	Urban	F	1011101000000001	0000000000000000	-	car	601.612	36.526	0.000	0.000	180.000	696.000	987.000	-0.000	Terminate	
"Student2mode3"	"Tanvi_6"	"Nov 22, 2016 08:13:20 AM"	Unknown	87.98509	10/22/0116 08:14.51	00005279	19.027	Inter617t1-2	-0.181	1	2	270.000	11.111	1.2	0.004	0.000	D	F	1323.3	270.190	0.181	-0.012	1191.205	1303.426	0.029	-	0.092	-0.572	-	-	-	22	4.547	86.518	18.898	PAVEMENT_GENERAL	Urban	F	1011101000000001	0000000000000000	-	car	585.308	36.583	0.000	0.000	180.000	696.000	987.000	-0.000	Terminate	
"Student2mode3"	"Tanvi_6"	"Nov 22, 2016 08:13:20 AM"	Unknown	88.98512	10/22/0116 08:14.52	00005339	18.494	Inter617t1-2	-0.083	1	2	270.000	11.111	-0.5	0.000	0.000	D	F	1261.4	270.355	0.182	0.003	1172.442	1303.524	0.029	-	-0.020	-0.580	-	-	-	22	4.440	82.114	19.495	PAVEMENT_GENERAL	Urban	F	1111101000000001	0000000000000000	-	car	569.641	37.132	0.000	0.000	180.000	696.000	987.000	-0.000	Terminate	
"Student2mode3"	"Tanvi_6"	"Nov 22, 2016 08:13:20 AM"	Unknown	89.98513	10/22/0116 08:14.53	00005399	17.918	Inter617t1-2	0.032	1	2	270.000	11.111	0.9	0.000	0.000	D	F	1222.0	270.466	0.185	-0.012	1154.237	1303.638	0.029	-	0.084	-0.572	-	-	-	22	4.359	78.110	20.539	PAVEMENT_GENERAL	Urban	F	1111101000000001	0000000000000000	-	car	554.633	37.838	0.000	0.000	180.000	696.000	987.000	-0.000	Terminate	
"Student2mode3"	"Tanvi_6"	"Nov 22, 2016 08:13:20 AM"	Unknown	90.98515	10/22/0116 08:14.54	00005459	17.656	Inter617t1-2	0.179	1	2	270.000	11.111	-0.9	0.115	0.000	D	F	1524.5	270.414	0.191	0.007	1136.508	1303.786	0.027	-	-0.055	-0.088	-	-	-	22	4.217	74.450	20.310	PAVEMENT_GENERAL	Urban	F	1011101000000001	0000000000000000	-	car	540.227	37.885	0.000	0.000	180.000	696.000	987.000	-0.000	Terminate	
"Student2mode3"	"Tanvi_6"	"Nov 22, 2016 08:13:20 AM"	Unknown	91.98518	10/22/0116 08:14.55	00005519	17.603	Inter617t1-2	0.285	1	2	270.000	11.111	-1.3	0.116	0.000	D	F	1542.1	270.238	0.190	0.010	1118.881	1303.892	0.027	-	-0.074	-0.056	-	-	-	22	4.021	70.781	19.150	PAVEMENT_GENERAL	Urban	F	1111101000000001	0000000000000000	-	car	526.080	37.463	0.000	0.000	180.000	696.000	987.000	-0.000	Terminate	
"Student2mode3"	"Tanvi_6"	"Nov 22, 2016 08:13:20 AM"	Unknown	92.98519	10/22/0116 08:14.56	00005579	17.541	Inter617t1-2	0.324	1	2	270.000	11.111	-0.2	0.116	0.000	D	F	1537.6	270.019	0.191	0.002	1101.308	1303.931	0.027	-	-0.026	-0.058	-	-	-	22	3.829	67.162	21.719	PAVEMENT_GENERAL	Urban	F	1011101000000001	0000000000000000	-	car	512.150	37.073	0.000	0.000	180.000	696.000	987.000	-0.000	Terminate	
"Student2mode3"	"Tanvi_6"	"Nov 22, 2016 08:13:20 AM"	Unknown	93.98521	10/22/0116 08:14.57	00005639	17.476	Inter617t1-2	0.329	1	2	270.000	11.111	-0.1	0.115	0.000	D	F	1527.1	269.997	0.191	0.001	1083.799	1303.935	0.027	-	-0.007	-0.069	-	-	-	22	3.724	65.085	63.368	PAVEMENT_GENERAL	Urban	F	1011101000000001	0000000000000000	-	car	498.476	36.836	0.000	0.000	180.000	696.000	987.000	-0.000	Terminate	
"Student2mode3"	"Tanvi_6"	"Nov 22, 2016 08:13:20 AM"	Unknown	94.98523	10/22/0116 08:14.58	00005699	17.413	Inter617t1-2	0.322	1	2	270.000	11.111	-0.2	0.115	0.000	D	F	1527.1	269.943	0.191	0.005	1066.356	1303.929	0.027	-	-0.017	-0.061	-	-	-	-	-	-	-	PAVEMENT_GENERAL	Urban	F	1111101000000001	0000000000000000	-	car	485.090	36.635	0.000	0.000	180.000	696.000	987.000	-0.000	Terminate	
"Student2mode3"	"Tanvi_6"	"Nov 22, 2016 08:13:20 AM"	Unknown	95.98525	10/22/0116 08:14.59	00005759	17.201	Inter617t1-2	0.303	1	2	270.000	11.111	-0.4	0.000	0.000	D	F	1172.5	269.932	0.184	0.002	1048.996	1303.910	0.029	-	-0.015	-0.559	-	-	-	-	-	-	-	PAVEMENT_GENERAL	Urban	F	1111101000000001	0000000000000000	-	car	472.023	36.840	0.000	0.000	180.000	696.000	987.000	-0.000	Terminate	
"Student2mode3"	"Tanvi_6"	"Nov 22, 2016 08:13:20 AM"	Unknown	96.98528	10/22/0116 08:15.00	00005819	16.898	Inter617t1-2	0.286	1	2	270.000	11.111	0.4	0.146	0.000	D	F	1595.2	269.975	0.190	-0.002	1032.023	1303.893	0.026	-	0.021	0.083	-	-	-	-	-	-	-	PAVEMENT_GENERAL	Urban	F	1011101000000001	0000000000000000	-	car	459.520	37.364	0.000	0.000	180.000	696.000	987.000	-0.000	Terminate	
"Student2mode3"	"Tanvi_6"	"Nov 22, 2016 08:13:20 AM"	Unknown	97.98529	10/22/0116 08:15.01	00005879	16.767	Inter617t1-2	0.291	1	2	270.000	11.111	3.1	0.000	0.000	D	F	1143.2	270.143	0.183	-0.025	1015.121	1303.897	0.029	-	0.159	-0.553	-	-	-	-	-	-	-	PAVEMENT_GENERAL	Urban	F	1011101000000001	0000000000000000	-	car	447.376	37.695	0.000	0.000	180.000	696.000	987.000	-0.000	Terminate	
"Student2mode3"	"Tanvi_6"	"Nov 22, 2016 08:13:20 AM"	Unknown	98.98531	10/22/0116 08:15.02	00005939	15.625	Inter618t1-0	-0.277	1	2	270.000	24.444	1.2	0.000	0.307	D	F	1020.9	270.750	0.058	-0.014	998.688	1304.023	0.033	-	0.106	-4.115	-	-	-	-	-	-	-	PAVEMENT_GENERAL	Urban	F	1011101000000001	0000000000000000	-	car	435.960	40.968	0.000	0.000	180.000	696.000	987.000	-0.000	Terminate	
"Student2mode3"	"Tanvi_6"	"Nov 22, 2016 08:13:20 AM"	Unknown	99.98534	10/22/0116 08:15.03	00005999	12.130	Inter618t1-0	-0.071	1	2	269.897	24.444	1.4	0.000	0.000	D	F	1154.6	271.013	0.217	-0.148	985.196	1304.223	0.041	-	0.052	-1.491	32	274.4	4.974	32	-0.323	-3.922	-0.780	FREEWAY_SMOOTH	Urban	F	1011101000000001	0000000000000000	-	car	426.902	53.281	0.000	0.000	180.000	696.000	987.000	-0.000	Terminate	
"Student2mode3"	"Tanvi_6"	"Nov 22, 2016 08:13:20 AM"	Unknown	100.98535	10/22/0116 08:15.04	00006059	11.629	Inter618t1-0	0.124	1	2	269.515	24.444	-11.4	0.016	0.000	D	F	1144.1	269.876	0.258	-0.243	973.327	1304.364	0.051	-	-0.493	-0.433	-	-	-	-	-	-	-	FREEWAY_SMOOTH	Urban	F	1111101000000001	0000000000000000	-	car	419.102	54.634	0.000	0.000	180.000	696.000	987.000	-0.000	Terminate	
"Student2mode3"	"Tanvi_6"	"Nov 22, 2016 08:13:20 AM"	Unknown	101.98537	10/22/0116 08:15.05	00006119	11.157	Inter618t1-0	0.053	1	2	268.887	24.444	-2.3	0.000	0.000	D	F	1096.0	268.353	0.248	-0.458	961.927	1304.141	0.063	-	-0.116	-0.505	-	-	-	-	-	-	-	FREEWAY_SMOOTH	Urban	F	1011101000000001	0000000000000000	-	car	411.519	55.528	0.000	0.000	180.000	696.000	987.000	-0.000	Terminate	
"Student2mode3"	"Tanvi_6"	"Nov 22, 2016 08:13:20 AM"	Unknown	102.98539	10/22/0116 08:15.06	00006179	10.656	Inter618t1-0	-0.071	1	2	268.049	24.444	-6.8	0.000	0.000	D	F	1047.1	267.359	0.245	-0.584	951.030	1303.732	0.073	-	-0.260	-0.500	-	-	-	-	-	-	-	FREEWAY_SMOOTH	Urban	F	1011101000000001	0000000000000000	-	car	404.285	57.278	0.000	0.000	180.000	696.000	987.000	-0.000	Terminate	
"Student2mode3"	"Tanvi_6"	"Nov 22, 2016 08:13:20 AM"	Unknown	103.98541	10/22/0116 08:15.07	00006239	10.163	Inter618t1-0	-0.232	1	2	267.034	24.444	1.0	0.000	0.000	D	F	998.5	266.485	0.242	-0.770	940.638	1303.133	0.081	-	0.002	-0.489	-	-	-	-	-	-	-	FREEWAY_SMOOTH	Urban	F	1011101000000001	0000000000000000	-	car	397.375	59.304	0.000	0.000	180.000	696.000	987.000	-0.000	Terminate	
"Student2mode3"	"Tanvi_6"	"Nov 22, 2016 08:13:20 AM"	Unknown	104.98544	10/22/0116 08:15.08	00006299	10.217	Inter618t1-0	-0.302	1	2	265.839	24.444	-7.0	0.183	0.000	D	F	1634.8	265.592	0.254	-0.874	930.608	1302.447	0.085	-	-0.259	0.669	-	-	-	-	-	-	-	FREEWAY_SMOOTH	Urban	F	1011101000000001	0000000000000000	-	car	390.766	58.241	0.000	0.000	180.000	696.000	987.000	-0.000	Terminate	
"Student2mode3"	"Tanvi_6"	"Nov 22, 2016 08:13:20 AM"	Unknown	105.98545	10/22/0116 08:15.09	00006359	11.065	Inter618t1-0	-0.373	1	2	264.376	24.444	-5.6	0.205	0.000	D	F	1734.6	264.304	0.256	-1.021	920.011	1301.479	0.093	-	-0.242	0.820	-	-	-	-	-	-	-	FREEWAY_SMOOTH	Urban	F	1011101000000001	0000000000000000	-	car	383.747	52.695	0.000	0.000	180.000	696.000	987.000	-0.000	Terminate	
"Student2mode3"	"Tanvi_6"	"Nov 22, 2016 08:13:20 AM"	Unknown	106.98547	10/22/0116 08:15.10	00006419	11.854	Inter618t1-0	-0.405	1	2	262.550	24.444	-9.1	0.203	0.000	D	F	1760.8	262.629	0.259	-1.160	908.622	1300.155	0.103	-	-0.396	0.754	-	-	-	-	-	-	-	FREEWAY_SMOOTH	Urban	F	1111101000000001	0000000000000000	-	car	376.157	47.846	0.000	0.000	180.000	696.000	987.000	-0.000	Terminate	
"Student2mode3"	"Tanvi_6"	"Nov 22, 2016 08:13:20 AM"	Unknown	107.98550	10/22/0116 08:15.11	00006479	12.579	Inter618t1-0	-0.427	1	2	260.329	24.444	-12.0	0.203	0.000	D	F	1783.8	260.402	0.254	-1.306	896.538	1298.330	0.114	-	-0.557	0.696	-	-	-	-	-	-	-	FREEWAY_SMOOTH	Urban	F	1111101000000001	0000000000000000	-	car	367.967	43.393	0.000	0.000	180.000	696.000	987.000	-0.000	Terminate	
"Student2mode3"	"Tanvi_6"	"Nov 22, 2016 08:13:20 AM"	Unknown	108.98551	10/22/0116 08:15.12	00006539	13.250	Inter618t1-0	-0.434	1	2	257.652	24.444	-10.9	0.201	0.000	D	F	1816.2	258.006	0.265	-1.487	883.854	1295.875	0.126	-	-0.561	0.643	-	-	-	-	-	-	-	FREEWAY_SMOOTH	Urban	F	1011101000000001	0000000000000000	-	car	359.156	39.523	0.000	0.000	180.000	696.000	987.000	-0.000	Terminate	
"Student2mode3"	"Tanvi_6"	"Nov 22, 2016 08:13:20 AM"	Unknown	109.98553	10/22/0116 08:15.13	00006599	13.869	Inter618t1-0	-0.316	1	2	254.518	24.444	-14.3	0.206	0.000	D	F	1846.8	255.594	0.287	-1.652	870.656	1292.750	0.142	-	-0.708	0.592	-	-	-	-	-	-	-	FREEWAY_SMOOTH	Urban	F	1011101000000001	0000000000000000	-	car	349.760	36.210	0.000	0.000	180.000	696.000	987.000	-0.000	Terminate	
"Student2mode3"	"Tanvi_6"	"Nov 22, 2016 08:13:20 AM"	Unknown	110.98555	10/22/0116 08:15.14	00006659	14.438	Inter618t1-0	-0.123	1	2	251.054	24.444	-22.5	0.206	0.000	D	F	1879.1	251.621	0.212	-1.598	857.074	1288.764	0.150	-	-1.213	0.556	-	-	-	-	-	-	-	FREEWAY_SMOOTH	Urban	F	1011101000000001	0000000000000000	-	car	339.702	32.452	0.000	0.000	180.000	696.000	987.000	-0.000	Terminate	
"Student2mode3"	"Tanvi_6"	"Nov 22, 2016 08:13:20 AM"	Unknown	111.98557	10/22/0116 08:15.15	00006719	14.970	Inter618t1-0	-0.142	1	2	247.445	24.444	-14.1	0.203	0.000	D	F	1897.8	247.485	0.196	-1.645	843.322	1283.555	0.149	-	-0.828	0.516	-	-	-	-	-	-	-	FREEWAY_SMOOTH	Urban	F	1011101000000001	0000000000000000	-	car	328.773	29.130	0.000	0.000	180.000	696.000	987.000	-0.000	Terminate	
"Student2mode3"	"Tanvi_6"	"Nov 22, 2016 08:13:20 AM"	Unknown	112.98560	10/22/0116 08:15.16	00006779	15.459	Inter618t1-0	-0.141	1	2	243.703	24.444	-17.3	0.201	0.000	D	F	1913.1	243.808	0.197	-1.618	829.455	1277.285	0.149	-	-1.069	0.466	-	-	-	-	-	-	-	FREEWAY_SMOOTH	Urban	F	1111101000000001	0000000000000000	-	car	317.134	26.442	0.000	0.000	180.000	696.000	987.000	-0.000	Terminate	
"Student2mode3"	"Tanvi_6"	"Nov 22, 2016 08:13:20 AM"	Unknown	113.98561	10/22/0116 08:15.17	00006839	15.939	Inter618t1-0	-0.180	1	2	239.891	24.444	-17.3	0.208	0.000	D	F	1948.7	239.655	0.185	-1.610	815.630	1269.853	0.148	-	-1.140	0.472	-	-	-	-	-	-	-	FREEWAY_SMOOTH	Urban	F	1111101000000001	0000000000000000	-	car	304.752	23.856	0.000	0.000	180.000	696.000	987.000	-0.000	Terminate	
"Student2mode3"	"Tanvi_6"	"Nov 22, 2016 08:13:20 AM"	Unknown	114.98563	10/22/0116 08:15.18	00006899	16.380	Inter618t1-0	-0.285	1	2	235.931	24.444	-17.0	0.206	0.000	D	F	1960.4	235.507	0.181	-1.606	801.982	1261.196	0.145	-	-1.166	0.423	-	-	-	-	-	-	-	FREEWAY_SMOOTH	Urban	F	1011101000000001	0000000000000000	-	car	291.606	21.569	0.000	0.000	180.000	696.000	987.000	-0.000	Terminate	
"Student2mode3"	"Tanvi_6"	"Nov 22, 2016 08:13:20 AM"	Unknown	115.98566	10/22/0116 08:15.19	00006959	16.787	Inter618t1-0	-0.412	1	2	231.878	24.444	-16.3	0.201	0.000	D	F	1977.5	231.498	0.179	-1.608	788.645	1251.340	0.142	-	-1.142	0.399	-	-	-	-	-	-	-	FREEWAY_SMOOTH	Urban	F	1111101000000001	0000000000000000	-	car	277.746	19.549	0.000	0.000	180.000	696.000	987.000	-0.000	Terminate	
"Student2mode3"	"Tanvi_6"	"Nov 22, 2016 08:13:20 AM"	Unknown	116.98567	10/22/0116 08:15.20	00007019	17.172	Inter618t1-0	-0.493	1	2	227.703	24.444	-16.8	0.203	0.000	D	F	2005.3	227.509	0.183	-1.598	775.717	1240.333	0.139	-	-1.213	0.384	-	-	-	-	-	-	-	FREEWAY_SMOOTH	Urban	F	1011101000000001	0000000000000000	-	car	263.220	17.707	0.000	0.000	180.000	696.000	987.000	-0.000	Terminate	
"Student2mode3"	"Tanvi_6"	"Nov 22, 2016 08:13:20 AM"	Unknown	117.98569	10/22/0116 08:15.21	00007079	17.540	Inter618t1-0	-0.520	1	2	223.450	24.444	-16.5	0.205	0.000	D	F	2035.1	223.433	0.189	-1.596	763.324	1228.184	0.139	-	-1.235	0.367	-	-	-	-	-	-	-	FREEWAY_SMOOTH	Urban	F	1011101000000001	0000000000000000	-	car	248.044	15.992	0.000	0.000	180.000	696.000	987.000	-0.000	Terminate	
"Student2mode3"	"Tanvi_6"	"Nov 22, 2016 08:13:20 AM"	Unknown	118.98571	10/22/0116 08:15.22	00007139	17.892	Inter618t1-0	-0.474	1	2	219.120	24.444	-17.9	0.206	0.000	D	F	2059.0	219.288	0.192	-1.581	751.584	1214.917	0.140	-	-1.344	0.345	-	-	-	-	-	-	-	FREEWAY_SMOOTH	Urban	F	1011101000000001	0000000000000000	-	car	232.238	14.391	0.000	0.000	180.000	696.000	987.000	-0.000	Terminate	
"Student2mode3"	"Tanvi_6"	"Nov 22, 2016 08:13:20 AM"	Unknown	119.98573	10/22/0116 08:15.23	00007199	18.219	Inter618t1-0	-0.402	1	2	214.684	24.444	-18.8	0.206	0.000	D	F	2078.0	214.716	0.183	-1.563	740.668	1200.537	0.142	-	-1.491	0.324	-	-	-	-	-	-	-	FREEWAY_SMOOTH	Urban	F	1111101000000001	0000000000000000	-	car	215.799	12.858	0.000	0.000	180.000	696.000	987.000	-0.000	Terminate	
"Student2mode3"	"Tanvi_6"	"Nov 22, 2016 08:13:20 AM"	Unknown	120.98576	10/22/0116 08:15.24	00007259	18.523	Inter618t1-0	-0.379	1	2	210.186	24.444	-18.2	0.201	0.000	D	F	2100.1	210.051	0.181	-1.563	730.777	1185.059	0.143	-	-1.490	0.308	-	-	-	-	-	-	-	FREEWAY_SMOOTH	Urban	F	1011101000000001	0000000000000000	-	car	198.730	11.424	0.000	0.000	180.000	696.000	987.000	-0.000	Terminate	
"Student2mode3"	"Tanvi_6"	"Nov 22, 2016 08:13:20 AM"	Unknown	121.98577	10/22/0116 08:15.25	00007319	18.819	Inter618t1-0	-0.381	1	2	205.621	24.444	-18.0	0.205	0.000	D	F	2120.1	205.449	0.179	-1.561	722.022	1168.572	0.143	-	-1.503	0.297	-	-	-	-	-	-	-	FREEWAY_SMOOTH	Urban	F	1011101000000001	0000000000000000	-	car	181.068	10.077	0.000	0.000	180.000	696.000	987.000	-0.000	Terminate	
"Student2mode3"	"Tanvi_6"	"Nov 22, 2016 08:13:20 AM"	Unknown	122.98579	10/22/0116 08:15.26	00007379	19.106	Inter618t1-0	-0.375	1	2	200.957	24.444	-18.3	0.205	0.000	D	F	2141.8	200.832	0.177	-1.556	714.497	1151.170	0.143	-	-1.542	0.291	-	-	-	-	-	-	-	FREEWAY_SMOOTH	Urban	F	1111101000000001	0000000000000000	-	car	162.849	8.800	0.000	0.000	180.000	696.000	987.000	-0.000	Terminate	
"Student2mode3"	"Tanvi_6"	"Nov 22, 2016 08:13:20 AM"	Unknown	123.98581	10/22/0116 08:15.27	00007439	19.324	Inter618t1-0	-0.365	1	2	196.257	24.444	-18.3	0.173	0.000	D	F	2116.4	196.032	0.174	-1.546	708.328	1132.961	0.144	-	-1.625	0.153	-	-	-	-	-	-	-	FREEWAY_SMOOTH	Urban	F	1111101000000001	0000000000000000	-	car	144.121	7.603	0.000	0.000	180.000	696.000	987.000	-0.000	Terminate	
"Student2mode3"	"Tanvi_6"	"Nov 22, 2016 08:13:20 AM"	Unknown	124.98583	10/22/0116 08:15.28	00007499	19.442	Inter618t1-0	-0.392	1	2	191.780	24.444	-18.0	0.173	0.000	D	F	2125.2	191.333	0.116	-1.326	703.657	1114.152	0.129	-	-1.569	0.126	-	-	-	-	-	-	-	FREEWAY_SMOOTH	Urban	F	1011101000000001	0000000000000000	-	car	125.023	6.492	0.000	0.000	180.000	696.000	987.000	-0.000	Terminate	
"Student2mode3"	"Tanvi_6"	"Nov 22, 2016 08:13:20 AM"	Unknown	125.98586	10/22/0116 08:15.29	00007559	19.549	Inter618t1-0	-0.593	1	2	187.976	24.444	-16.7	0.171	0.000	D	F	2131.6	186.626	0.102	-1.063	700.513	1094.915	0.107	-	-1.542	0.106	-	-	-	-	-	-	-	FREEWAY_SMOOTH	Urban	F	1111101000000001	0000000000000000	-	car	105.649	5.419	0.000	0.000	180.000	696.000	987.000	-0.000	Terminate	
"Student2mode3"	"Tanvi_6"	"Nov 22, 2016 08:13:20 AM"	Unknown	126.98587	10/22/0116 08:15.30	00007619	19.642	Inter618t1-0	-1.042	1	2	184.896	24.444	2.7	0.152	0.000	D	F	2120.3	183.843	0.123	-0.971	698.770	1075.395	0.082	-	-0.221	0.054	-	-	-	-	-	-	-	FREEWAY_SMOOTH	Urban	F	1011101000000001	0000000000000000	-	car	86.079	4.385	0.000	0.000	180.000	696.000	987.000	-0.000	Terminate	
"Student2mode3"	"Tanvi_6"	"Nov 22, 2016 08:13:20 AM"	Unknown	127.98589	10/22/0116 08:15.31	00007679	19.177	Inter618t1-0	-0.940	1	2	182.565	24.444	-3.5	0.000	0.000	D	F	1320.8	184.068	0.155	-0.692	697.413	1055.981	0.071	-	-0.182	-0.603	-	-	-	-	-	-	-	FREEWAY_SMOOTH	Urban	F	1011101000000001	0000000000000000	-	car	66.636	3.479	0.000	0.000	180.000	696.000	987.000	-0.000	Terminate	
"Student2mode3"	"Tanvi_6"	"Nov 22, 2016 08:13:20 AM"	Unknown	128.98592	10/22/0116 08:15.32	00007739	16.089	Inter618t1-0	-0.398	1	2	181.061	24.444	-8.3	0.000	0.439	D	F	1034.5	182.699	-0.049	-0.382	696.305	1037.803	0.071	-	-0.476	-5.462	-	-	-	-	-	-	-	FREEWAY_SMOOTH	Urban	F	1011101000000001	0000000000000000	-	car	48.445	3.014	0.000	0.000	180.000	696.000	987.000	-0.000	Terminate	
"Student2mode3"	"Tanvi_6"	"Nov 22, 2016 08:13:20 AM"	Unknown	129.98593	10/22/0116 08:15.33	00007799	10.167	Inter618t1-0	-0.150	1	2	180.385	24.444	-10.0	0.000	0.469	D	F	911.1	180.358	-0.089	-0.209	695.896	1024.665	0.061	-	-0.444	-5.823	-	-	-	-	-	-	-	FREEWAY_SMOOTH	Urban	F	1011101000000001	0000000000000000	-	car	35.342	3.619	0.400	2.000	179.986	696.000	986.963	-0.000	Terminate	
"Student2mode3"	"Tanvi_6"	"Nov 22, 2016 08:13:20 AM"	Unknown	130.98595	10/22/0116 08:15.34	00007859	7.705	Inter618t1-0	-0.209	1	2	180.123	24.444	4.9	0.000	0.000	D	F	756.7	179.848	0.143	-0.175	695.918	1016.329	0.040	-	0.102	-0.477	-	-	-	-	-	-	-	FREEWAY_SMOOTH	Urban	F	1011101000000001	0000000000000000	-	car	28.388	5.348	2.400	2.000	176.739	696.075	985.582	-0.000	Terminate	
"Student2mode3"	"Tanvi_6"	"Nov 22, 2016 08:13:20 AM"	Unknown	131.98598	10/22/0116 08:15.35	00007919	7.338	Inter618t1-0	-0.204	1	2	180.011	24.444	-2.7	0.143	0.000	D	F	1459.6	180.101	0.166	-0.044	695.906	1008.856	0.031	-	-0.054	0.573	-	-	-	-	-	-	-	FREEWAY_SMOOTH	Urban	F	1011101000000001	0000000000000000	-	car	24.295	8.263	4.400	2.000	177.167	696.258	982.203	-0.000	Terminate	
"Student2mode3"	"Tanvi_6"	"Nov 22, 2016 08:13:20 AM"	Unknown	132.98599	10/22/0116 08:15.36	00007979	7.967	Inter618t1-0	-0.212	1	2	180.000	24.444	-3.4	0.155	0.000	D	F	1472.8	179.865	0.210	0.011	695.912	1001.199	0.023	-	-0.073	0.657	-	-	-	car	2.171	17.298	11.042	FREEWAY_SMOOTH	Urban	F	1011101000000001	0000000000000000	-	car	22.023	14.067	6.400	2.000	179.218	696.382	976.821	-0.000	Terminate	
"Student2mode3"	"Tanvi_6"	"Nov 22, 2016 08:13:20 AM"	Unknown	133.98601	10/22/0116 08:15.37	00008039	8.740	Inter686t1-0	0.427	1	1	180.000	11.111	-0.1	0.176	0.000	D	F	1566.7	179.502	0.208	-0.001	695.969	992.854	0.023	-	-0.005	0.768	-	-	-	car	2.139	18.697	55.017	PAVEMENT_GENERAL	Urban	F	1011101000000001	0000000000000000	-	car	21.060	61.783	8.400	2.000	180.012	696.400	969.438	-0.000	Terminate	
"Student2mode3"	"Tanvi_6"	"Nov 22, 2016 08:13:20 AM"	Unknown	134.98604	10/22/0116 08:15.38	00008099	9.532	Inter686t1-0	0.344	1	1	180.000	11.111	-0.4	0.189	0.000	D	F	1636.5	179.445	0.209	0.002	696.052	983.721	0.023	-	-0.013	0.818	-	-	-	car	1.988	18.948	-	PAVEMENT_GENERAL	Urban	F	1011101000000001	0000000000000000	-	car	21.310	-24.577	10.400	2.000	180.006	696.397	960.054	-0.000	Terminate	
"Student2mode3"	"Tanvi_6"	"Nov 22, 2016 08:13:20 AM"	Unknown	135.98605	10/22/0116 08:15.39	00008159	10.344	Inter686t1-0	0.244	1	1	180.000	11.111	-0.3	0.194	0.000	D	F	1680.6	179.427	0.207	0.001	696.152	973.783	0.023	-	-0.005	0.796	-	-	-	car	1.972	20.393	-	PAVEMENT_GENERAL	Urban	F	1011101000000001	0000000000000000	-	car	22.754	-11.068	12.400	2.000	180.003	696.397	948.670	-0.000	Terminate	
"Student2mode3"	"Tanvi_6"	"Nov 22, 2016 08:13:20 AM"	Unknown	136.98607	10/22/0116 08:15.40	00008219	11.150	Inter686t1-0	0.129	1	1	180.000	11.111	0.5	0.205	0.000	D	F	1740.4	179.361	0.207	-0.001	696.267	963.039	0.023	-	0.009	0.808	-	-	-	car	2.066	23.033	-	PAVEMENT_GENERAL	Urban	F	1011101000000001	0000000000000000	-	car	25.393	-7.812	14.400	2.000	180.003	696.397	935.286	-0.000	Terminate	
"Student2mode3"	"Tanvi_6"	"Nov 22, 2016 08:13:20 AM"	Unknown	137.98610	10/22/0116 08:15.41	00008279	11.922	Inter686t1-0	0.029	1	1	180.000	11.111	1.2	0.201	0.000	D	F	1757.1	179.675	0.205	-0.008	696.367	951.497	0.023	-	0.060	0.731	-	-	-	car	2.254	26.875	-	PAVEMENT_GENERAL	Urban	F	1111101000000001	0000000000000000	-	car	29.235	-6.528	16.400	2.000	180.002	696.397	919.903	-0.000	Terminate	
"Student2mode3"	"Tanvi_6"	"Nov 22, 2016 08:13:20 AM"	Unknown	138.98611	10/22/0116 08:15.42	00008339	12.577	Inter686t1-0	-0.029	1	1	180.000	11.111	-0.0	0.192	0.000	D	F	1755.8	179.768	0.204	-0.001	696.425	939.237	0.024	-	0.007	0.616	-	-	-	car	2.544	31.991	-	PAVEMENT_GENERAL	Urban	F	1011101000000001	0000000000000000	-	car	34.351	-6.037	18.267	1.000	180.002	696.397	902.526	-0.000	Terminate	
"Student2mode3"	"Tanvi_6"	"Nov 22, 2016 08:13:20 AM"	Unknown	139.98613	10/22/0116 08:15.43	00008399	13.157	Inter686t1-0	-0.083	1	1	180.000	11.111	-0.1	0.190	0.000	D	F	1780.4	179.751	0.203	0.000	696.479	926.366	0.024	-	-0.003	0.564	-	-	-	car	2.879	37.874	-	PAVEMENT_GENERAL	Urban	F	1011101000000001	0000000000000000	-	car	40.234	-6.667	19.192	0.500	180.002	696.397	883.772	-0.000	Terminate	
"Student2mode3"	"Tanvi_6"	"Nov 22, 2016 08:13:20 AM"	Unknown	140.98616	10/22/0116 08:15.44	00008459	13.703	Inter686t1-0	-0.142	1	1	180.000	11.111	-0.1	0.190	0.000	D	F	1804.4	179.737	0.201	0.001	696.538	912.933	0.024	-	-0.006	0.527	-	-	-	car	3.202	43.880	-	PAVEMENT_GENERAL	Urban	F	1011101000000001	0000000000000000	-	car	46.239	-7.720	19.692	0.500	180.002	696.397	864.334	-0.000	Terminate	
"Student2mode3"	"Tanvi_6"	"Nov 22, 2016 08:13:20 AM"	Unknown	141.98618	10/22/0116 08:15.45	00008519	14.205	Inter686t1-0	-0.211	1	1	180.000	11.111	-0.1	0.189	0.000	D	F	1824.2	179.698	0.200	0.001	696.607	898.975	0.024	-	-0.008	0.481	-	-	-	car	3.510	49.855	-	PAVEMENT_GENERAL	Urban	F	1011101000000001	0000000000000000	-	car	52.215	-8.833	20.116	0.000	180.002	696.397	844.401	-0.000	Terminate	
"Student2mode3"	"Tanvi_6"	"Nov 22, 2016 08:13:20 AM"	Unknown	142.98619	10/22/0116 08:15.46	00008579	14.670	Inter686t1-0	-0.286	1	1	180.000	11.111	0.2	0.190	0.000	D	F	1843.1	179.713	0.200	-0.001	696.682	884.535	0.024	-	0.009	0.450	-	-	-	car	3.785	55.531	-	PAVEMENT_GENERAL	Urban	F	1011101000000001	0000000000000000	-	car	57.891	-10.629	20.116	0.000	180.002	696.397	824.285	-0.000	Terminate	
"Student2mode3"	"Tanvi_6"	"Nov 22, 2016 08:13:20 AM"	Unknown	143.98621	10/22/0116 08:15.47	00008639	15.101	Inter686t1-0	-0.357	1	1	180.000	11.111	0.0	0.187	0.000	D	F	1864.0	179.734	0.199	-0.000	696.753	869.648	0.025	-	0.001	0.421	-	-	-	car	4.023	60.759	-	PAVEMENT_GENERAL	Urban	F	1011101000000001	0000000000000000	-	car	63.120	-12.586	20.116	0.000	179.975	696.400	804.169	-0.000	Terminate	
"Student2mode3"	"Tanvi_6"	"Nov 22, 2016 08:13:20 AM"	Unknown	144.98624	10/22/0116 08:15.48	00008699	15.523	Inter686t1-0	-0.423	1	1	180.000	11.111	0.5	0.198	0.000	D	F	1894.5	179.786	0.198	-0.005	696.820	854.336	0.025	-	0.024	0.416	-	-	-	car	4.224	65.564	-	PAVEMENT_GENERAL	Urban	F	1011101000000001	0000000000000000	-	car	67.925	-14.787	20.116	0.000	179.995	696.403	784.053	-0.000	Terminate	
"Student2mode3"	"Tanvi_6"	"Nov 22, 2016 08:13:20 AM"	Unknown	145.98625	10/22/0116 08:15.49	00008759	15.927	Inter686t1-0	-0.454	1	1	180.000	11.111	1.5	0.196	0.000	D	F	1913.6	180.056	0.197	-0.012	696.850	838.609	0.025	-	0.089	0.392	-	-	-	car	4.392	69.953	-	PAVEMENT_GENERAL	Urban	F	1111101000000001	0000000000000000	-	car	72.314	-17.265	20.116	0.000	179.996	696.403	763.937	-0.000	Terminate	
"Student2mode3"	"Tanvi_6"	"Nov 22, 2016 08:13:20 AM"	Unknown	146.98627	10/22/0116 08:15.50	00008819	16.298	Inter686t1-0	-0.418	1	1	180.000	11.111	-1.1	0.192	0.000	D	F	1922.7	180.142	0.197	0.006	696.814	822.493	0.025	-	-0.038	0.353	-	-	-	car	4.537	73.952	-	PAVEMENT_GENERAL	Urban	F	1111101000000001	0000000000000000	-	car	76.313	-19.989	20.116	0.000	179.996	696.403	743.821	-0.000	Terminate	
"Student2mode3"	"Tanvi_6"	"Nov 22, 2016 08:13:20 AM"	Unknown	147.98630	10/22/0116 08:15.52	00008879	16.639	Inter686t1-0	-0.416	1	1	180.000	11.111	-1.6	0.189	0.000	D	F	1943.3	179.833	0.196	0.012	696.812	806.022	0.025	-	-0.095	0.329	-	-	-	car	4.664	77.598	-	PAVEMENT_GENERAL	Urban	F	1011101000000001	0000000000000000	-	car	79.958	-22.994	20.116	0.000	179.996	696.403	723.705	-0.000	Terminate	
"Student2mode3"	"Tanvi_6"	"Nov 22, 2016 08:13:20 AM"	Unknown	148.98631	10/22/0116 08:15.53	00008939	16.961	Inter682t1-1	-0.493	1	1	180.000	11.111	-0.6	0.194	0.000	D	F	1969.3	179.603	0.195	0.005	696.897	789.222	0.025	-	-0.039	0.323	-	-	-	car	4.771	80.914	-	PAVEMENT_GENERAL	Urban	F	1111101000000001	0000000000000000	-	car	83.274	-26.387	20.116	0.000	179.996	696.403	703.589	-0.000	Terminate	
"Student2mode3"	"Tanvi_6"	"Nov 22, 2016 08:13:20 AM"	Unknown	149.98633	10/22/0116 08:15.54	00008999	17.281	Inter682t1-1	-0.625	1	1	180.000	11.111	1.1	0.194	0.000	D	F	1996.7	179.532	0.195	-0.002	697.029	772.101	0.025	-	0.025	0.319	-	-	-	car	4.855	83.909	-	PAVEMENT_GENERAL	Urban	F	1011101000000001	0000000000000000	-	car	86.270	-30.417	20.116	0.000	179.996	696.403	683.473	-0.000	Terminate	
"Student2mode3"	"Tanvi_6"	"Nov 22, 2016 08:13:20 AM"	Unknown	150.98636	10/22/0116 08:15.55	00009059	17.596	Inter682t1-1	-0.698	1	1	180.000	11.111	4.3	0.194	0.000	D	F	2019.9	180.147	0.194	-0.034	697.102	754.662	0.025	-	0.257	0.309	-	-	-	car	4.921	86.585	-	PAVEMENT_GENERAL	Urban	F	1111101000000001	0000000000000000	-	car	88.948	-35.302	20.116	0.000	179.996	696.403	663.357	-0.000	Terminate	
"Student2mode3"	"Tanvi_6"	"Nov 22, 2016 08:13:20 AM"	Unknown	151.98637	10/22/0116 08:15.56	00009119	17.896	Inter682t1-1	-0.558	1	1	180.000	11.111	-1.1	0.189	0.000	D	F	2036.0	180.693	0.193	0.002	696.962	736.915	0.025	-	0.010	0.290	-	-	-	car	4.971	88.954	-	PAVEMENT_GENERAL	Urban	F	1111101000000001	0000000000000000	-	car	91.316	-41.131	20.116	0.000	179.996	696.403	643.241	-0.000	Terminate	
"Student2mode3"	"Tanvi_6"	"Nov 22, 2016 08:13:20 AM"	Unknown	152.98639	10/22/0116 08:15.57	00009179	18.069	Inter682t1-1	-0.381	1	1	180.000	11.111	0.2	0.076	0.000	D	F	1878.6	180.439	0.185	0.002	696.785	718.915	0.026	-	-0.026	-0.078	-	-	-	car	5.040	91.071	-	PAVEMENT_GENERAL	Urban	F	1111101000000001	0000000000000000	-	car	93.431	-45.653	20.116	0.000	179.996	696.403	623.125	-0.000	Terminate	
"Student2mode3"	"Tanvi_6"	"Nov 22, 2016 08:13:20 AM"	Unknown	153.98642	10/22/0116 08:15.58	00009239	17.596	Inter682t1-1	-0.237	1	1	180.000	11.111	0.3	0.111	0.000	D	F	1531.3	180.495	0.194	-0.003	696.641	701.080	0.029	-	0.022	-0.186	-	-	-	car	5.305	93.352	-	PAVEMENT_GENERAL	Urban	F	1011101000000001	0000000000000000	-	car	95.712	-37.973	20.116	0.000	180.020	696.399	603.010	-0.000	Terminate	
