ZoneName	Time	SystemTime	Frame	Velocity	LaneName	LanePos	LaneIndex	LaneCount	LaneHeading	SpeedLimit	Steer	Accel	Brake	Gear	Horn	SubjectEngineRPM	SubjectHeading	SubjectPitch	SubjectRoll	SubjectX	SubjectY	SubjectZ	Signal	LatAccel	LongAccel	Collision	CollisionAngle	CollisionVelocity	VehAhead	HeadwayTime	HeadwayDist	TTC	TerrainType	CultureType	Slip	DigitalInputs	DigitalInputs2	ActiveTrigger	EntityName	DistToEntity	TimeToEntity	EntityVelocity	EntityAccel	EntityHeading	EntityX	EntityY	EntityZ	GrabData	
Unknown	0.98335	01/16/0117 09:42.52	00000059	0.002	Inter625t13-0	-0.088	1	2	0.000	11.111	-4.6	0.000	0.000	D	F	0.0	0.000	0.153	0.002	1503.500	523.206	0.019	-	0.000	0.000	-	-	-	-	-	-	-	PAVEMENT_GENERAL	Urban	F	1011101000011101	0000000000010000	-	-	-	-	-	-	-	-	-	-	Terminate	
Unknown	1.98337	01/16/0117 09:42.53	00000119	0.000	Inter625t13-0	-0.088	1	2	0.000	11.111	-4.6	0.000	0.000	D	F	0.0	0.000	0.197	0.000	1503.500	523.208	0.026	-	-0.000	-0.001	-	-	-	-	-	-	-	PAVEMENT_GENERAL	Urban	F	1011101000011101	0000000000010000	-	-	-	-	-	-	-	-	-	-	Terminate	
Unknown	2.98339	01/16/0117 09:42.54	00000179	-0.000	Inter625t13-0	-0.088	1	2	0.000	11.111	-4.6	0.000	0.000	D	F	0.0	0.000	0.207	0.000	1503.500	523.208	0.028	-	-0.000	-0.000	-	-	-	-	-	-	-	PAVEMENT_GENERAL	Urban	F	1011101000011101	0000000000010000	-	-	-	-	-	-	-	-	-	-	Terminate	
Unknown	3.98341	01/16/0117 09:42.55	00000239	-0.000	Inter625t13-0	-0.088	1	2	0.000	11.111	-4.6	0.000	0.000	D	F	0.0	0.000	0.210	0.000	1503.500	523.208	0.028	-	-0.000	-0.000	-	-	-	-	-	-	-	PAVEMENT_GENERAL	Urban	F	1111101000011101	0000000000010000	-	-	-	-	-	-	-	-	-	-	Terminate	
Unknown	4.98343	01/16/0117 09:42.56	00000299	0.000	Inter625t13-0	-0.088	1	2	0.000	11.111	-4.6	0.000	0.000	D	F	322.2	0.000	0.209	0.000	1503.500	523.208	0.028	-	-0.000	0.001	-	-	-	-	-	-	-	PAVEMENT_GENERAL	Urban	F	1011101000011101	0000000000010000	-	-	-	-	-	-	-	-	-	-	Terminate	
Unknown	5.98345	01/16/0117 09:42.57	00000359	0.014	Inter625t13-0	-0.088	1	2	0.000	11.111	-4.5	0.000	0.000	D	F	477.5	0.000	0.201	-0.000	1503.500	523.213	0.025	-	-0.000	0.023	-	-	-	-	-	-	-	PAVEMENT_GENERAL	Urban	F	1011101000011101	0000000000010000	-	-	-	-	-	-	-	-	-	-	Terminate	
Unknown	6.98347	01/16/0117 09:42.58	00000419	0.367	Inter625t13-0	-0.088	1	2	0.000	11.111	12.6	0.060	0.000	D	F	947.2	0.017	0.228	-0.001	1503.500	523.302	0.022	-	0.011	1.264	-	-	-	-	-	-	-	PAVEMENT_GENERAL	Urban	F	1011101000011101	0000000000010000	-	-	-	-	-	-	-	-	-	-	Terminate	
Unknown	7.98349	01/16/0117 09:42.59	00000479	2.260	Inter625t13-0	-0.073	1	2	0.000	11.111	15.2	0.118	0.000	D	F	1335.6	0.393	0.212	-0.006	1503.515	524.491	0.016	-	0.047	2.439	-	-	-	-	-	-	-	PAVEMENT_GENERAL	Urban	F	1011101000011101	0000000000010000	-	-	-	-	-	-	-	-	-	-	Terminate	
Unknown	8.98351	01/16/0117 09:43.00	00000539	4.315	Inter625t13-0	-0.015	1	2	0.000	11.111	-0.9	0.141	0.000	D	F	1602.9	0.912	0.215	0.004	1503.573	527.820	0.017	-	-0.022	1.775	-	-	-	-	-	-	-	PAVEMENT_GENERAL	Urban	F	1011101000011101	0000000000010000	-	-	-	-	-	-	-	-	-	-	Terminate	
Unknown	9.98353	01/16/0117 09:43.01	00000599	5.794	Inter625t49-0	0.050	1	1	0.005	11.111	-1.9	0.143	0.000	D	F	1740.4	0.649	0.218	0.000	1503.638	532.911	0.020	-	-0.016	1.486	-	-	-	-	-	-	-	PAVEMENT_GENERAL	Urban	F	1011101000011101	0000000000010000	-	-	-	-	-	-	-	-	-	-	Terminate	
Unknown	10.98355	01/16/0117 09:43.02	00000659	7.017	Inter625t49-0	0.126	1	1	0.006	11.111	-0.6	0.178	0.000	D	F	1653.8	0.751	0.214	-0.000	1503.715	539.325	0.020	-	-0.015	1.235	-	-	-	-	-	-	-	PAVEMENT_GENERAL	Urban	F	1011101000011101	0000000000010000	-	-	-	-	-	-	-	-	-	-	Terminate	
Unknown	11.98357	01/16/0117 09:43.03	00000719	8.210	Inter625t49-0	0.193	1	1	0.008	11.111	-0.6	0.198	0.000	D	F	1777.1	0.357	0.215	0.001	1503.783	546.947	0.021	-	-0.014	1.218	-	-	-	-	-	-	-	PAVEMENT_GENERAL	Urban	F	1011101000011101	0000000000010000	-	-	-	-	-	-	-	-	-	-	Terminate	
Unknown	12.98359	01/16/0117 09:43.04	00000779	9.503	Inter625t49-0	0.247	1	1	0.007	11.111	-0.5	0.257	0.000	D	F	1965.8	0.372	0.215	0.001	1503.838	555.786	0.020	-	-0.010	1.416	-	-	-	-	-	-	-	PAVEMENT_GENERAL	Urban	F	1011101000011101	0000000000010000	-	-	-	-	-	-	-	-	-	-	Terminate	
Unknown	13.98361	01/16/0117 09:43.05	00000839	10.805	Inter625t49-0	0.296	1	1	0.005	11.111	0.2	0.254	0.000	D	F	2061.1	0.212	0.211	-0.002	1503.888	565.956	0.021	-	-0.001	1.219	-	-	-	-	-	-	-	PAVEMENT_GENERAL	Urban	F	1011101000011101	0000000000010000	-	-	-	-	-	-	-	-	-	-	Terminate	
Unknown	14.98363	01/16/0117 09:43.06	00000899	11.956	Inter625t49-0	0.350	1	1	0.005	11.111	0.8	0.254	0.000	D	F	2168.9	0.381	0.209	-0.005	1503.943	577.348	0.021	-	0.041	1.094	-	-	-	-	-	-	-	PAVEMENT_GENERAL	Urban	F	1011101000011101	0000000000010000	-	-	-	-	-	-	-	-	-	-	Terminate	
Unknown	15.98365	01/16/0117 09:43.07	00000959	13.018	Inter625t15-0	0.444	1	2	0.000	11.111	-0.2	0.256	0.000	D	F	2294.5	0.464	0.207	-0.001	1504.037	589.839	0.022	-	0.002	1.041	-	-	-	-	-	-	-	PAVEMENT_GENERAL	Urban	F	1011101000011101	0000000000010000	-	-	-	-	-	-	-	-	-	-	Terminate	
Unknown	16.98367	01/16/0117 09:43.09	00001019	14.029	Inter614t1-0	0.514	1	2	0.000	11.111	-3.3	0.254	0.000	D	F	2419.0	0.000	0.206	0.021	1504.107	603.368	0.022	-	-0.162	0.982	-	-	-	-	-	-	-	PAVEMENT_GENERAL	Urban	F	1011101000011101	0000000000010000	-	-	-	-	-	-	-	-	-	-	Terminate	
Unknown	17.98369	01/16/0117 09:43.10	00001079	14.967	Inter614t1-0	0.446	1	2	0.000	11.111	1.2	0.243	0.000	D	F	2545.4	359.552	0.204	-0.003	1504.040	617.874	0.022	-	0.004	0.897	-	-	-	-	-	-	-	PAVEMENT_GENERAL	Urban	F	1011101000011101	0000000000010000	-	-	-	-	-	-	-	-	-	-	Terminate	
Unknown	18.98371	01/16/0117 09:43.11	00001139	15.710	Inter614t1-0	0.361	1	2	0.000	11.111	0.3	0.231	0.000	D	F	1996.7	359.807	0.199	-0.003	1503.954	633.250	0.024	-	0.034	0.597	-	-	-	-	-	-	-	PAVEMENT_GENERAL	Urban	F	1011101000011101	0000000000010000	-	-	-	-	-	-	-	-	-	-	Terminate	
Unknown	19.98373	01/16/0117 09:43.12	00001199	16.018	Inter614t1-0	0.311	1	2	0.000	11.111	0.1	0.095	0.000	D	F	1734.4	359.827	0.188	-0.001	1503.904	649.193	0.027	-	0.003	-0.108	-	-	-	-	-	-	-	PAVEMENT_GENERAL	Urban	F	1011101000011101	0000000000010000	-	-	-	-	-	-	-	-	-	-	Terminate	
Unknown	20.98375	01/16/0117 09:43.13	00001259	15.973	Inter614t1-0	0.269	1	2	0.000	11.111	-0.6	0.108	0.000	D	F	1750.5	359.881	0.194	0.002	1503.862	665.187	0.027	-	-0.008	-0.019	-	-	-	-	-	-	-	PAVEMENT_GENERAL	Urban	F	1011101000011101	0000000000010000	-	-	-	-	-	-	-	-	-	-	Terminate	
Unknown	21.98377	01/16/0117 09:43.14	00001319	15.907	Inter614t1-0	0.219	1	2	0.000	11.111	-0.7	0.102	0.000	D	F	1738.6	359.750	0.193	0.005	1503.812	681.130	0.027	-	-0.039	-0.062	-	-	-	-	-	-	-	PAVEMENT_GENERAL	Urban	F	1011101000011101	0000000000010000	-	-	-	-	-	-	-	-	-	-	Terminate	
Unknown	22.98379	01/16/0117 09:43.15	00001379	15.888	Inter614t1-0	0.136	1	2	0.000	11.111	1.2	0.111	0.000	D	F	1747.0	359.703	0.194	-0.007	1503.729	697.025	0.027	-	0.049	-0.004	-	-	-	-	-	-	-	PAVEMENT_GENERAL	Urban	F	1011101000011101	0000000000010000	-	-	-	-	-	-	-	-	-	-	Terminate	
Unknown	23.98381	01/16/0117 09:43.16	00001439	15.890	Inter614t1-0	0.076	1	2	0.000	11.111	-0.1	0.113	0.000	D	F	1748.0	359.835	0.194	-0.000	1503.669	712.913	0.027	-	0.005	0.002	-	-	-	-	-	-	-	PAVEMENT_GENERAL	Urban	F	1011101000011101	0000000000010000	-	-	-	-	-	-	-	-	-	-	Terminate	
Unknown	24.98383	01/16/0117 09:43.17	00001499	15.894	Inter614t1-0	0.024	1	2	0.000	11.111	1.9	0.115	0.000	D	F	1751.6	359.828	0.194	-0.008	1503.617	728.804	0.026	-	0.063	0.016	-	-	-	12	6.941	110.316	-	PAVEMENT_GENERAL	Urban	F	1011101000011101	0000000000010000	-	-	-	-	-	-	-	-	-	-	Terminate	
Unknown	25.98385	01/16/0117 09:43.18	00001559	15.906	Inter614t1-0	0.041	1	2	0.000	11.111	3.4	0.111	0.000	D	F	1750.7	0.393	0.194	-0.026	1503.634	744.704	0.026	-	0.192	0.009	-	-	-	12	7.109	113.081	-	PAVEMENT_GENERAL	Urban	F	1011101000011101	0000000000010000	-	-	-	-	-	-	-	-	-	-	Terminate	
Unknown	26.98387	01/16/0117 09:43.19	00001619	15.601	Inter614t1-0	0.164	1	2	0.000	11.111	-1.9	0.000	0.000	D	F	1531.9	0.344	0.186	0.014	1503.758	760.529	0.029	-	-0.110	-0.586	-	-	-	12	7.551	117.797	-	PAVEMENT_GENERAL	Urban	F	1011101000011101	0000000000010000	-	-	-	-	-	-	-	-	-	-	Terminate	
Unknown	27.98389	01/16/0117 09:43.20	00001679	15.020	Inter614t1-0	0.204	1	2	0.000	11.111	1.7	0.000	0.000	D	F	1475.2	0.052	0.189	-0.008	1503.797	775.839	0.029	-	0.049	-0.575	-	-	-	12	8.252	123.945	-	PAVEMENT_GENERAL	Urban	F	1011101000011101	0000000000010000	-	-	-	-	-	-	-	-	-	-	Terminate	
Unknown	28.98391	01/16/0117 09:43.21	00001739	14.450	Inter614t1-0	0.268	1	2	0.000	11.111	1.4	0.000	0.000	D	F	1419.2	0.484	0.189	-0.013	1503.862	790.573	0.029	-	0.099	-0.566	-	-	-	12	9.079	131.189	-	PAVEMENT_GENERAL	Urban	F	1011101000011101	0000000000010000	-	-	-	-	-	-	-	-	-	-	Terminate	
Unknown	29.98393	01/16/0117 09:43.22	00001799	13.917	Inter612t1-0	0.403	1	2	0.000	11.111	-4.1	0.042	0.000	D	F	1434.0	0.440	0.196	0.026	1503.997	804.743	0.029	-	-0.170	-0.360	-	-	-	12	10.013	139.356	-	PAVEMENT_GENERAL	Urban	F	1011101000011101	0000000000010000	-	-	-	-	-	-	-	-	-	-	Terminate	
Unknown	30.98395	01/16/0117 09:43.23	00001859	14.009	Inter612t1-0	0.444	1	2	0.000	11.111	2.3	0.162	0.000	D	F	1729.9	0.128	0.201	-0.012	1504.037	818.651	0.025	-	0.083	0.303	-	-	-	12	10.550	147.801	-	PAVEMENT_GENERAL	Urban	F	1011101000011101	0000000000010000	-	-	-	-	-	-	-	-	-	-	Terminate	
Unknown	31.98397	01/16/0117 09:43.24	00001919	14.454	Inter612t1-0	0.520	1	2	0.000	11.111	-1.2	0.192	0.000	D	F	1844.9	0.366	0.200	0.006	1504.114	832.870	0.024	-	-0.036	0.478	-	-	-	12	10.789	155.937	-	PAVEMENT_GENERAL	Urban	F	1011101000011101	0000000000010000	-	-	-	-	-	-	-	-	-	-	Terminate	
Unknown	32.98399	01/16/0117 09:43.25	00001979	14.982	Inter612t1-0	0.575	1	2	0.000	11.111	-0.6	0.205	0.000	D	F	1898.0	0.058	0.200	0.007	1504.168	847.586	0.024	-	-0.053	0.525	-	-	-	12	10.918	163.574	-	PAVEMENT_GENERAL	Urban	F	1011101000011101	0000000000010000	-	-	-	-	-	-	-	-	-	-	Terminate	
Unknown	33.98401	01/16/0117 09:43.26	00002039	15.484	Inter612t1-0	0.591	1	2	0.000	11.111	1.2	0.206	0.000	D	F	1923.3	0.132	0.199	-0.009	1504.184	862.821	0.024	-	0.063	0.486	-	-	-	12	11.024	170.692	-	PAVEMENT_GENERAL	Urban	F	1011101000011101	0000000000010000	-	-	-	-	-	-	-	-	-	-	Terminate	
Unknown	34.98403	01/16/0117 09:43.27	00002099	15.947	Inter612t1-0	0.624	1	2	0.000	11.111	-3.4	0.201	0.000	D	F	1939.2	359.938	0.198	0.025	1504.217	878.541	0.024	-	-0.174	0.445	-	-	-	12	11.119	177.326	-	PAVEMENT_GENERAL	Urban	F	1011101000011101	0000000000010000	-	-	-	-	-	-	-	-	-	-	Terminate	
Unknown	35.98405	01/16/0117 09:43.28	00002159	16.386	Inter612t1-0	0.536	1	2	0.000	11.111	1.8	0.201	0.000	D	F	1961.3	359.518	0.197	-0.005	1504.129	894.710	0.025	-	0.022	0.424	-	-	-	12	11.199	183.510	-	PAVEMENT_GENERAL	Urban	F	1011101000011101	0000000000010000	-	-	-	-	-	-	-	-	-	-	Terminate	
Unknown	36.98407	01/16/0117 09:43.29	00002219	16.795	Inter612t1-0	0.461	1	2	0.000	11.111	0.7	0.201	0.000	D	F	1978.6	0.000	0.196	-0.009	1504.054	911.303	0.025	-	0.083	0.395	-	-	-	12	11.269	189.271	-	PAVEMENT_GENERAL	Urban	F	1011101000011101	0000000000010000	-	-	-	-	-	-	-	-	-	-	Terminate	
Unknown	37.98409	01/16/0117 09:43.30	00002279	17.165	Inter612t1-0	0.446	1	2	0.000	11.111	-1.6	0.196	0.000	D	F	1994.2	359.782	0.195	0.016	1504.039	928.288	0.025	-	-0.121	0.339	-	-	-	12	11.340	194.639	-	PAVEMENT_GENERAL	Urban	F	1011101000011101	0000000000010000	-	-	-	-	-	-	-	-	-	-	Terminate	
Unknown	38.98411	01/16/0117 09:43.31	00002339	17.445	Inter612t1-0	0.367	1	2	0.000	11.111	2.3	0.175	0.000	D	F	1977.0	359.852	0.194	-0.018	1503.960	945.604	0.025	-	0.128	0.239	-	-	-	12	11.446	199.677	-	PAVEMENT_GENERAL	Urban	F	1011101000011101	0000000000010000	-	-	-	-	-	-	-	-	-	-	Terminate	
Unknown	39.98413	01/16/0117 09:43.32	00002399	17.619	Inter612t1-0	0.366	1	2	0.000	11.111	-1.1	0.155	0.000	D	F	1946.5	0.094	0.192	0.005	1503.959	963.146	0.026	-	-0.020	0.121	-	-	-	12	11.606	204.488	-	PAVEMENT_GENERAL	Urban	F	1011101000011101	0000000000010000	-	-	-	-	-	-	-	-	-	-	Terminate	
Unknown	40.98415	01/16/0117 09:43.33	00002459	17.384	Inter612t1-0	0.364	1	2	0.000	11.111	-0.8	0.000	0.000	D	F	1324.0	359.877	0.183	0.008	1503.957	980.718	0.029	-	-0.064	-0.543	-	-	-	12	12.038	209.270	-	PAVEMENT_GENERAL	Urban	F	1011101000011101	0000000000010000	-	-	-	-	-	-	-	-	-	-	Terminate	
Unknown	41.98417	01/16/0117 09:43.34	00002519	16.829	Inter612t1-0	0.317	1	2	0.000	11.111	-0.2	0.000	0.000	D	F	1150.1	359.810	0.187	0.002	1503.910	997.825	0.029	-	-0.017	-0.556	-	-	-	12	12.607	212.153	-	PAVEMENT_GENERAL	Urban	F	1011101000011101	0000000000010000	-	-	-	-	-	-	-	-	-	-	Terminate	
Unknown	42.98419	01/16/0117 09:43.35	00002579	16.287	Inter613t1-0	0.261	1	2	0.000	11.111	0.5	0.016	0.000	D	F	1116.2	359.842	0.189	-0.004	1503.854	1014.377	0.029	-	0.033	-0.482	-	-	-	12	13.528	220.317	-	PAVEMENT_GENERAL	Urban	F	1111101000011101	0000000000010000	-	-	-	-	-	-	-	-	-	-	Terminate	
Unknown	43.98421	01/16/0117 09:43.36	00002639	15.828	Inter613t1-0	0.232	1	2	0.000	11.111	0.6	0.019	0.000	D	F	1125.5	0.000	0.189	-0.004	1503.825	1030.435	0.029	-	0.034	-0.449	-	-	-	12	14.318	226.613	-	PAVEMENT_GENERAL	Urban	F	1011101000011101	0000000000010000	-	-	-	-	-	-	-	-	-	-	Terminate	
Unknown	44.98423	01/16/0117 09:43.37	00002699	15.441	Inter613t1-0	0.247	1	2	0.000	11.111	2.2	0.060	0.000	D	F	1245.9	0.217	0.192	-0.014	1503.840	1046.056	0.028	-	0.109	-0.292	-	-	-	12	15.112	233.346	-	PAVEMENT_GENERAL	Urban	F	1011101000011101	0000000000010000	-	-	-	-	-	-	-	-	-	-	Terminate	
Unknown	45.98425	01/16/0117 09:43.38	00002759	15.477	Inter613t1-0	0.316	1	2	0.000	11.111	0.1	0.159	0.000	D	F	1687.2	0.257	0.196	-0.000	1503.909	1061.465	0.025	-	0.002	0.212	-	-	-	12	15.526	240.290	-	PAVEMENT_GENERAL	Urban	F	1011101000011101	0000000000010000	-	-	-	-	-	-	-	-	-	-	Terminate	
Unknown	46.98427	01/16/0117 09:43.39	00002819	15.669	Inter613t1-0	0.388	1	2	0.000	11.111	-0.7	0.150	0.000	D	F	1804.7	0.269	0.196	0.002	1503.981	1077.037	0.026	-	-0.020	0.185	-	-	-	-	-	-	-	PAVEMENT_GENERAL	Urban	F	1011101000011101	0000000000010000	-	-	-	-	-	-	-	-	-	-	Terminate	
Unknown	47.98429	01/16/0117 09:43.40	00002879	15.889	Inter613t1-0	0.429	1	2	0.000	11.111	0.4	0.162	0.000	D	F	1843.5	0.017	0.196	0.002	1504.022	1092.810	0.025	-	-0.019	0.232	-	-	-	-	-	-	-	PAVEMENT_GENERAL	Urban	F	1011101000011101	0000000000010000	-	-	-	-	-	-	-	-	-	-	Terminate	
Unknown	48.98431	01/16/0117 09:43.41	00002939	16.101	Inter613t1-0	0.461	1	2	0.000	11.111	-1.5	0.155	0.000	D	F	1838.1	0.209	0.194	0.006	1504.054	1108.812	0.026	-	-0.025	0.166	-	-	-	-	-	-	-	PAVEMENT_GENERAL	Urban	F	1011101000011101	0000000000010000	-	-	-	-	-	-	-	-	-	-	Terminate	
Unknown	49.98433	01/16/0117 09:43.42	00002999	16.270	Inter613t1-0	0.471	1	2	0.000	11.111	0.7	0.157	0.000	D	F	1859.2	359.896	0.195	-0.000	1504.065	1124.993	0.026	-	-0.004	0.193	-	-	-	-	-	-	-	PAVEMENT_GENERAL	Urban	F	1011101000011101	0000000000010000	-	-	-	-	-	-	-	-	-	-	Terminate	
Unknown	50.98435	01/16/0117 09:43.43	00003059	16.470	Inter613t1-0	0.478	1	2	0.000	11.111	0.3	0.164	0.000	D	F	1886.6	0.152	0.195	-0.003	1504.071	1141.362	0.026	-	0.036	0.211	-	-	-	-	-	-	-	PAVEMENT_GENERAL	Urban	F	1011101000011101	0000000000010000	-	-	-	-	-	-	-	-	-	-	Terminate	
Unknown	51.98437	01/16/0117 09:43.44	00003119	16.676	Inter613t1-0	0.522	1	2	0.000	11.111	-0.2	0.169	0.000	D	F	1916.0	0.133	0.195	0.002	1504.115	1157.934	0.026	-	-0.014	0.235	-	-	-	-	-	-	-	PAVEMENT_GENERAL	Urban	F	1011101000011101	0000000000010000	-	-	-	-	-	-	-	-	-	-	Terminate	
Unknown	52.98439	01/16/0117 09:43.45	00003179	16.896	Inter613t1-0	0.560	1	2	0.000	11.111	-0.2	0.162	0.000	D	F	1910.6	0.126	0.194	0.001	1504.153	1174.725	0.026	-	-0.006	0.185	-	-	-	-	-	-	-	PAVEMENT_GENERAL	Urban	F	1011101000011101	0000000000010000	-	-	-	-	-	-	-	-	-	-	Terminate	
Unknown	53.98441	01/16/0117 09:43.46	00003239	17.087	Inter613t1-0	0.594	1	2	0.000	11.111	0.5	0.166	0.000	D	F	1932.0	0.143	0.194	-0.003	1504.187	1191.714	0.026	-	0.028	0.196	-	-	-	-	-	-	-	PAVEMENT_GENERAL	Urban	F	1011101000011101	0000000000010000	-	-	-	-	-	-	-	-	-	-	Terminate	
Unknown	54.98443	01/16/0117 09:43.47	00003299	17.286	Inter746t1-0	0.648	1	2	0.000	11.111	-0.5	0.169	0.000	D	F	1950.0	0.213	0.194	0.002	1504.241	1208.900	0.026	-	-0.007	0.199	-	-	-	-	-	-	-	PAVEMENT_GENERAL	Urban	F	1011101000011101	0000000000010000	-	-	-	-	-	-	-	-	-	-	Terminate	
Unknown	55.98445	01/16/0117 09:43.48	00003359	17.483	Inter746t1-0	0.682	1	2	0.000	11.111	-1.1	0.168	0.000	D	F	1962.4	0.000	0.193	0.012	1504.275	1226.286	0.026	-	-0.086	0.190	-	-	-	-	-	-	-	PAVEMENT_GENERAL	Urban	F	1011101000011101	0000000000010000	-	-	-	-	-	-	-	-	-	-	Terminate	
Unknown	56.98447	01/16/0117 09:43.49	00003419	17.690	Inter746t1-0	0.681	1	2	0.000	11.111	0.2	0.176	0.000	D	F	1993.3	0.122	0.193	-0.006	1504.274	1243.870	0.026	-	0.052	0.219	-	-	-	-	-	-	-	PAVEMENT_GENERAL	Urban	F	1011101000011101	0000000000010000	-	-	-	-	-	-	-	-	-	-	Terminate	
Unknown	57.98449	01/16/0117 09:43.50	00003479	17.881	Inter746t1-0	0.707	1	2	0.000	11.111	-0.1	0.157	0.000	D	F	1975.5	0.045	0.192	-0.000	1504.300	1261.664	0.026	-	-0.009	0.135	-	-	-	-	-	-	-	PAVEMENT_GENERAL	Urban	F	1011101000011101	0000000000010000	-	-	-	-	-	-	-	-	-	-	Terminate	
Unknown	58.98451	01/16/0117 09:43.51	00003539	18.002	Inter746t1-0	0.705	1	2	0.000	11.111	-2.3	0.157	0.000	D	F	1984.8	359.849	0.192	0.017	1504.298	1279.609	0.026	-	-0.125	0.116	-	-	-	-	-	-	-	PAVEMENT_GENERAL	Urban	F	1011101000011101	0000000000010000	-	-	-	-	-	-	-	-	-	-	Terminate	
Unknown	59.98453	01/16/0117 09:43.52	00003599	18.060	Inter746t1-0	0.612	1	2	0.000	11.111	1.0	0.055	0.000	D	F	1834.3	359.644	0.185	-0.005	1504.205	1297.662	0.027	-	0.037	-0.182	-	-	-	-	-	-	-	PAVEMENT_GENERAL	Urban	F	1011101000011101	0000000000010000	-	-	-	-	-	-	-	-	-	-	Terminate	
Unknown	60.98455	01/16/0117 09:43.53	00003659	17.540	Inter746t1-0	0.522	1	2	0.000	11.111	-1.1	0.000	0.000	D	F	1206.0	359.672	0.185	0.013	1504.115	1315.479	0.029	L	-0.079	-0.565	-	-	-	-	-	-	-	PAVEMENT_GENERAL	Urban	F	1011101000111101	0000000000010000	-	-	-	-	-	-	-	-	-	-	Terminate	
Unknown	61.98457	01/16/0117 09:43.54	00003719	16.978	Inter746t1-0	0.375	1	2	0.000	11.111	-3.3	0.000	0.000	D	F	1158.0	359.230	0.186	0.030	1503.968	1332.737	0.029	L	-0.209	-0.559	-	-	-	-	-	-	-	PAVEMENT_GENERAL	Urban	F	1011101000111101	0000000000010000	-	-	-	-	-	-	-	-	-	-	Terminate	
Unknown	62.98459	01/16/0117 09:43.55	00003779	16.423	Inter746t1-0	0.040	1	2	0.000	11.111	-3.9	0.000	0.000	D	F	1119.9	358.361	0.187	0.035	1503.633	1349.433	0.029	L	-0.269	-0.551	-	-	-	-	-	-	-	PAVEMENT_GENERAL	Urban	F	1011101000111101	0000000000010000	-	-	-	-	-	-	-	-	-	-	Terminate	
Unknown	63.98461	01/16/0117 09:43.56	00003839	15.875	Inter746t1-0	-0.537	1	2	0.000	11.111	3.6	0.000	0.000	D	F	1082.7	357.712	0.188	-0.017	1503.056	1365.571	0.029	L	0.102	-0.543	-	-	-	-	-	-	-	PAVEMENT_GENERAL	Urban	F	1011101000111101	0000000000010000	-	-	-	-	-	-	-	-	-	-	Terminate	
Unknown	64.98463	01/16/0117 09:43.57	00003899	15.335	Inter746t1-0	-1.039	1	2	0.000	11.111	-3.3	0.000	0.006	D	F	1045.8	358.484	0.189	0.011	1502.555	1381.168	0.029	L	-0.063	-0.543	-	-	-	-	-	-	-	PAVEMENT_GENERAL	Urban	F	1011101000111101	0000000000010000	-	-	-	-	-	-	-	-	-	-	Terminate	
Unknown	65.98465	01/16/0117 09:43.58	00003959	14.795	Inter746t1-0	-1.576	1	2	0.000	11.111	-3.9	0.000	0.003	D	F	1009.0	357.283	0.189	0.036	1502.017	1396.222	0.029	L	-0.295	-0.531	-	-	-	-	-	-	-	PAVEMENT_GENERAL	Urban	F	1011101000111101	0000000000010000	-	-	-	-	-	-	-	-	-	-	Terminate	
Unknown	66.98467	01/16/0117 09:43.59	00004019	13.931	-	-	CL	0	-	-	11.4	0.000	0.048	D	F	945.5	357.107	0.180	-0.062	1501.260	1410.627	0.030	L	0.429	-1.065	-	-	-	-	-	-	-	PAVEMENT_GENERAL	Urban	F	1011101000111101	0000000000010000	-	-	-	-	-	-	-	-	-	-	Terminate	
Unknown	67.98470	01/16/0117 09:44.00	00004079	12.880	-	-	SH-	1	-	-	17.6	0.000	0.048	D	F	946.8	0.615	0.177	-0.117	1500.951	1424.028	0.030	L	0.896	-1.096	-	-	-	-	-	-	-	PAVEMENT_GENERAL	Urban	F	1011101000111101	0000000000010000	-	-	-	-	-	-	-	-	-	-	Terminate	
Unknown	68.98471	01/16/0117 09:44.01	00004139	11.761	Inter749t31-0	-1.128	1	1	354.683	11.111	-16.6	0.000	0.054	D	F	1145.0	1.378	0.182	0.083	1501.280	1436.343	0.030	L	-0.564	-1.136	-	-	-	12	8.907	104.755	-	PAVEMENT_GENERAL	Urban	F	1011101000111101	0000000000010000	-	-	-	-	-	-	-	-	-	-	Terminate	
Unknown	69.98473	01/16/0117 09:44.02	00004199	10.284	Inter749t31-0	-0.129	1	1	356.402	11.111	1.1	0.000	0.087	D	F	998.4	357.986	0.175	-0.002	1501.172	1447.401	0.031	-	-0.100	-1.615	-	-	-	12	10.643	109.444	-	PAVEMENT_GENERAL	Urban	F	1011101000011101	0000000000010000	-	-	-	-	-	-	-	-	-	-	Terminate	
Unknown	70.98476	01/16/0117 09:44.03	00004259	9.724	Inter749t31-0	0.296	1	1	356.903	11.111	4.5	0.000	0.000	D	F	955.5	359.036	0.195	-0.014	1500.909	1457.373	0.029	-	0.149	-0.496	-	-	-	-	-	-	-	PAVEMENT_GENERAL	Urban	F	1011101000011101	0000000000010000	-	-	-	-	-	-	-	-	-	-	Terminate	
Unknown	71.98477	01/16/0117 09:44.04	00004319	9.725	Inter749t31-0	0.731	1	1	356.903	11.111	-1.1	0.208	0.000	D	F	1693.7	359.780	0.209	0.008	1500.826	1466.957	0.022	L	-0.014	0.949	-	-	-	-	-	-	-	PAVEMENT_GENERAL	Urban	F	1011101000111101	0000000000010000	-	-	-	-	-	-	-	-	-	-	Terminate	
Unknown	72.98479	01/16/0117 09:44.05	00004379	10.794	Inter749t11-0	0.633	LT1	2	0.000	11.111	-17.9	0.229	0.000	D	F	2026.1	358.493	0.212	0.073	1500.696	1477.204	0.021	L	-0.544	1.135	-	-	-	-	-	-	-	PAVEMENT_GENERAL	Urban	F	1011101000111101	0000000000010000	-	-	-	-	-	-	-	-	-	-	Terminate	
Unknown	73.98481	01/16/0117 09:44.06	00004439	11.449	Inter749t65-0	1.090	1	1	340.044	11.111	-98.0	0.000	0.000	D	F	1285.4	352.959	0.166	0.444	1499.939	1488.453	0.027	L	-3.099	-0.623	-	-	-	-	-	-	-	PAVEMENT_GENERAL	Urban	F	1011101000111101	0000000000010000	-	-	-	-	-	-	-	-	-	-	Terminate	
Unknown	74.98483	01/16/0117 09:44.07	00004499	10.484	-Inter749t83-0	0.262	-1	1	179.883	11.111	-235.7	0.000	0.000	D	F	1013.9	324.111	0.032	1.048	1496.166	1498.678	0.043	L	-6.645	-1.194	-	-	-	24	16.450	172.459	16.450	PAVEMENT_GENERAL	Urban	F	1111101000111101	0000000000010000	-	-	-	-	-	-	-	-	-	-	Terminate	
Unknown	75.98486	01/16/0117 09:44.08	00004559	9.191	Inter749t75-0	0.579	1	1	269.734	11.111	-240.2	0.000	0.000	D	F	894.0	285.277	-0.070	1.014	1488.240	1504.141	0.044	-	-6.508	-1.209	-	-	-	Ambient250	13.600	125.002	-	PAVEMENT_GENERAL	Urban	F	1011101000011101	0000000000010000	-	-	-	-	-	-	-	-	-	-	Terminate	
Unknown	76.98487	01/16/0117 09:44.09	00004619	8.988	Inter749t3-3	0.424	1	2	270.000	11.111	0.0	0.210	0.000	D	F	1662.9	261.579	0.198	-0.023	1479.417	1503.955	0.022	-	-0.117	0.827	-	-	-	-	-	-	-	PAVEMENT_GENERAL	Urban	F	1011101000011101	0000000000010000	-	-	-	-	-	-	-	-	-	-	Terminate	
Unknown	77.98489	01/16/0117 09:44.10	00004679	10.299	Inter749t3-3	-0.381	1	2	270.000	11.111	53.1	0.270	0.000	D	F	2025.5	269.400	0.205	-0.206	1469.840	1503.150	0.021	-	1.709	1.279	-	-	-	-	-	-	-	PAVEMENT_GENERAL	Urban	F	1011101000011101	0000000000010000	-	-	-	-	-	-	-	-	-	-	Terminate	
Unknown	78.98492	01/16/0117 09:44.11	00004739	11.662	Inter749t19-0	-0.065	1	1	270.087	11.111	-5.3	0.339	0.000	D	F	2229.6	271.823	0.215	0.018	1458.876	1503.475	0.020	-	-0.180	1.479	-	-	-	-	-	-	-	PAVEMENT_GENERAL	Urban	F	1011101000011101	0000000000010000	-	-	-	-	-	-	-	-	-	-	Terminate	
Unknown	79.98493	01/16/0117 09:44.12	00004799	13.085	Inter749t19-0	0.192	1	1	270.101	11.111	-3.1	0.356	0.000	D	F	2381.4	270.815	0.211	0.015	1446.496	1503.749	0.020	-	-0.155	1.383	-	-	-	-	-	-	-	PAVEMENT_GENERAL	Urban	F	1011101000011101	0000000000010000	-	-	-	-	-	-	-	-	-	-	Terminate	
Unknown	80.98495	01/16/0117 09:44.13	00004859	14.452	Inter749t19-0	0.301	1	1	270.061	11.111	1.6	0.372	0.000	D	F	2554.8	270.462	0.209	-0.006	1432.727	1503.884	0.020	-	0.045	1.362	-	-	-	-	-	-	-	PAVEMENT_GENERAL	Urban	F	1011101000011101	0000000000010000	-	-	-	-	-	-	-	-	-	-	Terminate	
Unknown	81.98497	01/16/0117 09:44.14	00004919	15.794	Inter749t19-0	0.425	1	1	270.061	11.111	-3.7	0.372	0.000	D	F	2736.9	270.375	0.207	0.025	1417.602	1504.024	0.020	-	-0.183	1.328	-	-	-	-	-	-	-	PAVEMENT_GENERAL	Urban	F	1011101000011101	0000000000010000	-	-	-	-	-	-	-	-	-	-	Terminate	
Unknown	82.98499	01/16/0117 09:44.15	00004979	17.066	Inter749t1-2	0.449	1	2	270.000	11.111	0.5	0.261	0.000	D	F	2827.0	269.888	0.196	0.001	1401.154	1504.049	0.021	-	-0.018	1.016	-	-	-	-	-	-	-	PAVEMENT_GENERAL	Urban	F	1011101000011101	0000000000010000	-	-	-	-	-	-	-	-	-	-	Terminate	
Unknown	83.98502	01/16/0117 09:44.16	00005039	17.685	Inter747t1-2	0.436	1	2	270.000	11.111	-1.1	0.240	0.000	D	F	2100.6	270.049	0.196	0.004	1383.737	1504.043	0.024	-	-0.020	0.497	-	-	-	-	-	-	-	PAVEMENT_GENERAL	Urban	F	1011101000011101	0000000000010000	-	-	-	-	-	-	-	-	-	-	Terminate	
Unknown	84.98503	01/16/0117 09:44.17	00005099	18.166	Inter747t1-2	0.451	1	2	270.000	11.111	1.9	0.238	0.000	D	F	2122.8	270.179	0.195	-0.015	1365.808	1504.057	0.024	-	0.113	0.465	-	-	-	-	-	-	-	PAVEMENT_GENERAL	Urban	F	1011101000011101	0000000000010000	-	-	-	-	-	-	-	-	-	-	Terminate	
Unknown	85.98505	01/16/0117 09:44.18	00005159	18.631	Inter747t1-2	0.557	1	2	270.000	11.111	-1.2	0.259	0.000	D	F	2173.8	270.470	0.195	0.002	1347.411	1504.164	0.024	-	-0.004	0.482	-	-	-	-	-	-	-	PAVEMENT_GENERAL	Urban	F	1011101000011101	0000000000010000	-	-	-	-	-	-	-	-	-	-	Terminate	
Unknown	86.98507	01/16/0117 09:44.19	00005219	19.133	Inter747t1-2	0.661	1	2	270.000	11.111	-0.6	0.249	0.000	D	F	2205.2	270.142	0.192	0.012	1328.522	1504.267	0.025	-	-0.071	0.434	-	-	-	-	-	-	-	PAVEMENT_GENERAL	Urban	F	1011101000011101	0000000000010000	-	-	-	-	-	-	-	-	-	-	Terminate	
Unknown	87.98509	01/16/0117 09:44.20	00005279	18.988	Inter747t1-2	0.707	1	2	270.000	11.111	-0.2	0.000	0.000	D	F	1340.3	270.176	0.180	-0.001	1309.341	1504.314	0.029	-	0.020	-0.581	-	-	-	-	-	-	-	PAVEMENT_GENERAL	Urban	F	1011101000011101	0000000000010000	-	-	-	-	-	-	-	-	-	-	Terminate	
Unknown	88.98512	01/16/0117 09:44.21	00005339	18.406	Inter747t1-2	0.765	1	2	270.000	11.111	-1.8	0.000	0.000	D	F	1255.8	270.110	0.184	0.015	1290.644	1504.372	0.029	-	-0.108	-0.579	-	-	-	-	-	-	-	PAVEMENT_GENERAL	Urban	F	1011101000011101	0000000000010000	-	-	-	-	-	-	-	-	-	-	Terminate	
Unknown	89.98513	01/16/0117 09:44.22	00005399	17.831	Inter747t1-2	0.727	1	2	270.000	11.111	0.0	0.000	0.000	D	F	1216.1	269.620	0.185	0.011	1272.526	1504.334	0.029	-	-0.074	-0.571	-	-	-	-	-	-	-	PAVEMENT_GENERAL	Urban	F	1011101000011101	0000000000010000	-	-	-	-	-	-	-	-	-	-	Terminate	
Unknown	90.98515	01/16/0117 09:44.23	00005459	17.450	Inter747t1-2	0.658	1	2	270.000	11.111	2.1	0.065	0.000	D	F	1358.7	270.072	0.189	-0.021	1254.904	1504.265	0.028	-	0.167	-0.284	-	-	-	-	-	-	-	PAVEMENT_GENERAL	Urban	F	1011101000011101	0000000000010000	-	-	-	-	-	-	-	-	-	-	Terminate	
Unknown	91.98518	01/16/0117 09:44.24	00005519	17.317	Inter747t1-2	0.683	1	2	270.000	11.111	-2.6	0.127	0.000	D	F	1562.0	269.899	0.192	0.020	1237.547	1504.290	0.027	-	-0.160	-0.017	-	-	-	-	-	-	-	PAVEMENT_GENERAL	Urban	F	1011101000011101	0000000000010000	-	-	-	-	-	-	-	-	-	-	Terminate	
Unknown	92.98519	01/16/0117 09:44.25	00005579	17.323	Inter747t1-2	0.595	1	2	270.000	11.111	-0.3	0.136	0.000	D	F	1576.4	269.513	0.191	0.005	1220.230	1504.202	0.027	-	-0.054	0.009	-	-	-	-	-	-	-	PAVEMENT_GENERAL	Urban	F	1011101000011101	0000000000010000	-	-	-	-	-	-	-	-	-	-	Terminate	
Unknown	93.98521	01/16/0117 09:44.26	00005639	17.380	Inter747t1-2	0.453	1	2	270.000	11.111	1.0	0.155	0.000	D	F	1630.5	269.568	0.193	-0.008	1202.889	1504.060	0.026	-	0.042	0.105	-	-	-	-	-	-	-	PAVEMENT_GENERAL	Urban	F	1011101000011101	0000000000010000	-	-	-	-	-	-	-	-	-	-	Terminate	
Unknown	94.98523	01/16/0117 09:44.27	00005699	17.469	Inter748t1-2	0.355	1	2	270.000	11.111	1.1	0.153	0.000	D	F	1634.4	269.822	0.192	-0.009	1185.465	1503.962	0.026	-	0.076	0.087	-	-	-	-	-	-	-	PAVEMENT_GENERAL	Urban	F	1011101000011101	0000000000010000	-	-	-	-	-	-	-	-	-	-	Terminate	
Unknown	95.98525	01/16/0117 09:44.28	00005759	17.568	Inter748t1-2	0.331	1	2	270.000	11.111	1.2	0.157	0.000	D	F	1646.9	270.056	0.192	-0.009	1167.948	1503.938	0.026	-	0.074	0.099	-	-	-	-	-	-	-	PAVEMENT_GENERAL	Urban	F	1011101000011101	0000000000010000	-	-	-	-	-	-	-	-	-	-	Terminate	
Unknown	96.98528	01/16/0117 09:44.29	00005819	17.664	Inter748t1-2	0.364	1	2	270.000	11.111	-1.7	0.153	0.000	D	F	1645.0	270.085	0.192	0.011	1150.331	1503.971	0.026	-	-0.073	0.088	-	-	-	-	-	-	-	PAVEMENT_GENERAL	Urban	F	1011101000011101	0000000000010000	-	-	-	-	-	-	-	-	-	-	Terminate	
Unknown	97.98529	01/16/0117 09:44.30	00005879	17.750	Inter748t1-2	0.352	1	2	270.000	11.111	-0.2	0.152	0.000	D	F	1643.2	269.855	0.192	0.003	1132.623	1503.959	0.026	-	-0.030	0.080	-	-	-	-	-	-	-	PAVEMENT_GENERAL	Urban	F	1011101000011101	0000000000010000	-	-	-	-	-	-	-	-	-	-	Terminate	
Unknown	98.98531	01/16/0117 09:44.31	00005939	17.801	Inter748t1-2	0.315	1	2	270.000	11.111	-0.2	0.145	0.000	D	F	1625.9	269.916	0.191	-0.000	1114.846	1503.922	0.026	-	0.006	0.047	-	-	-	-	-	-	-	PAVEMENT_GENERAL	Urban	F	1011101000011101	0000000000010000	-	-	-	-	-	-	-	-	-	-	Terminate	
Unknown	99.98534	01/16/0117 09:44.32	00005999	17.839	Inter748t1-2	0.271	1	2	270.000	11.111	-0.1	0.145	0.000	D	F	1616.5	269.767	0.191	0.003	1097.025	1503.877	0.026	-	-0.031	0.035	-	-	-	-	-	-	-	PAVEMENT_GENERAL	Urban	F	1011101000011101	0000000000010000	-	-	-	-	-	-	-	-	-	-	Terminate	
Unknown	100.98535	01/16/0117 09:44.33	00006059	17.868	Inter748t1-2	0.230	1	2	270.000	11.111	1.3	0.145	0.000	D	F	1620.6	270.064	0.191	-0.015	1079.171	1503.837	0.026	-	0.105	0.028	-	-	-	-	-	-	-	PAVEMENT_GENERAL	Urban	F	1011101000011101	0000000000010000	-	-	-	-	-	-	-	-	-	-	Terminate	
Unknown	101.98537	01/16/0117 09:44.34	00006119	17.825	Inter748t1-2	0.264	1	2	270.000	11.111	1.4	0.101	0.000	D	F	1502.0	270.200	0.190	-0.009	1061.305	1503.871	0.027	-	0.073	-0.126	-	-	-	-	-	-	-	PAVEMENT_GENERAL	Urban	F	1011101000011101	0000000000010000	-	-	-	-	-	-	-	-	-	-	Terminate	
Unknown	102.98539	01/16/0117 09:44.35	00006179	17.729	Inter748t1-2	0.309	1	2	270.000	11.111	-2.9	0.111	0.000	D	F	1529.9	269.917	0.190	0.023	1043.532	1503.916	0.027	-	-0.175	-0.082	-	-	-	-	-	-	-	PAVEMENT_GENERAL	Urban	F	1011101000011101	0000000000010000	-	-	-	-	-	-	-	-	-	-	Terminate	
Unknown	103.98541	01/16/0117 09:44.36	00006239	17.651	Inter748t1-2	0.203	1	2	270.000	11.111	-2.3	0.116	0.000	D	F	1531.8	269.307	0.190	0.023	1025.843	1503.810	0.027	-	-0.173	-0.073	-	-	-	-	-	-	-	PAVEMENT_GENERAL	Urban	F	1011101000011101	0000000000010000	-	-	-	-	-	-	-	-	-	-	Terminate	
Unknown	104.98544	01/16/0117 09:44.37	00006299	17.582	Inter748t1-2	0.084	1	2	270.000	11.111	9.8	0.118	0.000	D	F	1538.8	270.536	0.190	-0.088	1008.228	1503.690	0.027	-	0.681	-0.060	-	-	-	-	-	-	-	PAVEMENT_GENERAL	Urban	F	1011101000011101	0000000000010000	-	-	-	-	-	-	-	-	-	-	Terminate	
Unknown	105.98545	01/16/0117 09:44.38	00006359	17.598	Inter752t1-2	-0.181	1	2	269.953	24.444	-5.2	0.150	0.000	D	F	1622.7	271.965	0.227	-0.171	990.661	1504.113	0.071	-	-0.101	0.138	-	-	-	-	-	-	-	FREEWAY_SMOOTH	Urban	F	1011101000011101	0000000000010000	-	-	-	-	-	-	-	-	-	-	Terminate	
Unknown	106.98547	01/16/0117 09:44.39	00006419	17.699	Inter752t1-2	0.255	1	2	269.441	24.444	-3.8	0.146	0.000	D	F	1623.6	270.204	0.314	-0.581	973.019	1504.469	0.073	-	-0.424	0.100	-	-	-	-	-	-	-	FREEWAY_SMOOTH	Urban	F	1011101000011101	0000000000010000	-	-	-	-	-	-	-	-	-	-	Terminate	
Unknown	107.98550	01/16/0117 09:44.40	00006479	17.819	Inter752t1-2	0.473	1	2	268.358	24.444	-10.5	0.155	0.000	D	F	1648.2	268.694	0.319	-0.981	955.263	1504.350	0.112	-	-0.717	0.131	-	-	-	-	-	-	-	FREEWAY_SMOOTH	Urban	F	1011101000011101	0000000000010000	-	-	-	-	-	-	-	-	-	-	Terminate	
Unknown	108.98551	01/16/0117 09:44.41	00006539	17.947	Inter752t1-2	0.448	1	2	266.703	24.444	-4.8	0.159	0.000	D	F	1655.7	266.233	0.300	-1.457	937.399	1503.555	0.148	-	-0.552	0.135	-	-	-	-	-	-	-	FREEWAY_SMOOTH	Urban	F	1011101000011101	0000000000010000	-	-	-	-	-	-	-	-	-	-	Terminate	
Unknown	109.98553	01/16/0117 09:44.42	00006599	18.074	Inter752t1-2	0.365	1	2	264.459	24.444	-12.2	0.153	0.000	D	F	1654.3	263.982	0.291	-1.838	919.448	1502.078	0.181	-	-0.977	0.122	-	-	-	-	-	-	-	FREEWAY_SMOOTH	Urban	F	1011101000011101	0000000000010000	-	-	-	-	-	-	-	-	-	-	Terminate	
Unknown	110.98555	01/16/0117 09:44.43	00006659	18.190	Inter752t1-2	0.177	1	2	261.634	24.444	-12.1	0.153	0.000	D	F	1658.1	260.705	0.262	-2.278	901.477	1499.686	0.210	-	-1.060	0.117	-	-	-	-	-	-	-	FREEWAY_SMOOTH	Urban	F	1011101000011101	0000000000010000	-	-	-	-	-	-	-	-	-	-	Terminate	
Unknown	111.98557	01/16/0117 09:44.44	00006719	18.303	Inter752t1-2	-0.051	1	2	258.230	24.444	-4.7	0.153	0.000	D	F	1660.4	257.673	0.273	-2.788	883.557	1496.249	0.233	-	-0.719	0.112	-	-	-	-	-	-	-	FREEWAY_SMOOTH	Urban	F	1011101000011101	0000000000010000	-	-	-	-	-	-	-	-	-	-	Terminate	
Unknown	112.98560	01/16/0117 09:44.45	00006779	18.404	Inter752t1-2	0.044	1	2	254.165	24.444	-19.1	0.152	0.000	D	F	1658.7	254.595	0.322	-3.116	865.716	1491.934	0.272	-	-1.518	0.090	-	-	-	-	-	-	-	FREEWAY_SMOOTH	Urban	F	1011101000011101	0000000000010000	-	-	-	-	-	-	-	-	-	-	Terminate	
Unknown	113.98561	01/16/0117 09:44.46	00006839	18.458	Inter752t1-2	0.118	1	2	249.620	24.444	-18.9	0.152	0.000	D	F	1657.0	249.153	0.170	-3.288	848.185	1486.239	0.293	-	-1.731	0.033	-	-	-	-	-	-	-	FREEWAY_SMOOTH	Urban	F	1011101000011101	0000000000010000	-	-	-	-	-	-	-	-	-	-	Terminate	
Unknown	114.98563	01/16/0117 09:44.47	00006899	18.503	Inter752t1-2	-0.008	1	2	245.032	24.444	-13.9	0.155	0.000	D	F	1668.8	244.439	0.161	-3.342	831.206	1478.954	0.285	-	-1.328	0.055	-	-	-	-	-	-	-	FREEWAY_SMOOTH	Urban	F	1011101000011101	0000000000010000	-	-	-	-	-	-	-	-	-	-	Terminate	
Unknown	115.98566	01/16/0117 09:44.48	00006959	18.553	Inter752t1-2	0.008	1	2	240.371	24.444	-16.2	0.153	0.000	D	F	1675.7	240.651	0.206	-3.331	814.758	1470.425	0.286	-	-1.353	0.047	-	-	-	-	-	-	-	FREEWAY_SMOOTH	Urban	F	1011101000011101	0000000000010000	-	-	-	-	-	-	-	-	-	-	Terminate	
Unknown	116.98567	01/16/0117 09:44.49	00007019	18.579	Inter752t1-2	0.164	1	2	235.775	24.444	-19.5	0.150	0.000	D	F	1654.5	235.897	0.199	-3.290	798.947	1460.695	0.296	-	-1.664	0.021	-	-	-	-	-	-	-	FREEWAY_SMOOTH	Urban	F	1011101000011101	0000000000010000	-	-	-	-	-	-	-	-	-	-	Terminate	
Unknown	117.98569	01/16/0117 09:44.50	00007079	18.516	Inter752t1-2	0.177	1	2	231.099	24.444	-17.9	0.111	0.000	D	F	1550.1	230.504	0.150	-3.289	784.064	1449.607	0.297	-	-1.689	-0.117	-	-	-	-	-	-	-	FREEWAY_SMOOTH	Urban	F	1011101000011101	0000000000010000	-	-	-	-	-	-	-	-	-	-	Terminate	
Unknown	118.98571	01/16/0117 09:44.51	00007139	18.389	Inter752t1-2	0.030	1	2	226.525	24.444	-11.0	0.086	0.000	D	F	1484.4	226.039	0.167	-3.363	770.309	1437.306	0.288	-	-1.153	-0.169	-	-	-	-	-	-	-	FREEWAY_SMOOTH	Urban	F	1011101000011101	0000000000010000	-	-	-	-	-	-	-	-	-	-	Terminate	
Unknown	119.98573	01/16/0117 09:44.52	00007199	18.115	Inter752t1-2	0.138	1	2	221.923	24.444	-13.2	0.069	0.000	D	F	1415.7	222.740	0.239	-3.354	757.535	1424.263	0.295	-	-1.162	-0.284	-	-	-	-	-	-	-	FREEWAY_SMOOTH	Urban	F	1011101000011101	0000000000010000	-	-	-	-	-	-	-	-	-	-	Terminate	
Unknown	120.98576	01/16/0117 09:44.53	00007259	17.850	Inter752t1-2	0.495	1	2	217.440	24.444	-16.4	0.078	0.000	D	F	1417.0	218.507	0.255	-3.323	745.815	1410.629	0.317	-	-1.412	-0.256	-	-	-	-	-	-	-	FREEWAY_SMOOTH	Urban	F	1011101000011101	0000000000010000	-	-	-	-	-	-	-	-	-	-	Terminate	
Unknown	121.98577	01/16/0117 09:44.54	00007319	17.598	Inter752t1-2	0.769	1	2	213.051	24.444	-21.5	0.078	0.000	D	F	1405.9	213.037	0.194	-3.267	735.408	1396.289	0.333	-	-1.849	-0.238	-	-	-	-	-	-	-	FREEWAY_SMOOTH	Urban	F	1011101000011101	0000000000010000	-	-	-	-	-	-	-	-	-	-	Terminate	
Unknown	122.98579	01/16/0117 09:44.55	00007379	17.367	Inter752t1-2	0.628	1	2	208.673	24.444	-12.1	0.078	0.000	D	F	1399.0	207.566	0.122	-3.348	726.606	1381.192	0.325	-	-1.303	-0.218	-	-	-	-	-	-	-	FREEWAY_SMOOTH	Urban	F	1011101000011101	0000000000010000	-	-	-	-	-	-	-	-	-	-	Terminate	
Unknown	123.98581	01/16/0117 09:44.56	00007439	17.198	Inter752t1-2	0.497	1	2	204.367	24.444	-12.2	0.109	0.000	D	F	1508.6	204.518	0.202	-3.386	719.050	1365.660	0.316	-	-0.957	-0.084	-	-	-	-	-	-	-	FREEWAY_SMOOTH	Urban	F	1011101000011101	0000000000010000	-	-	-	-	-	-	-	-	-	-	Terminate	
Unknown	124.98583	01/16/0117 09:44.57	00007499	17.231	Inter752t1-2	0.590	1	2	200.087	24.444	-22.3	0.164	0.000	D	F	1647.6	199.897	0.187	-3.285	712.502	1349.764	0.321	-	-1.708	0.124	-	-	-	-	-	-	-	FREEWAY_SMOOTH	Urban	F	1011101000011101	0000000000010000	-	-	-	-	-	-	-	-	-	-	Terminate	
Unknown	125.98586	01/16/0117 09:44.58	00007559	17.339	Inter752t1-2	0.373	1	2	195.819	24.444	-8.5	0.143	0.000	D	F	1607.6	194.495	0.005	-3.158	707.427	1333.237	0.292	-	-1.096	0.028	-	-	-	-	-	-	-	FREEWAY_SMOOTH	Urban	F	1011101000011101	0000000000010000	-	-	-	-	-	-	-	-	-	-	Terminate	
Unknown	126.98587	01/16/0117 09:44.59	00007619	17.371	Inter752t1-2	0.204	1	2	191.997	24.444	-12.0	0.153	0.000	D	F	1632.6	191.895	0.076	-2.747	703.469	1316.342	0.250	-	-0.910	0.041	-	-	-	-	-	-	-	FREEWAY_SMOOTH	Urban	F	1011101000011101	0000000000010000	-	-	-	-	-	-	-	-	-	-	Terminate	
Unknown	127.98589	01/16/0117 09:45.00	00007679	17.407	Inter752t1-2	0.198	1	2	188.682	24.444	-12.7	0.153	0.000	D	F	1634.2	188.415	0.072	-2.301	700.398	1299.228	0.216	-	-1.042	0.040	-	-	-	-	-	-	-	FREEWAY_SMOOTH	Urban	F	1011101000011101	0000000000010000	-	-	-	-	-	-	-	-	-	-	Terminate	
Unknown	128.98592	01/16/0117 09:45.01	00007739	17.441	Inter752t1-2	0.102	1	2	185.890	24.444	-11.7	0.141	0.000	D	F	1600.1	185.297	0.065	-1.886	698.323	1281.927	0.180	-	-0.907	0.009	-	-	-	-	-	-	-	FREEWAY_SMOOTH	Urban	F	1011101000011101	0000000000010000	-	-	-	-	-	-	-	-	-	-	Terminate	
Unknown	129.98593	01/16/0117 09:45.02	00007799	17.071	Inter752t1-2	-0.075	1	2	183.642	24.444	-3.9	0.000	0.000	D	F	1164.0	183.076	0.063	-1.517	697.093	1264.650	0.145	-	-0.458	-0.611	-	-	-	-	-	-	-	FREEWAY_SMOOTH	Urban	F	1011101000011101	0000000000010000	-	-	-	-	-	-	-	-	-	-	Terminate	
