ZoneName	Time	SystemTime	Frame	Velocity	LaneName	LanePos	LaneIndex	LaneCount	LaneHeading	SpeedLimit	Steer	Accel	Brake	Gear	Horn	SubjectEngineRPM	SubjectHeading	SubjectPitch	SubjectRoll	SubjectX	SubjectY	SubjectZ	Signal	LatAccel	LongAccel	Collision	CollisionAngle	CollisionVelocity	VehAhead	HeadwayTime	HeadwayDist	TTC	TerrainType	CultureType	Slip	DigitalInputs	DigitalInputs2	ActiveTrigger	EntityName	DistToEntity	TimeToEntity	EntityVelocity	EntityAccel	EntityHeading	EntityX	EntityY	EntityZ	GrabData	
Unknown	0.98335	01/16/0117 09:48.14	00000059	0.002	Inter625t13-0	-0.088	1	2	0.000	11.111	-1.7	0.000	0.000	D	F	0.0	0.000	0.153	0.001	1503.500	523.206	0.019	-	0.000	0.000	-	-	-	-	-	-	-	PAVEMENT_GENERAL	Urban	F	1011101000011101	0000000000010000	-	car	928.855	774711.500	0.000	0.000	180.000	696.000	987.000	-0.000	Terminate	
Unknown	1.98337	01/16/0117 09:48.15	00000119	0.000	Inter625t13-0	-0.088	1	2	0.000	11.111	-1.8	0.000	0.000	D	F	0.0	0.000	0.197	0.000	1503.500	523.208	0.026	-	-0.000	-0.001	-	-	-	-	-	-	-	PAVEMENT_GENERAL	Urban	F	1011101000011101	0000000000010000	-	car	928.855	4213745.500	0.000	0.000	180.000	696.000	987.000	-0.000	Terminate	
Unknown	2.98339	01/16/0117 09:48.16	00000179	-0.000	Inter625t13-0	-0.088	1	2	0.000	11.111	-1.7	0.000	0.000	D	F	0.0	0.000	0.207	0.000	1503.500	523.208	0.028	-	-0.000	-0.000	-	-	-	-	-	-	-	PAVEMENT_GENERAL	Urban	F	1011101000011101	0000000000010000	-	car	928.854	-115972592.000	0.000	0.000	180.000	696.000	987.000	-0.000	Terminate	
Unknown	3.98341	01/16/0117 09:48.17	00000239	0.000	Inter625t13-0	-0.088	1	2	0.000	11.111	-1.7	0.000	0.000	D	F	288.9	0.000	0.209	0.000	1503.500	523.208	0.028	-	-0.000	0.000	-	-	-	-	-	-	-	PAVEMENT_GENERAL	Urban	F	1011101000011111	0000000000010000	-	car	928.854	6904669.500	0.000	0.000	180.000	696.000	987.000	-0.000	Terminate	
Unknown	4.98343	01/16/0117 09:48.18	00000299	0.011	Inter625t13-0	-0.088	1	2	0.000	11.111	1.7	0.000	0.000	D	F	477.5	0.000	0.203	0.000	1503.500	523.211	0.026	-	-0.000	0.020	-	-	-	-	-	-	-	PAVEMENT_GENERAL	Urban	F	1011101000011101	0000000000010000	-	car	928.853	163807.344	0.000	0.000	180.000	696.000	987.000	-0.000	Terminate	
Unknown	5.98345	01/16/0117 09:48.19	00000359	0.230	Inter625t13-0	-0.088	1	2	0.000	11.111	8.0	0.081	0.000	D	F	1097.6	0.005	0.243	-0.001	1503.500	523.265	0.024	-	0.009	1.420	-	-	-	-	-	-	-	PAVEMENT_GENERAL	Urban	F	1011101000011101	0000000000010000	-	car	928.826	8109.223	0.000	0.000	180.000	696.000	987.000	-0.000	Terminate	
Unknown	6.98347	01/16/0117 09:48.20	00000419	2.677	Inter625t13-0	-0.075	1	2	0.000	11.111	8.6	0.148	0.000	D	F	1439.4	0.334	0.223	-0.003	1503.513	524.662	0.014	-	0.016	2.597	-	-	-	-	-	-	-	PAVEMENT_GENERAL	Urban	F	1011101000011101	0000000000010000	-	car	928.143	704.873	0.000	0.000	180.000	696.000	987.000	-0.000	Terminate	
Unknown	7.98349	01/16/0117 09:48.21	00000479	5.169	Inter625t13-0	-0.038	1	2	0.000	11.111	-4.1	0.199	0.000	D	F	1862.2	0.484	0.221	0.012	1503.550	528.622	0.015	-	-0.059	2.224	-	-	-	-	-	-	-	PAVEMENT_GENERAL	Urban	F	1011101000011101	0000000000010000	-	car	926.214	368.486	0.000	0.000	180.000	696.000	987.000	-0.000	Terminate	
Unknown	8.98351	01/16/0117 09:48.22	00000539	7.118	Inter625t49-0	-0.006	1	1	0.005	11.111	2.3	0.199	0.000	D	F	1815.3	0.292	0.210	-0.006	1503.582	534.808	0.018	-	0.043	1.644	-	-	-	-	-	-	-	PAVEMENT_GENERAL	Urban	F	1011101000011101	0000000000010000	-	car	923.203	267.936	0.000	0.000	180.000	696.000	987.000	-0.000	Terminate	
Unknown	9.98353	01/16/0117 09:48.23	00000599	8.599	Inter625t49-0	0.061	1	1	0.007	11.111	-2.9	0.240	0.000	D	F	1883.8	0.531	0.215	0.012	1503.649	542.667	0.019	-	-0.063	1.490	-	-	-	-	-	-	-	PAVEMENT_GENERAL	Urban	F	1011101000011101	0000000000010000	-	car	919.448	225.627	0.000	0.000	180.000	696.000	987.000	-0.000	Terminate	
Unknown	10.98355	01/16/0117 09:48.24	00000659	10.068	Inter625t49-0	0.111	1	1	0.008	11.111	1.6	0.284	0.000	D	F	2034.5	0.193	0.213	-0.006	1503.701	552.004	0.020	-	0.026	1.431	-	-	-	-	-	-	-	PAVEMENT_GENERAL	Urban	F	1011101000011101	0000000000010000	-	car	915.029	192.880	0.000	0.000	180.000	696.000	987.000	-0.000	Terminate	
Unknown	11.98357	01/16/0117 09:48.25	00000719	11.424	Inter625t49-0	0.197	1	1	0.005	11.111	-0.9	0.287	0.000	D	F	2148.1	0.705	0.211	0.004	1503.788	562.762	0.020	-	0.003	1.283	-	-	-	-	-	-	-	PAVEMENT_GENERAL	Urban	F	1011101000011101	0000000000010000	-	car	910.055	175.456	0.000	0.000	180.000	696.000	987.000	-0.000	Terminate	
Unknown	12.98359	01/16/0117 09:48.26	00000779	12.679	Inter625t49-0	0.296	1	1	0.005	11.111	-5.1	0.286	0.000	D	F	2284.0	0.126	0.209	0.027	1503.889	574.819	0.021	-	-0.205	1.197	-	-	-	-	-	-	-	PAVEMENT_GENERAL	Urban	F	1011101000011101	0000000000010000	-	car	904.601	157.678	0.000	0.000	180.000	696.000	987.000	-0.000	Terminate	
Unknown	13.98361	01/16/0117 09:48.27	00000839	13.716	Inter625t15-0	0.241	1	2	0.000	11.111	2.6	0.254	0.000	D	F	2374.2	359.642	0.206	-0.012	1503.834	588.029	0.022	-	0.073	1.003	-	-	-	-	-	-	-	PAVEMENT_GENERAL	Urban	F	1011101000011101	0000000000010000	-	car	898.625	146.101	0.000	0.000	180.000	696.000	987.000	-0.000	Terminate	
Unknown	14.98363	01/16/0117 09:48.28	00000899	14.342	Inter614t1-0	0.233	1	2	0.000	11.111	3.6	0.131	0.000	D	F	1730.5	0.339	0.196	-0.023	1503.826	602.157	0.026	-	0.179	0.146	-	-	-	-	-	-	-	PAVEMENT_GENERAL	Urban	F	1011101000011101	0000000000010000	-	car	892.452	146.511	0.000	0.000	180.000	696.000	987.000	-0.000	Terminate	
Unknown	15.98365	01/16/0117 09:48.29	00000959	14.632	Inter614t1-0	0.357	1	2	0.000	11.111	-1.0	0.152	0.000	D	F	1741.7	0.502	0.196	0.007	1503.950	616.635	0.025	-	-0.044	0.243	-	-	-	-	-	-	-	PAVEMENT_GENERAL	Urban	F	1011101000011101	0000000000010000	-	car	886.434	148.225	0.000	0.000	180.000	696.000	987.000	-0.000	Terminate	
Unknown	16.98367	01/16/0117 09:48.30	00001019	14.876	Inter614t1-0	0.457	1	2	0.000	11.111	-1.6	0.162	0.000	D	F	1779.6	0.254	0.198	0.010	1504.050	631.386	0.025	-	-0.075	0.263	-	-	-	-	-	-	-	PAVEMENT_GENERAL	Urban	F	1011101000011101	0000000000010000	-	car	880.480	148.435	0.000	0.000	180.000	696.000	987.000	-0.000	Terminate	
Unknown	17.98369	01/16/0117 09:48.31	00001079	15.179	Inter614t1-0	0.478	1	2	0.000	11.111	-2.3	0.171	0.000	D	F	1821.0	359.863	0.198	0.018	1504.071	646.411	0.025	-	-0.121	0.313	-	-	-	-	-	-	-	PAVEMENT_GENERAL	Urban	F	1011101000011101	0000000000010000	-	car	874.555	147.510	0.000	0.000	180.000	696.000	987.000	-0.000	Terminate	
Unknown	18.98371	01/16/0117 09:48.32	00001139	15.484	Inter614t1-0	0.412	1	2	0.000	11.111	1.8	0.173	0.000	D	F	1836.4	359.753	0.197	-0.008	1504.005	661.744	0.025	-	0.065	0.297	-	-	-	-	-	-	-	PAVEMENT_GENERAL	Urban	F	1011101000011101	0000000000010000	-	car	868.654	148.636	0.000	0.000	180.000	696.000	987.000	-0.000	Terminate	
Unknown	19.98373	01/16/0117 09:48.33	00001199	15.772	Inter614t1-0	0.395	1	2	0.000	11.111	-0.9	0.169	0.000	D	F	1846.9	0.041	0.197	0.004	1503.988	677.374	0.025	-	-0.020	0.276	-	-	-	-	-	-	-	PAVEMENT_GENERAL	Urban	F	1011101000011101	0000000000010000	-	car	862.923	153.185	0.000	0.000	180.000	696.000	987.000	-0.000	Terminate	
Unknown	20.98375	01/16/0117 09:48.34	00001259	16.042	Inter614t1-0	0.376	1	2	0.000	11.111	-0.1	0.171	0.000	D	F	1869.2	359.824	0.196	0.004	1503.969	693.282	0.025	-	-0.026	0.264	-	-	-	-	-	-	-	PAVEMENT_GENERAL	Urban	F	1011101000011101	0000000000010000	-	car	857.340	155.118	0.000	0.000	180.000	696.000	987.000	-0.000	Terminate	
Unknown	21.98377	01/16/0117 09:48.35	00001319	16.293	Inter614t1-0	0.331	1	2	0.000	11.111	0.2	0.168	0.000	D	F	1882.8	359.883	0.195	-0.003	1503.924	709.452	0.025	-	0.022	0.241	-	-	-	-	-	-	-	PAVEMENT_GENERAL	Urban	F	1011101000011101	0000000000010000	-	car	851.909	159.982	0.000	0.000	180.000	696.000	987.000	-0.000	Terminate	
Unknown	22.98379	01/16/0117 09:48.36	00001379	16.534	Inter614t1-0	0.290	1	2	0.000	11.111	-0.6	0.168	0.000	D	F	1901.9	359.802	0.195	0.004	1503.884	725.866	0.025	-	-0.033	0.237	-	-	-	-	-	-	-	PAVEMENT_GENERAL	Urban	F	1011101000011101	0000000000010000	-	car	846.679	164.740	0.000	0.000	180.000	696.000	987.000	-0.000	Terminate	
Unknown	23.98381	01/16/0117 09:48.37	00001439	16.764	Inter614t1-0	0.216	1	2	0.000	11.111	-0.8	0.171	0.000	D	F	1918.4	359.658	0.195	0.006	1503.809	742.516	0.026	-	-0.050	0.222	-	-	-	-	-	-	-	PAVEMENT_GENERAL	Urban	F	1011101000011101	0000000000010000	-	car	841.636	169.967	0.000	0.000	180.000	696.000	987.000	-0.000	Terminate	
Unknown	24.98383	01/16/0117 09:48.38	00001499	16.984	Inter614t1-0	0.113	1	2	0.000	11.111	4.7	0.168	0.000	D	F	1932.8	359.797	0.194	-0.029	1503.706	759.391	0.026	-	0.206	0.216	-	-	-	-	-	-	-	PAVEMENT_GENERAL	Urban	F	1011101000011101	0000000000010000	-	car	836.804	179.404	0.000	0.000	180.000	696.000	987.000	-0.000	Terminate	
Unknown	25.98385	01/16/0117 09:48.39	00001559	17.199	Inter614t1-0	0.178	1	2	0.000	11.111	0.9	0.173	0.000	D	F	1955.0	0.602	0.194	-0.016	1503.771	776.481	0.026	-	0.108	0.224	-	-	-	-	-	-	-	PAVEMENT_GENERAL	Urban	F	1011101000011101	0000000000010000	-	car	832.394	199.991	0.000	0.000	180.000	696.000	987.000	-0.000	Terminate	
Unknown	26.98387	01/16/0117 09:48.40	00001619	17.439	Inter614t1-0	0.350	1	2	0.000	11.111	-1.0	0.192	0.000	D	F	2007.4	0.487	0.195	0.008	1503.943	793.796	0.025	-	-0.060	0.280	-	-	-	-	-	-	-	PAVEMENT_GENERAL	Urban	F	1011101000011101	0000000000010000	-	car	828.363	211.775	0.000	0.000	180.000	696.000	987.000	-0.000	Terminate	
Unknown	27.98389	01/16/0117 09:48.41	00001679	17.483	Inter612t1-0	0.461	1	2	0.000	11.111	-1.3	0.009	0.000	D	F	1717.7	0.161	0.177	0.016	1504.054	811.344	0.028	-	-0.116	-0.557	-	-	-	-	-	-	-	PAVEMENT_GENERAL	Urban	F	1011101000011101	0000000000010000	-	car	824.566	224.947	0.000	0.000	180.000	696.000	987.000	-0.000	Terminate	
Unknown	28.98391	01/16/0117 09:48.42	00001739	16.945	Inter612t1-0	0.487	1	2	0.000	11.111	0.6	0.041	0.000	D	F	1670.8	0.059	0.190	-0.003	1504.081	828.540	0.028	-	0.019	-0.392	-	-	-	-	-	-	-	PAVEMENT_GENERAL	Urban	F	1011101000011101	0000000000010000	-	car	821.111	253.141	0.000	0.000	180.000	696.000	987.000	-0.000	Terminate	
Unknown	29.98393	01/16/0117 09:48.43	00001799	16.541	Inter612t1-0	0.516	1	2	0.000	11.111	0.3	0.035	0.000	D	F	1630.5	0.143	0.189	-0.003	1504.109	845.284	0.028	-	0.020	-0.392	-	-	-	-	-	-	-	PAVEMENT_GENERAL	Urban	F	1011101000011101	0000000000010000	-	car	818.082	290.451	0.000	0.000	180.000	696.000	987.000	-0.000	Terminate	
Unknown	30.98395	01/16/0117 09:48.44	00001859	16.146	Inter612t1-0	0.558	1	2	0.000	11.111	-0.7	0.042	0.000	D	F	1608.8	0.103	0.190	0.005	1504.151	861.624	0.028	-	-0.041	-0.368	-	-	-	-	-	-	-	PAVEMENT_GENERAL	Urban	F	1011101000011101	0000000000010000	-	car	815.459	333.303	0.000	0.000	180.000	696.000	987.000	-0.000	Terminate	
Unknown	31.98397	01/16/0117 09:48.45	00001919	15.927	Inter612t1-0	0.575	1	2	0.000	11.111	-0.3	0.090	0.000	D	F	1723.9	0.019	0.193	0.003	1504.168	877.638	0.027	-	-0.018	-0.116	-	-	-	-	-	-	-	PAVEMENT_GENERAL	Urban	F	1111101000011101	0000000000010000	-	car	813.174	381.669	0.000	0.000	180.000	696.000	987.000	-0.000	Terminate	
Unknown	32.98399	01/16/0117 09:48.46	00001979	15.871	Inter612t1-0	0.572	1	2	0.000	11.111	0.3	0.111	0.000	D	F	1743.2	0.000	0.194	0.001	1504.165	893.530	0.027	-	-0.005	-0.012	-	-	-	-	-	-	-	PAVEMENT_GENERAL	Urban	F	1011101000011101	0000000000010000	-	car	811.193	441.544	0.000	0.000	180.000	696.000	987.000	-0.000	Terminate	
Unknown	33.98401	01/16/0117 09:48.47	00002039	15.905	Inter612t1-0	0.571	1	2	0.000	11.111	0.4	0.129	0.000	D	F	1785.0	0.080	0.194	-0.007	1504.164	909.410	0.026	-	0.041	0.075	-	-	-	-	-	-	-	PAVEMENT_GENERAL	Urban	F	1011101000011101	0000000000010000	-	car	809.521	540.469	0.000	0.000	180.000	696.000	987.000	-0.000	Terminate	
Unknown	34.98403	01/16/0117 09:48.48	00002099	15.982	Inter612t1-0	0.585	1	2	0.000	11.111	0.1	0.131	0.000	D	F	1790.1	0.018	0.194	0.001	1504.178	925.354	0.026	-	-0.005	0.079	-	-	-	-	-	-	-	PAVEMENT_GENERAL	Urban	F	1011101000011101	0000000000010000	-	car	808.167	667.538	0.000	0.000	180.000	696.000	987.000	-0.000	Terminate	
Unknown	35.98405	01/16/0117 09:48.49	00002159	16.070	Inter612t1-0	0.596	1	2	0.000	11.111	-0.7	0.146	0.000	D	F	1826.5	0.045	0.195	0.002	1504.189	941.378	0.026	-	-0.017	0.125	-	-	-	-	-	-	-	PAVEMENT_GENERAL	Urban	F	1011101000011101	0000000000010000	-	car	807.116	903.849	0.000	0.000	180.000	696.000	987.000	-0.000	Terminate	
Unknown	36.98407	01/16/0117 09:48.50	00002219	16.350	Inter612t1-0	0.581	1	2	0.000	11.111	-0.8	0.182	0.000	D	F	1908.1	359.824	0.196	0.006	1504.174	957.577	0.025	-	-0.055	0.299	-	-	-	-	-	-	-	PAVEMENT_GENERAL	Urban	F	1011101000011101	0000000000010000	-	car	806.350	1250.203	0.000	0.000	180.000	696.000	987.000	-0.000	Terminate	
Unknown	37.98409	01/16/0117 09:48.51	00002279	16.605	Inter612t1-0	0.513	1	2	0.000	11.111	-1.0	0.153	0.000	D	F	1880.9	359.700	0.194	0.007	1504.106	974.065	0.026	-	-0.044	0.185	-	-	-	-	-	-	-	PAVEMENT_GENERAL	Urban	F	1011101000011101	0000000000010000	-	car	805.850	2285.577	0.000	0.000	180.000	696.000	987.000	-0.000	Terminate	
Unknown	38.98411	01/16/0117 09:48.52	00002339	16.699	Inter612t1-0	0.402	1	2	0.000	11.111	-0.0	0.132	0.000	D	F	1846.9	359.543	0.193	-0.000	1503.995	990.725	0.026	-	-0.015	0.073	-	-	-	-	-	-	-	PAVEMENT_GENERAL	Urban	F	1011101000011101	0000000000010000	-	car	805.645	14308.806	0.000	0.000	180.000	696.000	987.000	-0.000	Terminate	
Unknown	39.98413	01/16/0117 09:48.53	00002399	16.760	Inter613t1-0	0.275	1	2	0.000	11.111	1.2	0.132	0.000	D	F	1845.6	359.619	0.193	-0.007	1503.868	1007.456	0.026	-	0.053	0.054	-	-	-	-	-	-	-	PAVEMENT_GENERAL	Urban	F	1011101000011101	0000000000010000	-	car	805.768	-2575.929	0.000	0.000	180.000	696.000	987.000	-0.000	Terminate	
Unknown	40.98415	01/16/0117 09:48.54	00002459	16.829	Inter613t1-0	0.195	1	2	0.000	11.111	1.2	0.138	0.000	D	F	1859.6	359.856	0.193	-0.009	1503.788	1024.248	0.026	-	0.070	0.078	-	-	-	-	-	-	-	PAVEMENT_GENERAL	Urban	F	1111101000011101	0000000000010000	-	car	806.287	-1100.185	0.000	0.000	180.000	696.000	987.000	-0.000	Terminate	
Unknown	41.98417	01/16/0117 09:48.55	00002519	16.906	Inter613t1-0	0.189	1	2	0.000	11.111	1.6	0.138	0.000	D	F	1865.9	0.162	0.193	-0.012	1503.783	1041.115	0.026	-	0.098	0.074	-	-	-	-	-	-	-	PAVEMENT_GENERAL	Urban	F	1011101000011101	0000000000010000	-	car	807.234	-685.474	0.000	0.000	180.000	696.000	987.000	-0.000	Terminate	
Unknown	42.98419	01/16/0117 09:48.56	00002579	16.983	Inter613t1-0	0.272	1	2	0.000	11.111	-0.1	0.143	0.000	D	F	1880.6	0.374	0.193	0.000	1503.866	1058.059	0.026	-	0.010	0.086	-	-	-	-	-	-	-	PAVEMENT_GENERAL	Urban	F	1011101000011101	0000000000010000	-	car	808.625	-505.823	0.000	0.000	180.000	696.000	987.000	-0.000	Terminate	
Unknown	43.98421	01/16/0117 09:48.57	00002639	17.099	Inter613t1-0	0.371	1	2	0.000	11.111	-1.6	0.148	0.000	D	F	1904.1	0.231	0.193	0.013	1503.964	1075.097	0.026	-	-0.088	0.122	-	-	-	-	-	-	-	PAVEMENT_GENERAL	Urban	F	1011101000011101	0000000000010000	-	car	810.393	-421.641	0.000	0.000	180.000	696.000	987.000	-0.000	Terminate	
Unknown	44.98423	01/16/0117 09:48.58	00002699	17.212	Inter613t1-0	0.419	1	2	0.000	11.111	1.1	0.148	0.000	D	F	1907.0	0.185	0.193	-0.009	1504.013	1092.253	0.026	-	0.055	0.114	-	-	-	-	-	-	-	PAVEMENT_GENERAL	Urban	F	1011101000011101	0000000000010000	-	car	812.479	-356.597	0.000	0.000	180.000	696.000	987.000	-0.000	Terminate	
Unknown	45.98425	01/16/0117 09:48.59	00002759	17.323	Inter613t1-0	0.499	1	2	0.000	11.111	-1.1	0.150	0.000	D	F	1915.4	0.312	0.193	0.005	1504.093	1109.521	0.026	-	-0.029	0.109	-	-	-	-	-	-	-	PAVEMENT_GENERAL	Urban	F	1011101000011101	0000000000010000	-	car	814.968	-302.954	0.000	0.000	180.000	696.000	987.000	-0.000	Terminate	
Unknown	46.98427	01/16/0117 09:49.00	00002819	17.436	Inter613t1-0	0.569	1	2	0.000	11.111	-2.2	0.153	0.000	D	F	1929.4	0.114	0.193	0.014	1504.162	1126.900	0.026	-	-0.096	0.118	-	-	-	-	-	-	-	PAVEMENT_GENERAL	Urban	F	1011101000011101	0000000000010000	-	car	817.822	-271.878	0.000	0.000	180.000	696.000	987.000	-0.000	Terminate	
Unknown	47.98429	01/16/0117 09:49.01	00002879	17.546	Inter613t1-0	0.551	1	2	0.000	11.111	-0.3	0.152	0.000	D	F	1936.6	359.828	0.193	0.002	1504.144	1144.391	0.026	-	-0.020	0.106	-	-	-	-	-	-	-	PAVEMENT_GENERAL	Urban	F	1011101000011101	0000000000010000	-	car	820.969	-248.602	0.000	0.000	180.000	696.000	987.000	-0.000	Terminate	
Unknown	48.98431	01/16/0117 09:49.02	00002939	17.644	Inter613t1-0	0.489	1	2	0.000	11.111	-0.5	0.148	0.000	D	F	1942.2	359.741	0.192	0.005	1504.083	1161.987	0.026	-	-0.035	0.096	-	-	-	-	-	-	-	PAVEMENT_GENERAL	Urban	F	1011101000011101	0000000000010000	-	car	824.453	-225.495	0.000	0.000	180.000	696.000	987.000	-0.000	Terminate	
Unknown	49.98433	01/16/0117 09:49.03	00002999	17.739	Inter613t1-0	0.406	1	2	0.000	11.111	0.4	0.148	0.000	D	F	1952.0	359.741	0.192	-0.003	1503.999	1179.679	0.026	-	0.022	0.094	-	-	-	-	-	-	-	PAVEMENT_GENERAL	Urban	F	1011101000011101	0000000000010000	-	car	828.295	-205.196	0.000	0.000	180.000	696.000	987.000	-0.000	Terminate	
Unknown	50.98435	01/16/0117 09:49.04	00003059	17.508	Inter613t1-0	0.337	1	2	0.000	11.111	0.3	0.000	0.000	D	F	1274.1	359.827	0.184	-0.003	1503.930	1197.375	0.029	-	0.029	-0.541	-	-	-	-	-	-	-	PAVEMENT_GENERAL	Urban	F	1011101000011101	0000000000010000	-	car	832.511	-190.912	0.000	0.000	180.000	696.000	987.000	-0.000	Terminate	
Unknown	51.98437	01/16/0117 09:49.05	00003119	16.947	Inter615t9-0	0.191	1	2	0.000	11.111	-9.4	0.000	0.000	D	F	1157.1	358.644	0.185	0.084	1503.785	1214.603	0.029	-	-0.651	-0.560	-	-	-	22	3.403	57.670	3.403	PAVEMENT_GENERAL	Urban	F	1011101000011101	0000000000010000	-	car	836.878	-198.848	0.000	0.000	180.000	696.000	987.000	-0.000	Terminate	
Unknown	52.98439	01/16/0117 09:49.06	00003179	15.729	Inter615t31-0	0.120	1	1	354.663	11.111	-21.6	0.000	0.185	D	F	1047.8	354.301	0.125	0.197	1502.939	1231.115	0.033	L	-1.480	-2.738	-	-	-	22	2.764	43.473	2.764	PAVEMENT_GENERAL	Urban	F	1011101000111101	0000000000010000	-	car	840.696	-276.810	0.000	0.000	180.000	696.000	987.000	-0.000	Terminate	
Unknown	53.98441	01/16/0117 09:49.07	00003239	12.078	Inter615t31-0	-0.273	1	1	356.040	11.111	34.2	0.000	0.322	D	F	1045.1	352.992	0.115	-0.147	1501.260	1245.082	0.038	-	0.894	-4.420	-	-	-	22	2.440	29.470	2.440	PAVEMENT_GENERAL	Urban	F	1011101000011101	0000000000010000	-	car	843.247	-373.911	0.000	0.000	180.000	696.000	987.000	-0.000	Terminate	
Unknown	54.98443	01/16/0117 09:49.08	00003299	7.857	Inter615t31-0	-0.053	1	1	356.903	11.111	19.4	0.000	0.299	D	F	740.0	0.284	0.130	-0.044	1500.688	1254.982	0.037	-	0.497	-4.059	-	-	-	22	2.490	19.560	2.490	PAVEMENT_GENERAL	Urban	F	1011101000011101	0000000000010000	-	car	845.778	-335.714	0.000	0.000	180.000	696.000	987.000	-0.000	Terminate	
Unknown	55.98445	01/16/0117 09:49.09	00003359	3.722	Inter615t31-0	0.343	1	1	356.903	11.111	-10.9	0.000	0.304	D	F	477.5	0.699	0.142	0.008	1500.772	1260.767	0.038	-	-0.055	-4.096	-	-	-	22	3.705	13.788	3.705	PAVEMENT_GENERAL	Urban	F	1011101000011101	0000000000010000	-	car	847.703	-682.833	0.000	0.000	180.000	696.000	987.000	-0.000	Terminate	
Unknown	56.98447	01/16/0117 09:49.10	00003419	0.210	Inter615t31-0	0.449	1	1	356.903	11.111	-7.6	0.000	0.284	D	F	477.5	0.370	0.211	-0.001	1500.780	1262.577	0.036	-	0.008	-1.920	-	-	-	22	57.035	11.981	57.035	PAVEMENT_GENERAL	Urban	F	1011101000011101	0000000000010000	-	car	848.295	-12234.770	0.000	0.000	180.000	696.000	987.000	-0.000	Terminate	
Unknown	57.98449	01/16/0117 09:49.11	00003479	-0.001	Inter615t31-0	0.450	1	1	356.903	11.111	-3.3	0.000	0.269	D	F	477.5	0.368	0.232	0.000	1500.780	1262.596	0.031	L	0.000	0.002	-	-	-	22	-	11.962	-	PAVEMENT_GENERAL	Urban	F	1011101000111101	0000000000010000	-	car	848.302	2573202.750	0.000	0.000	180.000	696.000	987.000	-0.000	Terminate	
Unknown	58.98451	01/16/0117 09:49.12	00003539	-0.000	Inter615t31-0	0.450	1	1	356.903	11.111	-3.6	0.000	0.260	D	F	477.5	0.368	0.215	0.000	1500.780	1262.595	0.029	L	-0.000	0.000	-	-	-	22	-	11.963	-	PAVEMENT_GENERAL	Urban	F	1011101000111101	0000000000010000	-	car	848.301	7228588.000	0.000	0.000	180.000	696.000	987.000	-0.000	Terminate	
Unknown	59.98453	01/16/0117 09:49.13	00003599	-0.000	Inter615t31-0	0.450	1	1	356.903	11.111	-3.6	0.000	0.257	D	F	477.5	0.367	0.211	0.000	1500.780	1262.595	0.028	L	-0.000	0.000	-	-	-	22	-	11.963	-	PAVEMENT_GENERAL	Urban	F	1011101000111101	0000000000010000	-	car	848.301	20231802.000	0.000	0.000	180.000	696.000	987.000	-0.000	Terminate	
Unknown	60.98455	01/16/0117 09:49.14	00003659	-0.000	Inter615t31-0	0.450	1	1	356.903	11.111	-3.5	0.000	0.257	D	F	477.5	0.367	0.209	0.000	1500.780	1262.595	0.028	L	-0.000	0.000	-	-	-	22	-	12.539	-	PAVEMENT_GENERAL	Urban	F	1011101000111101	0000000000010000	-	car	848.301	56141176.000	0.000	0.000	180.000	696.000	987.000	-0.000	Terminate	
Unknown	61.98457	01/16/0117 09:49.15	00003719	0.001	Inter615t31-0	0.450	1	1	356.903	11.111	-2.8	0.000	0.000	D	F	477.5	0.367	0.209	0.000	1500.780	1262.595	0.028	L	-0.000	0.004	-	-	-	22	-	15.056	-	PAVEMENT_GENERAL	Urban	F	1011101000111101	0000000000010000	-	car	848.301	-4179998.500	0.000	0.000	180.000	696.000	987.000	-0.000	Terminate	
Unknown	62.98459	01/16/0117 09:49.16	00003779	0.316	Inter615t31-0	0.452	1	1	356.903	11.111	-1.5	0.113	0.000	D	F	1228.0	0.365	0.236	-0.001	1500.780	1262.631	0.015	L	-0.002	2.342	-	-	-	22	62.024	19.584	-	PAVEMENT_GENERAL	Urban	F	1011101000111101	0000000000010000	-	car	848.313	-8140.638	0.000	0.000	180.000	696.000	987.000	-0.000	Terminate	
Unknown	63.98461	01/16/0117 09:49.17	00003839	3.337	Inter615t31-0	0.557	1	1	356.903	11.111	-1.4	0.208	0.000	D	F	1684.8	0.307	0.246	0.001	1500.789	1264.417	0.012	L	-0.006	3.372	-	-	-	22	7.290	24.324	-	PAVEMENT_GENERAL	Urban	F	1011101000111101	0000000000010000	-	car	848.902	-768.742	0.000	0.000	180.000	696.000	987.000	-0.000	Terminate	
Unknown	64.98463	01/16/0117 09:49.18	00003899	6.141	Inter615t11-0	0.743	LT1	2	0.000	11.111	-1.7	0.213	0.000	D	F	2042.5	0.153	0.218	0.002	1500.806	1269.260	0.015	L	-0.021	2.211	-	-	-	22	4.552	27.958	-	PAVEMENT_GENERAL	Urban	F	1011101000111101	0000000000010000	-	car	850.508	-415.283	0.000	0.000	180.000	696.000	987.000	-0.000	Terminate	
Unknown	65.98465	01/16/0117 09:49.19	00003959	7.141	Inter615t11-0	0.733	LT1	2	0.000	11.111	-6.0	0.079	0.000	D	F	1355.3	359.720	0.200	0.013	1500.795	1276.099	0.025	L	-0.101	0.161	-	-	-	22	4.346	31.034	-	PAVEMENT_GENERAL	Urban	F	1011101000111101	0000000000010000	-	car	852.786	-358.104	0.000	0.000	180.000	696.000	987.000	-0.000	Terminate	
Unknown	66.98467	01/16/0117 09:49.20	00004019	7.282	Inter615t65-0	0.659	1	1	353.340	11.111	-61.5	0.004	0.000	D	F	1093.3	357.548	0.187	0.172	1500.638	1283.373	0.027	L	-1.232	-0.415	-	-	-	22	4.917	35.806	-	PAVEMENT_GENERAL	Urban	F	1011101000111101	0000000000010000	-	car	855.125	-384.798	0.000	0.000	180.000	696.000	987.000	-0.000	Terminate	
Unknown	67.98470	01/16/0117 09:49.21	00004079	6.757	Inter615t65-0	1.115	1	1	336.034	11.111	-142.4	0.037	0.000	D	F	1149.8	342.774	0.185	0.310	1499.283	1290.222	0.029	L	-2.300	-0.365	-	-	-	22	6.266	42.340	-	PAVEMENT_GENERAL	Urban	F	1011101000111101	0000000000010000	-	car	856.248	-2103.308	0.000	0.000	180.000	696.000	987.000	-0.000	Terminate	
Unknown	68.98471	01/16/0117 09:49.22	00004139	7.189	Inter615t65-0	1.139	1	1	322.246	11.111	-124.7	0.131	0.000	D	F	1531.9	324.079	0.196	0.259	1495.860	1296.178	0.024	L	-2.114	0.665	-	-	-	22	7.091	50.979	-	PAVEMENT_GENERAL	Urban	F	1011101000111101	0000000000010000	-	car	855.176	466.070	0.000	0.000	180.000	696.000	987.000	-0.000	Terminate	
Unknown	69.98473	01/16/0117 09:49.23	00004199	7.889	Inter615t65-0	0.808	1	1	304.518	11.111	-130.3	0.129	0.000	D	F	1568.5	305.678	0.190	0.349	1490.292	1301.250	0.024	L	-2.678	0.507	-	-	-	22	7.520	59.328	-	PAVEMENT_GENERAL	Urban	F	1011101000111101	0000000000010000	-	car	851.838	199.667	0.000	0.000	180.000	696.000	987.000	-0.000	Terminate	
Unknown	70.98476	01/16/0117 09:49.24	00004259	8.485	Inter615t65-0	0.959	1	1	273.852	11.111	-120.6	0.141	0.000	D	F	1647.5	285.137	0.186	0.359	1482.794	1304.427	0.025	L	-2.811	0.568	-	-	-	22	8.193	69.512	-	PAVEMENT_GENERAL	Urban	F	1011101000111101	0000000000010000	-	car	846.053	125.038	0.000	0.000	180.000	696.000	987.000	-0.000	Terminate	
Unknown	71.98477	01/16/0117 09:49.25	00004319	9.211	Inter615t3-3	1.645	1	2	270.000	11.111	-22.9	0.194	0.000	D	F	1834.5	270.030	0.205	0.053	1474.021	1305.176	0.023	L	-0.670	0.973	-	-	-	22	8.972	82.640	-	PAVEMENT_GENERAL	Urban	F	1011101000111101	0000000000010000	-	car	838.208	98.339	0.000	0.000	180.000	696.000	987.000	-0.000	Terminate	
Unknown	72.98479	01/16/0117 09:49.26	00004379	10.379	Inter615t19-0	1.579	1	1	270.071	11.111	11.4	0.236	0.000	D	F	2008.2	270.668	0.211	-0.050	1464.240	1305.113	0.021	-	0.408	1.205	-	-	-	22	8.938	92.768	-	PAVEMENT_GENERAL	Urban	F	1011101000011101	0000000000010000	-	car	829.138	86.888	0.000	0.000	180.000	696.000	987.000	-0.000	Terminate	
Unknown	73.98481	01/16/0117 09:49.27	00004439	11.541	Inter615t19-0	1.731	1	1	270.105	11.111	-16.0	0.266	0.000	D	F	2126.9	270.194	0.210	0.072	1453.276	1305.277	0.021	-	-0.539	1.148	-	-	-	22	8.831	101.924	-	PAVEMENT_GENERAL	Urban	F	1011101000011101	0000000000010000	-	car	819.082	77.093	0.000	0.000	180.000	696.000	987.000	-0.000	Terminate	
Unknown	74.98483	01/16/0117 09:49.28	00004499	12.790	Inter615t19-0	1.489	1	1	270.084	11.111	6.2	0.344	0.000	D	F	2342.1	268.436	0.211	-0.024	1441.134	1305.057	0.020	-	0.127	1.385	-	-	-	22	8.593	109.900	-	PAVEMENT_GENERAL	Urban	F	1011101000011101	0000000000010000	-	car	807.816	67.909	0.000	0.000	180.000	696.000	987.000	-0.000	Terminate	
Unknown	75.98486	01/16/0117 09:49.29	00004559	14.154	Inter615t19-0	1.307	1	1	270.061	11.111	6.0	0.374	0.000	D	F	2518.7	270.109	0.210	-0.040	1427.662	1304.895	0.020	-	0.302	1.369	-	-	-	22	8.235	116.550	-	PAVEMENT_GENERAL	Urban	F	1111101000011101	0000000000010000	-	car	795.379	61.322	0.000	0.000	180.000	696.000	987.000	-0.000	Terminate	
Unknown	76.98487	01/16/0117 09:49.30	00004619	15.494	Inter615t1-2	1.331	1	2	270.000	11.111	-7.6	0.354	0.000	D	F	2688.5	269.700	0.207	0.058	1412.833	1304.931	0.020	-	-0.389	1.313	-	-	-	22	7.864	121.842	-	PAVEMENT_GENERAL	Urban	F	1011101000011101	0000000000010000	-	car	781.816	55.074	0.000	0.000	180.000	696.000	987.000	-0.000	Terminate	
Unknown	77.98489	01/16/0117 09:49.31	00004679	16.792	Inter616t1-2	1.137	1	2	270.000	11.111	1.5	0.353	0.000	D	F	2878.9	269.315	0.205	-0.015	1396.689	1304.744	0.021	-	0.099	1.278	-	-	-	22	7.485	125.683	-	PAVEMENT_GENERAL	Urban	F	1011101000011101	0000000000010000	-	car	767.008	49.889	0.000	0.000	180.000	696.000	987.000	-0.000	Terminate	
Unknown	78.98492	01/16/0117 09:49.32	00004739	17.851	Inter616t1-2	0.972	1	2	270.000	11.111	1.1	0.108	0.000	D	F	2151.3	269.642	0.166	-0.010	1379.291	1304.579	0.023	-	0.085	0.064	-	-	-	22	7.148	127.599	-	PAVEMENT_GENERAL	Urban	F	1011101000011101	0000000000010000	-	car	751.128	46.267	0.000	0.000	180.000	696.000	987.000	-0.000	Terminate	
Unknown	79.98493	01/16/0117 09:49.33	00004799	17.522	Inter616t1-2	0.881	1	2	270.000	11.111	0.7	0.041	0.000	D	F	1731.9	269.771	0.187	-0.007	1361.577	1304.487	0.028	-	0.038	-0.407	-	-	-	22	7.325	128.346	-	PAVEMENT_GENERAL	Urban	F	1011101000011101	0000000000010000	-	car	735.063	46.392	0.000	0.000	180.000	696.000	987.000	-0.000	Terminate	
Unknown	80.98495	01/16/0117 09:49.34	00004859	17.127	Inter616t1-2	0.832	1	2	270.000	11.111	0.6	0.046	0.000	D	F	1690.7	269.940	0.189	-0.006	1344.258	1304.439	0.028	-	0.043	-0.365	-	-	-	22	7.517	128.739	-	PAVEMENT_GENERAL	Urban	F	1011101000011101	0000000000010000	-	car	719.448	46.748	0.000	0.000	180.000	696.000	987.000	-0.000	Terminate	
Unknown	81.98497	01/16/0117 09:49.35	00004919	16.785	Inter616t1-2	0.809	1	2	270.000	11.111	-2.5	0.056	0.000	D	F	1705.7	269.806	0.189	0.018	1327.306	1304.416	0.028	-	-0.121	-0.320	-	-	-	22	7.676	128.843	6416.898	PAVEMENT_GENERAL	Urban	F	1011101000011101	0000000000010000	-	car	704.252	46.881	0.000	0.000	180.000	696.000	987.000	-0.000	Terminate	
Unknown	82.98499	01/16/0117 09:49.36	00004979	16.572	Inter616t1-2	0.706	1	2	270.000	11.111	-0.6	0.085	0.000	D	F	1766.3	269.470	0.191	0.009	1310.642	1304.312	0.027	-	-0.068	-0.161	-	-	-	22	7.764	128.658	352.559	PAVEMENT_GENERAL	Urban	F	1011101000011101	0000000000010000	-	car	689.357	46.594	0.000	0.000	180.000	696.000	987.000	-0.000	Terminate	
Unknown	83.98502	01/16/0117 09:49.37	00005039	16.479	Inter616t1-2	0.580	1	2	270.000	11.111	-0.1	0.116	0.000	D	F	1801.4	269.729	0.193	-0.005	1294.128	1304.187	0.027	-	0.046	-0.031	-	-	-	22	7.774	128.105	165.835	PAVEMENT_GENERAL	Urban	F	1011101000011101	0000000000010000	-	car	674.667	46.225	0.000	0.000	180.000	696.000	987.000	-0.000	Terminate	
Unknown	84.98503	01/16/0117 09:49.38	00005099	16.513	Inter616t1-2	0.496	1	2	270.000	11.111	2.0	0.136	0.000	D	F	1833.5	269.693	0.193	-0.007	1277.641	1304.103	0.026	-	0.048	0.076	-	-	-	22	7.696	127.080	97.288	PAVEMENT_GENERAL	Urban	F	1011101000011101	0000000000010000	-	car	660.106	45.397	0.000	0.000	180.000	696.000	987.000	-0.000	Terminate	
Unknown	85.98505	01/16/0117 09:49.39	00005159	16.611	Inter616t1-2	0.496	1	2	270.000	11.111	2.0	0.146	0.000	D	F	1859.6	270.437	0.194	-0.023	1261.083	1304.103	0.026	-	0.186	0.111	-	-	-	22	7.561	125.586	74.076	PAVEMENT_GENERAL	Urban	F	1011101000011101	0000000000010000	-	car	645.616	44.762	0.000	0.000	180.000	696.000	987.000	-0.000	Terminate	
Unknown	86.98507	01/16/0117 09:49.40	00005219	16.724	Inter616t1-2	0.613	1	2	270.000	11.111	-1.9	0.136	0.000	D	F	1855.7	270.239	0.193	0.015	1244.415	1304.220	0.026	-	-0.115	0.094	-	-	-	22	7.398	123.713	60.104	PAVEMENT_GENERAL	Urban	F	1011101000011101	0000000000010000	-	car	631.192	43.707	0.000	0.000	180.000	696.000	987.000	-0.000	Terminate	
Unknown	87.98509	01/16/0117 09:49.41	00005279	16.784	Inter616t1-2	0.645	1	2	270.000	11.111	-0.3	0.138	0.000	D	F	1858.6	270.018	0.193	0.004	1227.661	1304.252	0.026	-	-0.022	0.075	-	-	-	22	7.241	121.528	52.230	PAVEMENT_GENERAL	Urban	F	1011101000011101	0000000000010000	-	car	616.763	42.801	0.000	0.000	180.000	696.000	987.000	-0.000	Terminate	
Unknown	88.98512	01/16/0117 09:49.42	00005339	16.877	Inter616t1-2	0.650	1	2	270.000	11.111	-0.3	0.141	0.000	D	F	1870.9	270.016	0.193	0.002	1210.832	1304.256	0.026	-	-0.009	0.094	-	-	-	22	7.055	119.076	46.034	PAVEMENT_GENERAL	Urban	F	1011101000011101	0000000000010000	-	car	602.375	41.932	0.000	0.000	180.000	696.000	987.000	-0.000	Terminate	
Unknown	89.98513	01/16/0117 09:49.43	00005399	16.908	Inter617t1-2	0.624	1	2	270.000	11.111	-0.6	0.129	0.000	D	F	1856.7	269.729	0.192	0.012	1193.933	1304.231	0.026	-	-0.080	0.028	-	-	-	22	6.884	116.392	41.796	PAVEMENT_GENERAL	Urban	F	1011101000011101	0000000000010000	-	car	588.041	41.113	0.000	0.000	180.000	696.000	987.000	-0.000	Terminate	
Unknown	90.98515	01/16/0117 09:49.44	00005459	16.962	Inter617t1-2	0.563	1	2	270.000	11.111	2.5	0.138	0.000	D	F	1870.8	269.996	0.193	-0.020	1177.000	1304.170	0.026	-	0.147	0.071	-	-	-	22	6.694	113.540	38.859	PAVEMENT_GENERAL	Urban	F	1011101000011101	0000000000010000	-	car	573.799	40.518	0.000	0.000	180.000	696.000	987.000	-0.000	Terminate	
Unknown	91.98518	01/16/0117 09:49.45	00005519	16.960	Inter617t1-2	0.587	1	2	270.000	11.111	-0.4	0.102	0.000	D	F	1828.5	270.083	0.190	0.003	1160.025	1304.194	0.027	-	-0.024	-0.090	-	-	-	22	6.517	110.533	36.308	PAVEMENT_GENERAL	Urban	F	1011101000011101	0000000000010000	-	car	559.718	40.016	0.000	0.000	180.000	696.000	987.000	-0.000	Terminate	
Unknown	92.98519	01/16/0117 09:49.46	00005579	16.876	Inter617t1-2	0.597	1	2	270.000	11.111	-0.7	0.104	0.000	D	F	1819.0	269.911	0.191	0.008	1143.108	1304.204	0.027	-	-0.066	-0.085	-	-	-	22	6.372	107.528	40.935	PAVEMENT_GENERAL	Urban	F	1011101000011101	0000000000010000	-	car	545.841	39.615	0.000	0.000	180.000	696.000	987.000	-0.000	Terminate	
Unknown	93.98521	01/16/0117 09:49.47	00005639	16.792	Inter617t1-2	0.564	1	2	270.000	11.111	0.6	0.106	0.000	D	F	1815.1	269.906	0.192	-0.004	1126.276	1304.171	0.027	-	0.032	-0.076	-	-	-	22	6.308	105.928	195.063	PAVEMENT_GENERAL	Urban	F	1011101000011101	0000000000010000	-	car	532.182	39.325	0.000	0.000	180.000	696.000	987.000	-0.000	Terminate	
Unknown	94.98523	01/16/0117 09:49.48	00005699	16.724	Inter617t1-2	0.548	1	2	270.000	11.111	-0.8	0.113	0.000	D	F	1820.3	269.965	0.192	0.004	1109.520	1304.155	0.027	-	-0.024	-0.042	-	-	-	-	-	-	-	PAVEMENT_GENERAL	Urban	F	1011101000011101	0000000000010000	-	car	518.780	39.076	0.000	0.000	180.000	696.000	987.000	-0.000	Terminate	
Unknown	95.98525	01/16/0117 09:49.49	00005759	16.414	Inter617t1-2	0.516	1	2	270.000	11.111	2.5	0.000	0.000	D	F	1611.7	269.860	0.186	-0.016	1092.884	1304.123	0.029	-	0.085	-0.599	-	-	-	-	-	-	-	PAVEMENT_GENERAL	Urban	F	1011101000011101	0000000000010000	-	car	505.660	39.356	0.000	0.000	180.000	696.000	987.000	-0.000	Terminate	
Unknown	96.98528	01/16/0117 09:49.50	00005819	15.655	Inter617t1-2	0.542	1	2	270.000	11.111	-6.0	0.000	0.122	D	F	1513.1	270.110	0.145	0.028	1076.781	1304.149	0.030	-	-0.202	-1.853	-	-	-	-	-	-	-	PAVEMENT_GENERAL	Urban	F	1011101000011101	0000000000010000	-	car	493.198	41.065	0.000	0.000	180.000	696.000	987.000	-0.000	Terminate	
Unknown	97.98529	01/16/0117 09:49.51	00005879	12.557	Inter617t1-2	0.499	1	2	270.000	11.111	0.9	0.000	0.281	D	F	1186.3	269.871	0.133	-0.010	1062.534	1304.106	0.036	-	0.080	-3.877	-	-	-	-	-	-	-	PAVEMENT_GENERAL	Urban	F	1011101000011101	0000000000010000	-	car	482.308	50.690	0.000	0.000	180.000	696.000	987.000	-0.000	Terminate	
Unknown	98.98531	01/16/0117 09:49.52	00005939	8.816	Inter617t1-2	0.469	1	2	270.000	11.111	-0.7	0.000	0.242	D	F	838.0	269.742	0.147	0.005	1051.895	1304.076	0.035	-	-0.028	-3.488	-	-	-	-	-	-	-	PAVEMENT_GENERAL	Urban	F	1011101000011101	0000000000010000	-	car	474.294	71.769	0.000	0.000	180.000	696.000	987.000	-0.000	Terminate	
Unknown	99.98534	01/16/0117 09:49.53	00005999	5.816	Inter617t1-2	0.446	1	2	270.000	11.111	0.4	0.000	0.069	D	F	567.6	269.907	0.186	0.001	1044.693	1304.053	0.033	-	0.001	-1.645	-	-	-	-	-	-	-	PAVEMENT_GENERAL	Urban	F	1011101000011101	0000000000010000	-	car	468.926	108.810	0.000	0.000	180.000	696.000	987.000	-0.000	Terminate	
Unknown	100.98535	01/16/0117 09:49.54	00006059	5.316	Inter617t1-2	0.443	1	2	270.000	11.111	0.5	0.000	0.000	D	F	522.5	270.001	0.199	0.000	1039.146	1304.050	0.028	-	-0.001	-0.460	-	-	-	-	-	-	-	PAVEMENT_GENERAL	Urban	F	1011101000011101	0000000000010000	-	car	464.834	119.047	0.000	0.000	180.000	696.000	987.000	-0.000	Terminate	
Unknown	101.98537	01/16/0117 09:49.55	00006119	4.857	Inter617t1-2	0.446	1	2	270.000	11.111	0.3	0.000	0.000	D	F	477.5	270.035	0.199	-0.001	1034.059	1304.053	0.028	-	0.003	-0.459	-	-	-	-	-	-	-	PAVEMENT_GENERAL	Urban	F	1011101000011101	0000000000010000	-	car	461.113	130.233	0.000	0.000	180.000	696.000	987.000	-0.000	Terminate	
Unknown	102.98539	01/16/0117 09:49.56	00006179	5.156	Inter617t1-2	0.450	1	2	270.000	11.111	0.7	0.139	0.000	D	F	1426.7	270.057	0.213	-0.001	1029.234	1304.057	0.021	-	0.010	1.090	-	-	-	-	-	-	-	PAVEMENT_GENERAL	Urban	F	1011101000011101	0000000000010000	-	car	457.608	122.631	0.000	0.000	180.000	696.000	987.000	-0.000	Terminate	
Unknown	103.98541	01/16/0117 09:49.57	00006239	6.813	Inter617t1-2	0.467	1	2	270.000	11.111	1.3	0.249	0.000	D	F	1780.5	270.208	0.219	-0.003	1023.316	1304.073	0.018	-	0.020	1.801	-	-	-	-	-	-	-	PAVEMENT_GENERAL	Urban	F	1011101000011101	0000000000010000	-	car	453.350	92.977	0.000	0.000	180.000	696.000	987.000	-0.000	Terminate	
Unknown	104.98544	01/16/0117 09:49.58	00006299	8.547	Inter617t1-2	0.507	1	2	270.000	11.111	0.6	0.279	0.000	D	F	1910.3	270.334	0.216	-0.002	1015.622	1304.114	0.019	-	0.014	1.631	-	-	-	-	-	-	-	PAVEMENT_GENERAL	Urban	F	1011101000011101	0000000000010000	-	car	447.884	74.248	0.000	0.000	180.000	696.000	987.000	-0.000	Terminate	
Unknown	105.98545	01/16/0117 09:49.59	00006359	10.091	Inter617t1-2	0.567	1	2	270.000	11.111	-1.2	0.296	0.000	D	F	2050.7	270.367	0.214	0.004	1006.292	1304.173	0.019	-	-0.028	1.479	-	-	-	-	-	-	-	PAVEMENT_GENERAL	Urban	F	1011101000011101	0000000000010000	-	car	441.352	62.958	0.000	0.000	180.000	696.000	987.000	-0.000	Terminate	
Unknown	106.98547	01/16/0117 09:50.00	00006419	11.535	Inter618t1-0	-0.093	1	2	270.000	24.444	-1.5	0.328	0.000	D	F	2210.1	270.000	0.212	0.009	995.479	1304.207	0.019	-	-0.067	1.453	-	-	-	32	3.018	34.812	-	FREEWAY_SMOOTH	Urban	F	1011101000011101	0000000000010000	-	car	433.884	54.791	0.000	0.000	180.000	696.000	987.000	-0.000	Terminate	
Unknown	107.98550	01/16/0117 09:50.01	00006479	12.972	Inter618t1-0	-0.118	1	2	269.854	24.444	-0.5	0.386	0.000	D	F	2372.6	269.706	0.270	-0.163	983.220	1304.172	0.031	-	-0.044	1.425	-	-	-	32	2.800	36.322	-	FREEWAY_SMOOTH	Urban	F	1011101000011101	0000000000010000	-	car	425.535	48.595	0.000	0.000	180.000	696.000	987.000	-0.000	Terminate	
Unknown	108.98551	01/16/0117 09:50.02	00006539	14.360	Inter618t1-0	-0.134	1	2	269.338	24.444	-3.1	0.358	0.000	D	F	2539.8	269.373	0.270	-0.336	969.549	1304.069	0.045	-	-0.164	1.357	-	-	-	32	2.668	38.307	-	FREEWAY_SMOOTH	Urban	F	1111101000011101	0000000000010000	-	car	416.403	43.838	0.000	0.000	180.000	696.000	987.000	-0.000	Terminate	
Unknown	109.98553	01/16/0117 09:50.03	00006599	15.673	Inter618t1-0	-0.131	1	2	268.342	24.444	-5.3	0.303	0.000	D	F	2690.1	268.365	0.260	-0.524	954.524	1303.781	0.061	-	-0.333	1.182	-	-	-	32	2.613	40.951	-	FREEWAY_SMOOTH	Urban	F	1011101000011101	0000000000010000	-	car	406.523	39.654	0.000	0.000	180.000	696.000	987.000	-0.000	Terminate	
Unknown	110.98555	01/16/0117 09:50.04	00006659	16.307	Inter618t1-0	-0.113	1	2	266.787	24.444	-6.9	0.127	0.000	D	F	1842.8	266.956	0.248	-0.734	938.437	1303.134	0.082	-	-0.451	0.101	-	-	-	32	2.680	43.704	-	FREEWAY_SMOOTH	Urban	F	1011101000011101	0000000000010000	-	car	396.033	37.373	0.000	0.000	180.000	696.000	987.000	-0.000	Terminate	
Unknown	111.98557	01/16/0117 09:50.05	00006719	16.475	Inter618t1-0	-0.060	1	2	264.683	24.444	-9.6	0.127	0.000	D	F	1815.8	264.817	0.251	-0.936	922.096	1301.991	0.099	-	-0.687	0.121	-	-	-	32	2.840	46.792	-	FREEWAY_SMOOTH	Urban	F	1011101000011101	0000000000010000	-	car	385.376	35.760	0.000	0.000	180.000	696.000	987.000	-0.000	Terminate	
Unknown	112.98560	01/16/0117 09:50.06	00006779	16.162	Inter618t1-0	-0.022	1	2	262.071	24.444	-10.9	0.037	0.000	D	F	1593.5	262.211	0.247	-1.144	905.839	1300.169	0.119	-	-0.807	-0.386	-	-	-	32	3.114	50.326	-	FREEWAY_SMOOTH	Urban	F	1011101000011101	0000000000010000	-	car	374.611	34.903	0.000	0.000	180.000	696.000	987.000	-0.000	Terminate	
Unknown	113.98561	01/16/0117 09:50.07	00006839	15.966	Inter618t1-0	0.007	1	2	259.020	24.444	-10.0	0.102	0.000	D	F	1737.3	259.314	0.253	-1.377	890.019	1297.590	0.135	-	-0.720	-0.058	-	-	-	32	3.388	54.098	-	FREEWAY_SMOOTH	Urban	F	1011101000011101	0000000000010000	-	car	363.850	33.619	0.000	0.000	180.000	696.000	987.000	-0.000	Terminate	
Unknown	114.98563	01/16/0117 09:50.08	00006899	16.015	Inter618t1-0	0.196	1	2	255.493	24.444	-13.9	0.162	0.000	D	F	1854.8	256.701	0.294	-1.583	874.404	1294.280	0.155	-	-0.853	0.226	-	-	-	32	3.637	58.245	-	FREEWAY_SMOOTH	Urban	F	1011101000011101	0000000000010000	-	car	352.956	32.054	0.000	0.000	180.000	696.000	987.000	-0.000	Terminate	
Unknown	115.98566	01/16/0117 09:50.09	00006959	16.330	Inter618t1-0	0.538	1	2	251.552	24.444	-20.1	0.194	0.000	D	F	1931.9	252.714	0.226	-1.590	858.811	1290.047	0.170	-	-1.287	0.367	-	-	-	32	3.809	62.200	-	FREEWAY_SMOOTH	Urban	F	1011101000011101	0000000000010000	-	car	341.653	29.317	0.000	0.000	180.000	696.000	987.000	-0.000	Terminate	
Unknown	116.98567	01/16/0117 09:50.10	00007019	16.651	Inter618t1-0	0.726	1	2	247.531	24.444	-24.3	0.187	0.000	D	F	1936.0	247.431	0.183	-1.537	843.288	1284.479	0.176	-	-1.685	0.304	-	-	-	32	3.958	65.897	-	FREEWAY_SMOOTH	Urban	F	1111101000011101	0000000000010000	-	car	329.586	26.263	0.000	0.000	180.000	696.000	987.000	-0.000	Terminate	
Unknown	117.98569	01/16/0117 09:50.11	00007079	16.944	Inter618t1-0	0.483	1	2	243.436	24.444	-16.9	0.187	0.000	D	F	1961.1	241.932	0.141	-1.581	828.103	1277.312	0.169	-	-1.375	0.305	-	-	-	32	4.089	69.279	-	FREEWAY_SMOOTH	Urban	F	1011101000011101	0000000000010000	-	car	316.596	23.540	0.000	0.000	180.000	696.000	987.000	-0.000	Terminate	
Unknown	118.98571	01/16/0117 09:50.12	00007139	17.245	Inter618t1-0	0.167	1	2	239.265	24.444	-10.3	0.189	0.000	D	F	1985.5	239.054	0.184	-1.665	813.245	1268.859	0.159	-	-0.715	0.302	-	-	-	32	4.181	72.101	-	FREEWAY_SMOOTH	Urban	F	1011101000011101	0000000000010000	-	car	302.913	21.842	0.000	0.000	180.000	696.000	987.000	-0.000	Terminate	
Unknown	119.98573	01/16/0117 09:50.13	00007199	17.536	Inter618t1-0	0.230	1	2	235.012	24.444	-21.9	0.189	0.000	D	F	2009.0	235.192	0.192	-1.551	798.591	1259.495	0.161	-	-1.543	0.289	-	-	-	32	4.270	74.872	-	FREEWAY_SMOOTH	Urban	F	1011101000011101	0000000000010000	-	car	288.807	19.998	0.000	0.000	180.000	696.000	987.000	-0.000	Terminate	
Unknown	120.98576	01/16/0117 09:50.14	00007259	17.809	Inter618t1-0	0.184	1	2	230.689	24.444	-15.5	0.189	0.000	D	F	2026.8	230.225	0.172	-1.590	784.522	1248.806	0.160	-	-1.306	0.280	-	-	-	32	4.343	77.338	-	FREEWAY_SMOOTH	Urban	F	1011101000011101	0000000000010000	-	car	274.007	18.054	0.000	0.000	180.000	696.000	987.000	-0.000	Terminate	
Unknown	121.98577	01/16/0117 09:50.15	00007319	18.082	Inter618t1-0	0.139	1	2	226.305	24.444	-18.6	0.196	0.000	D	F	2051.2	226.328	0.183	-1.576	771.097	1236.901	0.159	-	-1.351	0.278	-	-	-	32	4.401	79.579	-	FREEWAY_SMOOTH	Urban	F	1011101000011101	0000000000010000	-	car	258.582	16.447	0.000	0.000	180.000	696.000	987.000	-0.000	Terminate	
Unknown	122.98579	01/16/0117 09:50.16	00007379	18.348	Inter618t1-0	0.110	1	2	221.873	24.444	-21.2	0.190	0.000	D	F	2067.5	221.191	0.161	-1.526	758.431	1223.815	0.158	-	-1.754	0.264	-	-	-	32	4.447	81.596	-	FREEWAY_SMOOTH	Urban	F	1011101000011101	0000000000010000	-	car	242.547	14.761	0.000	0.000	180.000	696.000	987.000	-0.000	Terminate	
Unknown	123.98581	01/16/0117 09:50.17	00007439	18.605	Inter618t1-0	-0.101	1	2	217.328	24.444	-14.6	0.194	0.000	D	F	2088.2	216.716	0.166	-1.599	746.803	1209.463	0.152	-	-1.233	0.263	-	-	-	32	4.457	82.921	-	FREEWAY_SMOOTH	Urban	F	1011101000011101	0000000000010000	-	car	225.830	13.272	0.000	0.000	180.000	696.000	987.000	-0.000	Terminate	
Unknown	124.98583	01/16/0117 09:50.18	00007499	18.859	Inter618t1-0	-0.170	1	2	212.756	24.444	-18.0	0.194	0.000	D	F	2108.2	212.651	0.184	-1.567	736.083	1194.103	0.150	-	-1.444	0.258	-	-	-	32	4.477	84.430	-	FREEWAY_SMOOTH	Urban	F	1011101000011101	0000000000010000	-	car	208.587	11.904	0.000	0.000	180.000	696.000	987.000	-0.000	Terminate	
Unknown	125.98586	01/16/0117 09:50.19	00007559	19.104	Inter618t1-0	-0.141	1	2	208.117	24.444	-17.1	0.194	0.000	D	F	2125.0	208.083	0.181	-1.562	726.424	1177.766	0.151	-	-1.493	0.248	-	-	-	32	4.485	85.674	-	FREEWAY_SMOOTH	Urban	F	1011101000011101	0000000000010000	-	car	190.818	10.565	0.000	0.000	180.000	696.000	987.000	-0.000	Terminate	
Unknown	126.98587	01/16/0117 09:50.20	00007619	19.342	Inter618t1-0	-0.049	1	2	203.409	24.444	-17.5	0.196	0.000	D	F	2143.4	203.599	0.188	-1.558	717.967	1160.507	0.153	-	-1.525	0.241	-	-	-	-	-	-	-	FREEWAY_SMOOTH	Urban	F	1011101000011101	0000000000010000	-	car	172.532	9.297	0.000	0.000	180.000	696.000	987.000	-0.000	Terminate	
Unknown	127.98589	01/16/0117 09:50.21	00007679	19.535	Inter618t1-0	0.084	1	2	198.650	24.444	-20.3	0.183	0.000	D	F	2147.0	198.650	0.182	-1.522	710.844	1142.416	0.158	-	-1.791	0.181	-	-	-	-	-	-	-	FREEWAY_SMOOTH	Urban	F	1011101000011101	0000000000010000	-	car	153.763	8.085	0.000	0.000	180.000	696.000	987.000	-0.000	Terminate	
Unknown	128.98592	01/16/0117 09:50.22	00007739	19.707	Inter618t1-0	0.076	1	2	193.891	24.444	-18.0	0.185	0.000	D	F	2163.6	193.269	0.098	-1.435	705.336	1123.589	0.151	-	-1.752	0.179	-	-	-	-	-	-	-	FREEWAY_SMOOTH	Urban	F	1011101000011101	0000000000010000	-	car	134.548	6.919	0.000	0.000	180.000	696.000	987.000	-0.000	Terminate	
Unknown	129.98593	01/16/0117 09:50.23	00007799	19.691	Inter618t1-0	-0.072	1	2	189.710	24.444	-16.0	0.000	0.000	D	F	1513.0	188.963	0.083	-1.196	701.438	1104.213	0.130	-	-1.480	-0.588	-	-	-	-	-	-	-	FREEWAY_SMOOTH	Urban	F	1011101000011101	0000000000010000	-	car	114.979	5.875	0.000	0.000	180.000	696.000	987.000	-0.000	Terminate	
Unknown	130.98595	01/16/0117 09:50.24	00007859	19.083	Inter618t1-0	-0.334	1	2	186.296	24.444	-4.4	0.000	0.000	D	F	1304.3	185.355	0.106	-1.026	699.003	1084.982	0.106	-	-0.760	-0.595	-	-	-	-	-	-	-	FREEWAY_SMOOTH	Urban	F	1011101000011101	0000000000010000	-	car	95.668	5.023	0.000	0.000	180.000	696.000	987.000	-0.000	Terminate	
Unknown	131.98598	01/16/0117 09:50.25	00007919	18.139	Inter618t1-0	-0.308	1	2	183.701	24.444	-7.0	0.000	0.131	D	F	1215.0	184.924	0.095	-0.830	697.349	1066.321	0.091	-	-0.239	-2.184	-	-	-	-	-	-	-	FREEWAY_SMOOTH	Urban	F	1011101000011101	0000000000010000	-	car	76.973	4.254	0.000	0.000	180.000	696.000	987.000	-0.000	Terminate	
Unknown	132.98599	01/16/0117 09:50.26	00007979	15.668	Inter618t1-0	-0.033	1	2	181.942	24.444	-11.5	0.000	0.194	D	F	1041.2	181.857	0.079	-0.507	696.243	1049.372	0.080	-	-0.910	-2.941	-	-	-	-	-	-	-	FREEWAY_SMOOTH	Urban	F	1011101000011101	0000000000010000	-	car	60.013	3.832	0.000	0.000	180.000	696.000	987.000	-0.000	Terminate	
Unknown	133.98601	01/16/0117 09:50.27	00008039	11.710	Inter618t1-0	-0.139	1	2	180.926	24.444	1.5	0.000	0.313	D	F	1041.0	180.159	0.068	-0.425	696.007	1035.597	0.069	-	-0.094	-4.245	-	-	-	-	-	-	-	FREEWAY_SMOOTH	Urban	F	1011101000011101	0000000000010000	-	car	46.238	3.948	0.000	0.000	180.000	696.000	987.000	-0.000	Terminate	
Unknown	134.98604	01/16/0117 09:50.28	00008099	7.761	Inter618t1-0	-0.230	1	2	180.431	24.444	-1.7	0.000	0.230	D	F	738.6	180.101	0.093	-0.291	695.985	1025.955	0.056	-	-0.031	-3.380	-	-	-	-	-	-	-	FREEWAY_SMOOTH	Urban	F	1011101000011101	0000000000010000	-	car	36.607	4.863	0.233	2.000	180.000	696.000	986.988	-0.000	Terminate	
Unknown	135.98605	01/16/0117 09:50.29	00008159	5.546	Inter618t1-0	-0.283	1	2	180.207	24.444	-4.3	0.000	0.000	D	F	545.8	179.727	0.169	-0.198	696.001	1019.533	0.044	-	-0.051	-0.463	-	-	-	-	-	-	-	FREEWAY_SMOOTH	Urban	F	1011101000011101	0000000000010000	-	car	31.400	9.469	2.233	2.000	176.868	696.063	985.773	-0.000	Terminate	
Unknown	136.98607	01/16/0117 09:50.30	00008219	5.076	Inter618t1-0	-0.331	1	2	180.080	24.444	1.9	0.000	0.000	D	F	498.8	179.726	0.144	-0.132	696.036	1014.222	0.038	-	0.014	-0.468	-	-	-	-	-	-	-	FREEWAY_SMOOTH	Urban	F	1011101000011101	0000000000010000	-	car	29.302	34.609	4.233	2.000	177.036	696.242	982.561	-0.000	Terminate	
Unknown	137.98610	01/16/0117 09:50.31	00008279	5.695	Inter618t1-0	-0.350	1	2	180.011	24.444	1.3	0.208	0.000	D	F	1664.2	179.861	0.172	-0.060	696.051	1009.041	0.024	-	0.022	1.598	-	-	-	-	-	-	-	FREEWAY_SMOOTH	Urban	F	1011101000011101	0000000000010000	-	car	29.337	-54.509	6.233	2.000	179.066	696.377	977.346	-0.000	Terminate	
Unknown	138.98611	01/16/0117 09:50.32	00008339	7.337	Inter618t1-0	-0.368	1	2	180.000	24.444	-1.8	0.228	0.000	D	F	1799.4	179.778	0.225	0.007	696.068	1002.525	0.018	-	-0.034	1.670	-	-	-	-	-	-	-	FREEWAY_SMOOTH	Urban	F	1011101000011101	0000000000010000	-	car	30.038	-33.505	8.233	2.000	180.000	696.400	970.129	-0.000	Terminate	
Unknown	139.98613	01/16/0117 09:50.33	00008399	8.739	Inter686t1-0	0.272	1	1	180.000	11.111	0.7	0.205	0.000	D	F	1837.0	179.509	0.213	-0.003	696.125	994.443	0.021	-	0.013	1.240	-	-	-	car	3.297	28.811	-	PAVEMENT_GENERAL	Urban	F	1011101000011101	0000000000010000	-	car	31.172	-20.857	10.233	2.000	180.007	696.397	960.912	-0.000	Terminate	
Unknown	140.98616	01/16/0117 09:50.34	00008459	9.912	Inter686t1-0	0.217	1	1	180.000	11.111	1.0	0.206	0.000	D	F	1921.8	179.803	0.210	-0.005	696.179	985.104	0.021	-	0.038	1.092	-	-	-	car	3.096	30.690	-	PAVEMENT_GENERAL	Urban	F	1011101000011101	0000000000010000	-	car	33.050	-14.239	12.234	2.000	180.003	696.397	949.695	-0.000	Terminate	
Unknown	141.98618	01/16/0117 09:50.35	00008519	10.901	Inter686t1-0	0.173	1	1	180.000	11.111	-0.8	0.208	0.000	D	F	1999.3	179.668	0.210	0.004	696.223	974.686	0.022	-	-0.032	0.972	-	-	-	car	3.072	33.489	-	PAVEMENT_GENERAL	Urban	F	1011101000011101	0000000000010000	-	car	35.849	-10.758	14.234	2.000	180.003	696.397	936.478	-0.000	Terminate	
Unknown	142.98619	01/16/0117 09:50.36	00008579	11.876	Inter686t1-0	0.093	1	1	180.000	11.111	-0.8	0.222	0.000	D	F	2133.8	179.532	0.209	0.004	696.303	963.300	0.022	-	-0.031	0.988	-	-	-	car	3.142	37.320	-	PAVEMENT_GENERAL	Urban	F	1011101000011101	0000000000010000	-	car	39.679	-9.105	16.234	2.000	180.002	696.397	921.261	-0.000	Terminate	
Unknown	143.98621	01/16/0117 09:50.37	00008639	12.866	Inter686t1-0	-0.012	1	1	180.000	11.111	0.9	0.235	0.000	D	F	2257.8	179.570	0.207	-0.007	696.408	950.930	0.022	-	0.045	0.981	-	-	-	car	3.277	42.166	-	PAVEMENT_GENERAL	Urban	F	1011101000011101	0000000000010000	-	car	44.526	-8.372	18.184	1.000	180.002	696.397	904.044	-0.000	Terminate	
Unknown	144.98624	01/16/0117 09:50.38	00008699	13.585	Inter686t1-0	-0.099	1	1	180.000	11.111	2.7	0.199	0.000	D	F	1842.8	179.721	0.202	-0.014	696.495	937.670	0.024	-	0.099	0.606	-	-	-	car	3.503	47.582	-	PAVEMENT_GENERAL	Urban	F	1011101000011101	0000000000010000	-	car	49.941	-8.973	19.150	0.500	180.002	696.397	885.370	-0.000	Terminate	
Unknown	145.98625	01/16/0117 09:50.39	00008759	14.142	Inter686t1-0	-0.108	1	1	180.000	11.111	0.0	0.194	0.000	D	F	1835.6	180.128	0.201	-0.003	696.504	923.799	0.024	-	0.026	0.520	-	-	-	car	3.755	53.107	-	PAVEMENT_GENERAL	Urban	F	1011101000011101	0000000000010000	-	car	55.466	-10.070	19.650	0.500	180.002	696.397	865.973	-0.000	Terminate	
Unknown	146.98627	01/16/0117 09:50.40	00008819	14.626	Inter686t1-0	-0.100	1	1	180.000	11.111	-3.4	0.189	0.000	D	F	1840.7	179.817	0.200	0.022	696.496	909.408	0.024	-	-0.159	0.452	-	-	-	car	4.007	58.612	-	PAVEMENT_GENERAL	Urban	F	1011101000011101	0000000000010000	-	car	60.971	-11.106	20.116	0.000	180.002	696.397	846.077	-0.000	Terminate	
Unknown	147.98630	01/16/0117 09:50.41	00008879	15.054	Inter686t1-0	-0.200	1	1	180.000	11.111	3.1	0.189	0.000	D	F	1855.9	179.547	0.199	-0.014	696.596	894.566	0.025	-	0.087	0.413	-	-	-	car	4.244	63.885	-	PAVEMENT_GENERAL	Urban	F	1011101000011101	0000000000010000	-	car	66.245	-13.086	20.116	0.000	180.002	696.397	825.961	-0.000	Terminate	
Unknown	148.98631	01/16/0117 09:50.42	00008939	15.261	Inter686t1-0	-0.228	1	1	180.000	11.111	4.2	0.071	0.000	D	F	1623.0	180.298	0.188	-0.029	696.624	879.349	0.027	-	0.221	-0.187	-	-	-	car	4.507	68.785	-	PAVEMENT_GENERAL	Urban	F	1011101000011101	0000000000010000	-	car	71.145	-14.656	20.116	0.000	179.972	696.399	805.846	-0.000	Terminate	
Unknown	149.98633	01/16/0117 09:50.43	00008999	15.201	Inter686t1-0	-0.084	1	1	180.000	11.111	-3.1	0.125	0.000	D	F	1723.2	180.566	0.196	0.017	696.480	864.149	0.026	-	-0.114	0.070	-	-	-	car	4.848	73.700	-	PAVEMENT_GENERAL	Urban	F	1011101000011101	0000000000010000	-	car	76.060	-15.474	20.116	0.000	179.995	696.403	785.730	-0.000	Terminate	
Unknown	150.98636	01/16/0117 09:50.44	00009059	15.383	Inter686t1-0	-0.011	1	1	180.000	11.111	2.2	0.183	0.000	D	F	1857.8	180.055	0.199	-0.010	696.408	848.880	0.025	-	0.032	0.351	-	-	-	car	5.106	78.547	-	PAVEMENT_GENERAL	Urban	F	1011101000011101	0000000000010000	-	car	80.907	-17.094	20.116	0.000	179.996	696.403	765.614	-0.000	Terminate	
Unknown	151.98637	01/16/0117 09:50.45	00009119	15.852	Inter686t1-0	0.087	1	1	180.000	11.111	-0.1	0.213	0.000	D	F	1958.7	180.711	0.199	-0.014	696.309	833.278	0.024	-	0.091	0.511	-	-	-	car	5.240	83.061	-	PAVEMENT_GENERAL	Urban	F	1011101000011101	0000000000010000	-	car	85.421	-20.024	20.116	0.000	179.996	696.403	745.498	-0.000	Terminate	
Unknown	152.98639	01/16/0117 09:50.46	00009179	16.358	Inter686t1-0	0.235	1	1	180.000	11.111	-3.5	0.199	0.000	D	F	1956.9	180.166	0.197	0.027	696.161	817.170	0.024	-	-0.218	0.457	-	-	-	car	5.323	87.069	-	PAVEMENT_GENERAL	Urban	F	1011101000011101	0000000000010000	-	car	89.429	-23.794	20.116	0.000	179.996	696.403	725.382	-0.000	Terminate	
Unknown	153.98642	01/16/0117 09:50.47	00009239	16.687	Inter686t1-0	0.216	1	1	180.000	11.111	1.0	0.198	0.000	D	F	1958.2	179.861	0.196	-0.007	696.180	800.647	0.025	-	0.045	0.354	-	-	-	car	5.292	88.301	-	PAVEMENT_GENERAL	Urban	F	1011101000011101	0000000000010000	-	car	93.022	-27.130	20.116	0.000	179.996	696.403	705.266	-0.000	Terminate	
Unknown	154.98643	01/16/0117 09:50.48	00009299	17.054	Inter682t1-1	0.202	1	1	180.000	11.111	-0.9	0.198	0.000	D	F	1993.9	179.920	0.196	0.008	696.202	783.777	0.025	-	-0.045	0.371	-	-	-	car	5.506	93.909	-	PAVEMENT_GENERAL	Urban	F	1011101000011101	0000000000010000	-	car	96.268	-31.443	20.116	0.000	179.996	696.403	685.150	-0.000	Terminate	
Unknown	155.98645	01/16/0117 09:50.49	00009359	17.404	Inter682t1-1	0.177	1	1	180.000	11.111	0.8	0.180	0.000	D	F	1989.8	179.977	0.193	-0.007	696.227	766.542	0.025	-	0.050	0.284	-	-	-	car	5.561	96.789	-	PAVEMENT_GENERAL	Urban	F	1011101000011101	0000000000010000	-	car	99.149	-36.557	20.116	0.000	179.996	696.403	665.034	-0.000	Terminate	
Unknown	156.98647	01/16/0117 09:50.50	00009419	17.161	Inter682t1-1	0.196	1	1	180.000	11.111	-0.0	0.000	0.000	D	F	1684.7	180.195	0.184	-0.006	696.208	749.160	0.029	-	0.045	-0.612	-	-	-	car	5.799	99.523	-	PAVEMENT_GENERAL	Urban	F	1011101000011101	0000000000010000	-	car	101.882	-34.476	20.116	0.000	179.996	696.403	644.918	-0.000	Terminate	
Unknown	157.98650	01/16/0117 09:50.51	00009479	16.553	Inter682t1-1	0.162	1	1	180.000	11.111	-1.4	0.000	0.000	D	F	1625.5	179.169	0.186	0.032	696.242	732.303	0.029	-	-0.305	-0.602	-	-	-	car	6.209	102.783	-	PAVEMENT_GENERAL	Urban	F	1011101000011101	0000000000010000	-	car	105.142	-29.498	20.116	0.000	179.996	696.403	624.802	-0.000	Terminate	
