"Name"	"Project"	"Time"	ZoneName	Time	SystemTime	Frame	Velocity	LaneName	LanePos	LaneIndex	LaneCount	LaneHeading	SpeedLimit	Steer	Accel	Brake	Gear	Horn	SubjectEngineRPM	SubjectHeading	SubjectPitch	SubjectRoll	SubjectX	SubjectY	SubjectZ	Signal	LatAccel	LongAccel	Collision	CollisionAngle	CollisionVelocity	VehAhead	HeadwayTime	HeadwayDist	TTC	TerrainType	CultureType	Slip	DigitalInputs	DigitalInputs2	ActiveTrigger	EntityName	DistToEntity	TimeToEntity	EntityVelocity	EntityAccel	EntityHeading	EntityX	EntityY	EntityZ	GrabData	
"Student6Mode3"	"Tanvi_6"	"Nov 29, 2016 09:17:37 AM"	Unknown	0.98335	10/29/0116 09:17.41	00000059	0.002	Inter625t13-0	-0.088	1	2	0.000	11.111	2.0	0.000	0.000	P	F	0.0	0.001	0.153	-0.001	1503.500	523.206	0.019	-	-0.000	0.000	-	-	-	-	-	-	-	PAVEMENT_GENERAL	Urban	F	1011101000010101	0000000000000000	-	car	928.855	774737.375	0.000	0.000	180.000	696.000	987.000	-0.000	Terminate	
"Student6Mode3"	"Tanvi_6"	"Nov 29, 2016 09:17:37 AM"	Unknown	1.98337	10/29/0116 09:17.42	00000119	0.000	Inter625t13-0	-0.088	1	2	0.000	11.111	2.0	0.000	0.000	P	F	0.0	0.000	0.197	-0.000	1503.500	523.208	0.026	-	0.000	-0.001	-	-	-	-	-	-	-	PAVEMENT_GENERAL	Urban	F	1011101000010101	0000000000000000	-	car	928.855	4213805.500	0.000	0.000	180.000	696.000	987.000	-0.000	Terminate	
"Student6Mode3"	"Tanvi_6"	"Nov 29, 2016 09:17:37 AM"	Unknown	2.98339	10/29/0116 09:17.43	00000179	-0.000	Inter625t13-0	-0.088	1	2	0.000	11.111	2.0	0.000	0.000	P	F	0.0	0.000	0.207	-0.000	1503.500	523.208	0.028	-	0.000	-0.000	-	-	-	-	-	-	-	PAVEMENT_GENERAL	Urban	F	1011101000010101	0000000000000000	-	car	928.854	-115983112.000	0.000	0.000	180.000	696.000	987.000	-0.000	Terminate	
"Student6Mode3"	"Tanvi_6"	"Nov 29, 2016 09:17:37 AM"	Unknown	3.98341	10/29/0116 09:17.44	00000239	-0.000	Inter625t13-0	-0.088	1	2	0.000	11.111	2.0	0.000	0.000	P	F	0.0	0.000	0.210	-0.000	1503.500	523.208	0.028	-	0.000	-0.000	-	-	-	-	-	-	-	PAVEMENT_GENERAL	Urban	F	1011101000010101	0000000000000000	-	car	928.854	-22305264.000	0.000	0.000	180.000	696.000	987.000	-0.000	Terminate	
"Student6Mode3"	"Tanvi_6"	"Nov 29, 2016 09:17:37 AM"	Unknown	4.98343	10/29/0116 09:17.45	00000299	-0.000	Inter625t13-0	-0.088	1	2	0.000	11.111	2.0	0.000	0.000	P	F	0.0	0.000	0.210	-0.000	1503.500	523.208	0.028	-	0.000	0.000	-	-	-	-	-	-	-	PAVEMENT_GENERAL	Urban	F	1011101000010101	0000000000000000	-	car	928.854	-24858244.000	0.000	0.000	180.000	696.000	987.000	-0.000	Terminate	
"Student6Mode3"	"Tanvi_6"	"Nov 29, 2016 09:17:37 AM"	Unknown	5.98345	10/29/0116 09:17.46	00000359	-0.000	Inter625t13-0	-0.088	1	2	0.000	11.111	2.0	0.000	0.000	P	F	0.0	0.000	0.209	-0.000	1503.500	523.208	0.028	-	0.000	0.000	-	-	-	-	-	-	-	PAVEMENT_GENERAL	Urban	F	1011101000010101	0000000000000000	-	car	928.855	-34382940.000	0.000	0.000	180.000	696.000	987.000	-0.000	Terminate	
"Student6Mode3"	"Tanvi_6"	"Nov 29, 2016 09:17:37 AM"	Unknown	6.98347	10/29/0116 09:17.47	00000419	-0.000	Inter625t13-0	-0.088	1	2	0.000	11.111	2.0	0.000	0.000	P	F	0.0	0.000	0.209	-0.000	1503.500	523.208	0.028	-	0.000	0.000	-	-	-	-	-	-	-	PAVEMENT_GENERAL	Urban	F	1011101000010101	0000000000000000	-	car	928.855	-48193992.000	0.000	0.000	180.000	696.000	987.000	-0.000	Terminate	
"Student6Mode3"	"Tanvi_6"	"Nov 29, 2016 09:17:37 AM"	Unknown	7.98349	10/29/0116 09:17.48	00000479	-0.000	Inter625t13-0	-0.088	1	2	0.000	11.111	2.0	0.000	0.000	P	F	0.0	0.000	0.209	0.000	1503.500	523.208	0.028	-	0.000	0.000	-	-	-	-	-	-	-	PAVEMENT_GENERAL	Urban	F	1011101000010101	0000000000000000	-	car	928.855	-64938060.000	0.000	0.000	180.000	696.000	987.000	-0.000	Terminate	
"Student6Mode3"	"Tanvi_6"	"Nov 29, 2016 09:17:37 AM"	Unknown	8.98351	10/29/0116 09:17.49	00000539	-0.000	Inter625t13-0	-0.088	1	2	0.000	11.111	2.0	0.000	0.000	P	F	0.0	0.000	0.209	0.000	1503.500	523.208	0.028	-	0.000	0.000	-	-	-	-	-	-	-	PAVEMENT_GENERAL	Urban	F	1011101000010101	0000000000000000	-	car	928.855	-83367880.000	0.000	0.000	180.000	696.000	987.000	-0.000	Terminate	
"Student6Mode3"	"Tanvi_6"	"Nov 29, 2016 09:17:37 AM"	Unknown	9.98353	10/29/0116 09:17.50	00000599	-0.000	Inter625t13-0	-0.088	1	2	0.000	11.111	2.0	0.000	0.000	P	F	0.0	0.000	0.209	0.000	1503.500	523.208	0.028	-	0.000	0.000	-	-	-	-	-	-	-	PAVEMENT_GENERAL	Urban	F	1011101000010101	0000000000000000	-	car	928.855	-102681920.000	0.000	0.000	180.000	696.000	987.000	-0.000	Terminate	
"Student6Mode3"	"Tanvi_6"	"Nov 29, 2016 09:17:37 AM"	Unknown	10.98355	10/29/0116 09:17.51	00000659	-0.000	Inter625t13-0	-0.088	1	2	0.000	11.111	2.0	0.000	0.000	P	F	0.0	0.000	0.209	0.000	1503.500	523.208	0.028	-	0.000	0.000	-	-	-	-	-	-	-	PAVEMENT_GENERAL	Urban	F	1011101000010101	0000000000000000	-	car	928.855	-122579056.000	0.000	0.000	180.000	696.000	987.000	-0.000	Terminate	
"Student6Mode3"	"Tanvi_6"	"Nov 29, 2016 09:17:37 AM"	Unknown	11.98357	10/29/0116 09:17.52	00000719	-0.000	Inter625t13-0	-0.088	1	2	0.000	11.111	2.0	0.000	0.000	P	F	0.0	0.000	0.209	0.000	1503.500	523.207	0.028	-	0.000	0.000	-	-	-	-	-	-	-	PAVEMENT_GENERAL	Urban	F	1011101000010101	0000000000000000	-	car	928.855	-143061008.000	0.000	0.000	180.000	696.000	987.000	-0.000	Terminate	
"Student6Mode3"	"Tanvi_6"	"Nov 29, 2016 09:17:37 AM"	Unknown	12.98359	10/29/0116 09:17.53	00000779	-0.000	Inter625t13-0	-0.088	1	2	0.000	11.111	2.0	0.000	0.000	P	F	0.0	0.000	0.209	0.000	1503.500	523.207	0.028	-	0.000	0.000	-	-	-	-	-	-	-	PAVEMENT_GENERAL	Urban	F	1011101000010101	0000000000000000	-	car	928.855	-164246640.000	0.000	0.000	180.000	696.000	987.000	-0.000	Terminate	
"Student6Mode3"	"Tanvi_6"	"Nov 29, 2016 09:17:37 AM"	Unknown	13.98361	10/29/0116 09:17.54	00000839	-0.000	Inter625t13-0	-0.088	1	2	0.000	11.111	0.7	0.000	0.000	P	F	0.0	0.000	0.209	0.000	1503.500	523.207	0.028	-	-0.000	0.000	-	-	-	-	-	-	-	PAVEMENT_GENERAL	Urban	F	1011101000010101	0000000000000000	-	car	928.855	-186274688.000	0.000	0.000	180.000	696.000	987.000	-0.000	Terminate	
"Student6Mode3"	"Tanvi_6"	"Nov 29, 2016 09:17:37 AM"	Unknown	14.98363	10/29/0116 09:17.55	00000899	-0.000	Inter625t13-0	-0.088	1	2	0.000	11.111	0.8	0.000	0.000	P	F	0.0	0.000	0.209	0.000	1503.500	523.207	0.028	-	0.000	0.000	-	-	-	-	-	-	-	PAVEMENT_GENERAL	Urban	F	1011101000010101	0000000000000000	-	car	928.855	-209283808.000	0.000	0.000	180.000	696.000	987.000	-0.000	Terminate	
"Student6Mode3"	"Tanvi_6"	"Nov 29, 2016 09:17:37 AM"	Unknown	15.98365	10/29/0116 09:17.56	00000959	-0.000	Inter625t13-0	-0.088	1	2	0.000	11.111	0.8	0.000	0.000	P	F	194.4	0.000	0.209	-0.000	1503.500	523.207	0.028	-	0.000	-0.000	-	-	-	-	-	-	-	PAVEMENT_GENERAL	Urban	F	1011101000010111	0000000000000000	-	car	928.855	-289313600.000	0.000	0.000	180.000	696.000	987.000	-0.000	Terminate	
"Student6Mode3"	"Tanvi_6"	"Nov 29, 2016 09:17:37 AM"	Unknown	16.98367	10/29/0116 09:17.57	00001019	-0.000	Inter625t13-0	-0.088	1	2	0.000	11.111	0.8	0.000	0.000	P	F	477.5	0.000	0.209	-0.000	1503.500	523.207	0.028	-	-0.000	0.000	-	-	-	-	-	-	-	PAVEMENT_GENERAL	Urban	F	1011101000010101	0000000000000000	-	car	928.855	-709275968.000	0.000	0.000	180.000	696.000	987.000	-0.000	Terminate	
"Student6Mode3"	"Tanvi_6"	"Nov 29, 2016 09:17:37 AM"	Unknown	17.98369	10/29/0116 09:17.58	00001079	-0.000	Inter625t13-0	-0.088	1	2	0.000	11.111	0.8	0.000	0.000	N	F	477.5	0.000	0.209	-0.000	1503.500	523.207	0.028	-	-0.000	-0.000	-	-	-	-	-	-	-	PAVEMENT_GENERAL	Urban	F	1011101000010101	0000000000000000	-	car	928.855	-253030720.000	0.000	0.000	180.000	696.000	987.000	-0.000	Terminate	
"Student6Mode3"	"Tanvi_6"	"Nov 29, 2016 09:17:37 AM"	Unknown	18.98371	10/29/0116 09:17.59	00001139	0.001	Inter625t13-0	-0.088	1	2	0.000	11.111	0.8	0.000	0.000	D	F	477.5	0.000	0.208	-0.000	1503.500	523.208	0.028	-	0.000	0.006	-	-	-	-	-	-	-	PAVEMENT_GENERAL	Urban	F	1011101000010101	0000000000000000	-	car	928.855	1647837.875	0.000	0.000	180.000	696.000	987.000	-0.000	Terminate	
"Student6Mode3"	"Tanvi_6"	"Nov 29, 2016 09:17:37 AM"	Unknown	19.98373	10/29/0116 09:18.00	00001199	1.132	Inter625t13-0	-0.086	1	2	0.000	11.111	21.3	0.196	0.000	D	F	1446.5	0.075	0.263	-0.011	1503.502	523.411	0.013	-	0.069	3.706	-	-	-	-	-	-	-	PAVEMENT_GENERAL	Urban	F	1011101000010101	0000000000000000	-	car	928.755	1652.023	0.000	0.000	180.000	696.000	987.000	-0.000	Terminate	
"Student6Mode3"	"Tanvi_6"	"Nov 29, 2016 09:17:37 AM"	Unknown	20.98375	10/29/0116 09:18.01	00001259	4.825	Inter625t13-0	-0.048	1	2	0.000	11.111	-4.1	0.296	0.000	D	F	1948.8	0.530	0.225	0.007	1503.540	526.488	0.011	-	-0.051	3.139	-	-	-	-	-	-	-	PAVEMENT_GENERAL	Urban	F	1011101000010101	0000000000000000	-	car	927.260	394.330	0.000	0.000	180.000	696.000	987.000	-0.000	Terminate	
"Student6Mode3"	"Tanvi_6"	"Nov 29, 2016 09:17:37 AM"	Unknown	21.98377	10/29/0116 09:18.02	00001319	7.816	Inter625t49-0	-0.016	1	1	0.005	11.111	-3.9	0.393	0.000	D	F	2554.9	0.196	0.228	0.010	1503.572	532.841	0.013	-	-0.075	2.823	-	-	-	-	-	-	-	PAVEMENT_GENERAL	Urban	F	1011101000010101	0000000000000000	-	car	924.157	242.688	0.000	0.000	180.000	696.000	987.000	-0.000	Terminate	
"Student6Mode3"	"Tanvi_6"	"Nov 29, 2016 09:17:37 AM"	Unknown	22.98379	10/29/0116 09:18.03	00001379	10.547	Inter625t49-0	-0.011	1	1	0.007	11.111	3.3	0.335	0.000	D	F	2546.3	0.224	0.217	-0.016	1503.578	542.034	0.013	-	0.118	2.365	-	-	-	-	-	-	-	PAVEMENT_GENERAL	Urban	F	1011101000010101	0000000000000000	-	car	919.691	181.980	0.000	0.000	180.000	696.000	987.000	-0.000	Terminate	
"Student6Mode3"	"Tanvi_6"	"Nov 29, 2016 09:17:37 AM"	Unknown	23.98381	10/29/0116 09:18.04	00001439	11.561	Inter625t49-0	0.050	1	1	0.007	11.111	-3.5	0.187	0.000	D	F	1745.0	0.238	0.209	0.015	1503.640	553.233	0.024	-	-0.103	0.665	-	-	-	-	-	-	-	PAVEMENT_GENERAL	Urban	F	1011101000010101	0000000000000000	-	car	914.393	168.469	0.000	0.000	180.000	696.000	987.000	-0.000	Terminate	
"Student6Mode3"	"Tanvi_6"	"Nov 29, 2016 09:17:37 AM"	Unknown	24.98383	10/29/0116 09:18.05	00001499	12.406	Inter625t49-0	0.028	1	1	0.005	11.111	0.1	0.242	0.000	D	F	1845.5	359.675	0.206	-0.003	1503.619	565.202	0.022	-	-0.022	0.860	-	-	-	-	-	-	-	PAVEMENT_GENERAL	Urban	F	1011101000010101	0000000000000000	-	car	908.773	156.539	0.000	0.000	180.000	696.000	987.000	-0.000	Terminate	
"Student6Mode3"	"Tanvi_6"	"Nov 29, 2016 09:17:37 AM"	Unknown	25.98385	10/29/0116 09:18.06	00001559	13.234	Inter625t49-0	-0.032	1	1	0.005	11.111	1.9	0.252	0.000	D	F	1884.1	359.859	0.205	-0.010	1503.561	578.025	0.023	-	0.081	0.813	-	-	-	-	-	-	-	PAVEMENT_GENERAL	Urban	F	1011101000010101	0000000000000000	-	car	902.856	150.278	0.000	0.000	180.000	696.000	987.000	-0.000	Terminate	
"Student6Mode3"	"Tanvi_6"	"Nov 29, 2016 09:17:37 AM"	Unknown	26.98387	10/29/0116 09:18.07	00001619	14.027	Inter625t15-0	-0.023	1	2	0.000	11.111	-1.3	0.256	0.000	D	F	1927.5	0.185	0.203	0.006	1503.570	591.659	0.023	-	-0.013	0.771	-	-	-	-	-	-	-	PAVEMENT_GENERAL	Urban	F	1011101000010101	0000000000000000	-	car	896.787	146.372	0.000	0.000	180.000	696.000	987.000	-0.000	Terminate	
"Student6Mode3"	"Tanvi_6"	"Nov 29, 2016 09:17:37 AM"	Unknown	27.98389	10/29/0116 09:18.08	00001679	14.773	Inter614t1-0	-0.011	1	2	0.000	11.111	0.3	0.256	0.000	D	F	1964.7	359.925	0.202	-0.001	1503.583	606.063	0.023	-	-0.015	0.720	-	-	-	-	-	-	-	PAVEMENT_GENERAL	Urban	F	1011101000010101	0000000000000000	-	car	890.559	140.913	0.000	0.000	180.000	696.000	987.000	-0.000	Terminate	
"Student6Mode3"	"Tanvi_6"	"Nov 29, 2016 09:17:37 AM"	Unknown	28.98391	10/29/0116 09:18.09	00001739	15.462	Inter614t1-0	-0.018	1	2	0.000	11.111	1.0	0.254	0.000	D	F	1993.6	0.051	0.201	-0.008	1503.575	621.185	0.023	-	0.054	0.662	-	-	-	-	-	-	-	PAVEMENT_GENERAL	Urban	F	1111101000010101	0000000000000000	-	car	884.206	138.870	0.000	0.000	180.000	696.000	987.000	-0.000	Terminate	
"Student6Mode3"	"Tanvi_6"	"Nov 29, 2016 09:17:37 AM"	Unknown	29.98393	10/29/0116 09:18.10	00001799	16.103	Inter614t1-0	0.011	1	2	0.000	11.111	-1.1	0.256	0.000	D	F	2025.6	0.075	0.199	0.007	1503.604	636.971	0.024	-	-0.057	0.623	-	-	-	-	-	-	-	PAVEMENT_GENERAL	Urban	F	1111101000010101	0000000000000000	-	car	877.836	137.499	0.000	0.000	180.000	696.000	987.000	-0.000	Terminate	
"Student6Mode3"	"Tanvi_6"	"Nov 29, 2016 09:17:37 AM"	Unknown	30.98395	10/29/0116 09:18.11	00001859	16.709	Inter614t1-0	0.010	1	2	0.000	11.111	0.0	0.252	0.000	D	F	2054.4	359.947	0.198	0.001	1503.603	653.380	0.024	-	-0.005	0.583	-	-	-	-	-	-	-	PAVEMENT_GENERAL	Urban	F	1011101000010101	0000000000000000	-	car	871.440	136.297	0.000	0.000	180.000	696.000	987.000	-0.000	Terminate	
"Student6Mode3"	"Tanvi_6"	"Nov 29, 2016 09:17:37 AM"	Unknown	31.98397	10/29/0116 09:18.12	00001919	17.274	Inter614t1-0	-0.008	1	2	0.000	11.111	2.8	0.250	0.000	D	F	2080.2	0.000	0.197	-0.019	1503.585	670.375	0.024	-	0.093	0.543	-	-	-	-	-	-	-	PAVEMENT_GENERAL	Urban	F	1011101000010101	0000000000000000	-	car	865.077	136.907	0.000	0.000	180.000	696.000	987.000	-0.000	Terminate	
"Student6Mode3"	"Tanvi_6"	"Nov 29, 2016 09:17:37 AM"	Unknown	32.98399	10/29/0116 09:18.13	00001979	17.805	Inter614t1-0	0.024	1	2	0.000	11.111	0.3	0.252	0.000	D	F	2109.8	0.140	0.196	-0.001	1503.617	687.916	0.024	-	-0.003	0.519	-	-	-	-	-	-	-	PAVEMENT_GENERAL	Urban	F	1011101000010101	0000000000000000	-	car	858.859	139.825	0.000	0.000	180.000	696.000	987.000	-0.000	Terminate	
"Student6Mode3"	"Tanvi_6"	"Nov 29, 2016 09:17:37 AM"	Unknown	33.98401	10/29/0116 09:18.14	00002039	18.308	Inter614t1-0	0.069	1	2	0.000	11.111	-0.7	0.250	0.000	D	F	2142.5	0.136	0.195	0.003	1503.662	705.975	0.024	-	-0.020	0.490	-	-	-	-	-	-	-	PAVEMENT_GENERAL	Urban	F	1011101000010101	0000000000000000	-	car	852.797	142.717	0.000	0.000	180.000	696.000	987.000	-0.000	Terminate	
"Student6Mode3"	"Tanvi_6"	"Nov 29, 2016 09:17:37 AM"	Unknown	34.98403	10/29/0116 09:18.15	00002099	18.785	Inter614t1-0	0.109	1	2	0.000	11.111	-1.4	0.250	0.000	D	F	2178.0	0.125	0.194	0.008	1503.702	724.523	0.024	L	-0.037	0.469	-	-	-	-	-	-	-	PAVEMENT_GENERAL	Urban	F	1111101000110101	0000000000000000	-	car	846.920	146.859	0.000	0.000	180.000	696.000	987.000	-0.000	Terminate	
"Student6Mode3"	"Tanvi_6"	"Nov 29, 2016 09:17:37 AM"	Unknown	35.98405	10/29/0116 09:18.16	00002159	19.239	Inter614t1-0	0.105	1	2	0.000	11.111	-1.8	0.249	0.000	D	F	2211.6	359.753	0.193	0.019	1503.698	743.537	0.025	R	-0.148	0.446	-	-	-	-	-	-	-	PAVEMENT_GENERAL	Urban	F	1111101001010101	0000000000000000	-	car	841.235	149.373	0.000	0.000	180.000	696.000	987.000	-0.000	Terminate	
"Student6Mode3"	"Tanvi_6"	"Nov 29, 2016 09:17:37 AM"	Unknown	36.98407	10/29/0116 09:18.17	00002219	19.682	Inter614t1-0	-0.031	1	2	0.000	11.111	1.6	0.250	0.000	D	F	2246.3	359.514	0.192	-0.011	1503.562	762.998	0.025	-	0.057	0.435	-	-	-	-	-	-	-	PAVEMENT_GENERAL	Urban	F	1011101000010101	0000000000000000	-	car	835.694	154.150	0.000	0.000	180.000	696.000	987.000	-0.000	Terminate	
"Student6Mode3"	"Tanvi_6"	"Nov 29, 2016 09:17:37 AM"	Unknown	37.98409	10/29/0116 09:18.18	00002279	20.111	Inter614t1-0	-0.136	1	2	0.000	11.111	2.0	0.247	0.000	D	F	2276.3	359.949	0.191	-0.019	1503.457	782.896	0.025	-	0.148	0.418	-	-	-	-	-	-	-	PAVEMENT_GENERAL	Urban	F	1011101000010101	0000000000000000	-	car	830.494	167.924	0.000	0.000	180.000	696.000	987.000	-0.000	Terminate	
"Student6Mode3"	"Tanvi_6"	"Nov 29, 2016 09:17:37 AM"	Unknown	38.98411	10/29/0116 09:18.19	00002339	20.508	Inter612t1-0	-0.098	1	2	0.000	11.111	0.5	0.224	0.000	D	F	2283.8	0.330	0.190	-0.011	1503.495	803.210	0.025	-	0.089	0.359	-	-	-	-	-	-	-	PAVEMENT_GENERAL	Urban	F	1011101000010101	0000000000000000	-	car	825.787	186.148	0.000	0.000	180.000	696.000	987.000	-0.000	Terminate	
"Student6Mode3"	"Tanvi_6"	"Nov 29, 2016 09:17:37 AM"	Unknown	39.98413	10/29/0116 09:18.20	00002399	20.768	Inter612t1-0	-0.004	1	2	0.000	11.111	-0.2	0.182	0.000	D	F	2259.5	0.136	0.186	0.008	1503.589	823.864	0.026	-	-0.057	0.164	-	-	-	-	-	-	-	PAVEMENT_GENERAL	Urban	F	1011101000010101	0000000000000000	-	car	821.542	202.162	0.000	0.000	180.000	696.000	987.000	-0.000	Terminate	
"Student6Mode3"	"Tanvi_6"	"Nov 29, 2016 09:17:37 AM"	Unknown	40.98415	10/29/0116 09:18.21	00002459	20.822	Inter612t1-0	0.056	1	2	0.000	11.111	-0.6	0.155	0.000	D	F	1762.4	0.165	0.185	0.004	1503.649	844.676	0.027	-	-0.025	-0.020	-	-	-	-	-	-	-	PAVEMENT_GENERAL	Urban	F	1111101000010101	0000000000000000	-	car	817.734	230.054	0.000	0.000	180.000	696.000	987.000	-0.000	Terminate	
"Student6Mode3"	"Tanvi_6"	"Nov 29, 2016 09:17:37 AM"	Unknown	41.98417	10/29/0116 09:18.22	00002519	20.774	Inter612t1-0	0.098	1	2	0.000	11.111	-0.7	0.150	0.000	D	F	1723.4	0.078	0.186	0.004	1503.691	865.476	0.027	-	-0.028	-0.056	-	-	-	-	-	-	-	PAVEMENT_GENERAL	Urban	F	1011101000010101	0000000000000000	-	car	814.423	265.894	0.000	0.000	180.000	696.000	987.000	-0.000	Terminate	
"Student6Mode3"	"Tanvi_6"	"Nov 29, 2016 09:17:37 AM"	Unknown	42.98419	10/29/0116 09:18.23	00002579	20.722	Inter612t1-0	0.138	1	2	0.000	11.111	4.3	0.150	0.000	D	F	1719.2	0.327	0.185	-0.031	1503.731	886.224	0.027	R	0.239	-0.055	-	-	-	-	-	-	-	PAVEMENT_GENERAL	Urban	F	1011101001010101	0000000000000000	-	car	811.634	331.515	0.000	0.000	180.000	696.000	987.000	-0.000	Terminate	
"Student6Mode3"	"Tanvi_6"	"Nov 29, 2016 09:17:37 AM"	Unknown	43.98421	10/29/0116 09:18.24	00002639	20.660	Inter612t1-0	0.459	1	2	0.000	11.111	9.3	0.146	0.000	D	F	1707.6	1.975	0.184	-0.101	1504.053	906.914	0.027	R	0.766	-0.070	-	-	-	-	-	-	-	PAVEMENT_GENERAL	Urban	F	1011101001010101	0000000000000000	-	car	809.652	609.749	0.000	0.000	180.000	696.000	987.000	-0.000	Terminate	
"Student6Mode3"	"Tanvi_6"	"Nov 29, 2016 09:17:37 AM"	Unknown	44.98423	10/29/0116 09:18.25	00002699	20.584	Inter612t1-0	1.504	1	2	0.000	11.111	8.2	0.143	0.000	D	F	1700.0	4.335	0.183	-0.105	1505.098	927.508	0.027	R	0.805	-0.072	-	-	-	-	-	-	-	PAVEMENT_GENERAL	Urban	F	1011101001010101	0000000000000000	-	car	808.922	-17366.678	0.000	0.000	180.000	696.000	987.000	-0.000	Terminate	
"Student6Mode3"	"Tanvi_6"	"Nov 29, 2016 09:17:37 AM"	Unknown	45.98425	10/29/0116 09:18.26	00002759	20.573	Inter612t1-1	-0.537	2	2	0.000	11.111	-16.2	0.383	0.000	D	F	2087.6	3.293	0.196	0.158	1506.656	947.999	0.026	-	-1.157	0.425	-	-	-	-	-	-	-	PAVEMENT_GENERAL	Urban	F	1111101000010101	0000000000000000	-	car	809.234	-4184.375	0.000	0.000	180.000	696.000	987.000	-0.000	Terminate	
"Student6Mode3"	"Tanvi_6"	"Nov 29, 2016 09:17:37 AM"	Unknown	46.98427	10/29/0116 09:18.27	00002819	21.199	Inter612t1-1	0.108	2	2	0.000	11.111	-7.0	0.436	0.000	D	F	2451.6	0.144	0.191	0.068	1507.301	968.854	0.024	-	-0.607	0.690	-	-	-	-	-	-	-	PAVEMENT_GENERAL	Urban	F	1011101000010101	0000000000000000	-	car	809.144	1923.696	0.000	0.000	180.000	696.000	987.000	-0.000	Terminate	
"Student6Mode3"	"Tanvi_6"	"Nov 29, 2016 09:17:37 AM"	Unknown	47.98429	10/29/0116 09:18.28	00002879	21.861	Inter612t1-1	-0.016	2	2	0.000	11.111	1.7	0.402	0.000	D	F	2507.4	359.146	0.190	0.003	1507.177	990.385	0.024	-	-0.054	0.658	-	-	-	-	-	-	-	PAVEMENT_GENERAL	Urban	F	1011101000010101	0000000000000000	-	car	808.825	3445.723	0.000	0.000	180.000	696.000	987.000	-0.000	Terminate	
"Student6Mode3"	"Tanvi_6"	"Nov 29, 2016 09:17:37 AM"	Unknown	48.98431	10/29/0116 09:18.29	00002939	22.510	Inter613t1-1	-0.234	2	2	0.000	11.111	4.6	0.399	0.000	D	F	2557.3	0.000	0.189	-0.051	1506.959	1012.571	0.024	-	0.399	0.641	-	-	-	-	-	-	-	PAVEMENT_GENERAL	Urban	F	1011101000010101	0000000000000000	-	car	809.003	-1142.893	0.000	0.000	180.000	696.000	987.000	-0.000	Terminate	
"Student6Mode3"	"Tanvi_6"	"Nov 29, 2016 09:17:37 AM"	Unknown	49.98433	10/29/0116 09:18.30	00002999	23.143	Inter613t1-1	-0.146	2	2	0.000	11.111	0.4	0.395	0.000	D	F	2606.7	0.463	0.188	-0.009	1507.047	1035.399	0.024	-	0.065	0.625	-	-	-	-	-	-	-	PAVEMENT_GENERAL	Urban	F	1011101000010101	0000000000000000	-	car	810.130	-517.646	0.000	0.000	180.000	696.000	987.000	-0.000	Terminate	
"Student6Mode3"	"Tanvi_6"	"Nov 29, 2016 09:17:37 AM"	Unknown	50.98435	10/29/0116 09:18.31	00003059	23.756	Inter613t1-1	0.019	2	2	0.000	11.111	0.4	0.384	0.000	D	F	2652.4	0.214	0.186	0.013	1507.212	1058.849	0.024	-	-0.093	0.606	-	-	-	-	-	-	-	PAVEMENT_GENERAL	Urban	F	1011101000010101	0000000000000000	-	car	812.028	-371.791	0.000	0.000	180.000	696.000	987.000	-0.000	Terminate	
"Student6Mode3"	"Tanvi_6"	"Nov 29, 2016 09:17:37 AM"	Unknown	51.98437	10/29/0116 09:18.32	00003119	24.356	Inter613t1-1	0.097	2	2	0.000	11.111	-2.5	0.383	0.000	D	F	2709.4	0.000	0.185	0.025	1507.290	1082.907	0.024	-	-0.190	0.593	-	-	-	-	-	-	-	PAVEMENT_GENERAL	Urban	F	1011101000010101	0000000000000000	-	car	814.580	-286.292	0.000	0.000	180.000	696.000	987.000	-0.000	Terminate	
"Student6Mode3"	"Tanvi_6"	"Nov 29, 2016 09:17:37 AM"	Unknown	52.98439	10/29/0116 09:18.33	00003179	24.940	Inter613t1-1	0.050	2	2	0.000	11.111	-0.5	0.367	0.000	D	F	2763.5	359.793	0.184	0.006	1507.244	1107.556	0.024	-	-0.045	0.574	-	-	-	-	-	-	-	PAVEMENT_GENERAL	Urban	F	1011101000010101	0000000000000000	-	car	817.793	-228.649	0.000	0.000	180.000	696.000	987.000	-0.000	Terminate	
"Student6Mode3"	"Tanvi_6"	"Nov 29, 2016 09:17:37 AM"	Unknown	53.98441	10/29/0116 09:18.34	00003239	25.135	Inter613t1-1	-0.051	2	2	0.000	11.111	0.8	0.037	0.000	D	F	1827.4	359.766	0.168	-0.007	1507.142	1132.694	0.028	-	0.040	-0.461	-	-	-	-	-	-	-	PAVEMENT_GENERAL	Urban	F	1011101000010101	0000000000000000	-	car	821.763	-189.235	0.000	0.000	180.000	696.000	987.000	-0.000	Terminate	
"Student6Mode3"	"Tanvi_6"	"Nov 29, 2016 09:17:37 AM"	Unknown	54.98443	10/29/0116 09:18.35	00003299	24.460	Inter613t1-1	-0.274	2	2	0.000	11.111	-12.9	0.000	0.000	D	F	1669.1	358.193	0.167	0.175	1506.919	1157.497	0.030	L	-1.285	-0.683	-	-	-	-	-	-	-	PAVEMENT_GENERAL	Urban	F	1011101000110101	0000000000000000	-	car	826.289	-193.264	0.000	0.000	180.000	696.000	987.000	-0.000	Terminate	
"Student6Mode3"	"Tanvi_6"	"Nov 29, 2016 09:17:37 AM"	Unknown	55.98445	10/29/0116 09:18.36	00003359	23.765	Inter613t1-1	-1.614	2	2	0.000	11.111	-9.7	0.000	0.000	D	F	1620.0	354.427	0.165	0.180	1505.579	1181.568	0.030	L	-1.387	-0.670	-	-	-	-	-	-	-	PAVEMENT_GENERAL	Urban	F	1011101000110101	0000000000000000	-	car	830.272	-252.895	0.000	0.000	180.000	696.000	987.000	-0.000	Terminate	
"Student6Mode3"	"Tanvi_6"	"Nov 29, 2016 09:17:37 AM"	Unknown	56.98447	10/29/0116 09:18.37	00003419	21.714	Inter615t9-0	-0.389	1	2	0.000	11.111	7.7	0.000	0.146	D	F	1451.8	354.036	0.150	-0.061	1503.204	1204.361	0.034	-	0.420	-2.427	-	-	-	-	-	-	-	PAVEMENT_GENERAL	Urban	F	1011101000010101	0000000000000000	-	car	833.597	-242.559	0.000	0.000	180.000	696.000	987.000	-0.000	Terminate	
"Student6Mode3"	"Tanvi_6"	"Nov 29, 2016 09:17:37 AM"	Unknown	57.98449	10/29/0116 09:18.38	00003479	18.831	Inter615t31-0	-1.755	1	1	355.664	11.111	10.2	0.000	0.224	D	F	1246.8	356.759	0.129	-0.125	1501.412	1224.618	0.035	-	0.954	-3.296	-	-	-	22	2.649	49.878	2.649	PAVEMENT_GENERAL	Urban	F	1011101000010101	0000000000000000	-	car	837.373	-194.782	0.000	0.000	180.000	696.000	987.000	-0.000	Terminate	
"Student6Mode3"	"Tanvi_6"	"Nov 29, 2016 09:17:37 AM"	Unknown	58.98451	10/29/0116 09:18.39	00003539	14.939	Inter615t31-0	-1.205	1	1	355.503	11.111	2.5	0.000	0.319	D	F	974.7	358.780	0.125	-0.043	1500.677	1241.565	0.038	-	0.372	-4.273	-	-	-	22	2.203	32.911	2.203	PAVEMENT_GENERAL	Urban	F	1011101000010101	0000000000000000	-	car	841.624	-200.311	0.000	0.000	180.000	696.000	987.000	-0.000	Terminate	
"Student6Mode3"	"Tanvi_6"	"Nov 29, 2016 09:17:37 AM"	Unknown	59.98453	10/29/0116 09:18.40	00003599	9.956	Inter615t31-0	-0.360	1	1	356.903	11.111	0.0	0.000	0.421	D	F	906.4	359.002	0.029	-0.003	1500.429	1254.102	0.040	-	0.008	-5.313	-	-	-	22	2.051	20.425	2.051	PAVEMENT_GENERAL	Urban	F	1011101000010101	0000000000000000	-	car	845.255	-284.366	0.000	0.000	180.000	696.000	987.000	-0.000	Terminate	
"Student6Mode3"	"Tanvi_6"	"Nov 29, 2016 09:17:37 AM"	Unknown	60.98455	10/29/0116 09:18.41	00003659	4.760	Inter615t31-0	-0.084	1	1	356.903	11.111	6.2	0.000	0.394	D	F	477.5	359.178	0.058	-0.010	1500.308	1261.435	0.039	-	0.057	-5.001	-	-	-	22	2.751	13.096	2.751	PAVEMENT_GENERAL	Urban	F	1011101000010101	0000000000000000	-	car	847.479	-575.646	0.000	0.000	180.000	696.000	987.000	-0.000	Terminate	
"Student6Mode3"	"Tanvi_6"	"Nov 29, 2016 09:17:37 AM"	Unknown	61.98457	10/29/0116 09:18.42	00003719	1.771	Inter615t31-0	0.042	1	1	356.903	11.111	3.4	0.000	0.000	D	F	477.5	359.489	0.217	-0.000	1500.284	1264.216	0.031	-	0.000	-0.393	-	-	-	22	5.827	10.317	5.827	PAVEMENT_GENERAL	Urban	F	1011101000010101	0000000000000000	-	car	848.359	-1509.418	0.000	0.000	180.000	696.000	987.000	-0.000	Terminate	
"Student6Mode3"	"Tanvi_6"	"Nov 29, 2016 09:17:37 AM"	Unknown	62.98459	10/29/0116 09:18.43	00003779	1.435	Inter615t31-0	0.118	1	1	356.903	11.111	3.5	0.000	0.000	D	F	477.5	359.606	0.201	-0.000	1500.274	1265.808	0.028	-	0.002	-0.275	-	-	-	22	4.427	6.354	4.427	PAVEMENT_GENERAL	Urban	F	1011101000010101	0000000000000000	-	car	848.870	-1842.541	0.000	0.000	180.000	696.000	987.000	-0.000	Terminate	
"Student6Mode3"	"Tanvi_6"	"Nov 29, 2016 09:17:37 AM"	Unknown	63.98461	10/29/0116 09:18.44	00003839	1.205	Inter615t31-0	0.181	1	1	356.903	11.111	-5.0	0.000	0.000	D	F	477.5	359.594	0.203	-0.001	1500.266	1267.121	0.027	-	0.005	-0.191	-	-	-	22	4.183	5.041	4.183	PAVEMENT_GENERAL	Urban	F	1011101000010101	0000000000000000	-	car	849.292	-2187.386	0.000	0.000	180.000	696.000	987.000	-0.000	Terminate	
"Student6Mode3"	"Tanvi_6"	"Nov 29, 2016 09:17:37 AM"	Unknown	64.98463	10/29/0116 09:18.45	00003899	1.043	Inter615t11-0	0.194	LT1	2	0.000	11.111	-4.8	0.000	0.000	D	F	477.5	359.561	0.203	0.003	1500.256	1268.240	0.027	-	-0.014	-0.137	-	-	-	22	6.026	6.286	6.026	PAVEMENT_GENERAL	Urban	F	1011101000010101	0000000000000000	-	car	849.653	-2523.134	0.000	0.000	180.000	696.000	987.000	-0.000	Terminate	
"Student6Mode3"	"Tanvi_6"	"Nov 29, 2016 09:17:37 AM"	Unknown	65.98465	10/29/0116 09:18.46	00003959	0.774	Inter615t11-0	0.183	LT1	2	0.000	11.111	-4.4	0.000	0.119	D	F	477.5	359.465	0.149	-0.001	1500.245	1269.211	0.027	-	0.003	-1.324	-	-	-	22	7.159	5.541	-	PAVEMENT_GENERAL	Urban	F	1011101000010101	0000000000000000	-	car	849.963	-3407.305	0.000	0.000	180.000	696.000	987.000	-0.000	Terminate	
"Student6Mode3"	"Tanvi_6"	"Nov 29, 2016 09:17:37 AM"	Unknown	66.98467	10/29/0116 09:18.47	00004019	0.929	Inter615t11-0	0.177	LT1	2	0.000	11.111	-0.1	0.152	0.000	D	F	1323.0	359.427	0.323	-0.000	1500.239	1269.743	0.023	-	0.004	3.119	-	-	-	22	7.485	6.957	-	PAVEMENT_GENERAL	Urban	F	1011101000010101	0000000000000000	-	car	850.134	-2838.504	0.000	0.000	180.000	696.000	987.000	-0.000	Terminate	
"Student6Mode3"	"Tanvi_6"	"Nov 29, 2016 09:17:37 AM"	Unknown	67.98470	10/29/0116 09:18.48	00004079	3.576	Inter615t11-0	0.157	LT1	2	0.000	11.111	1.7	0.009	0.000	D	F	956.0	359.523	0.148	-0.000	1500.219	1272.222	0.017	-	0.006	0.045	-	-	-	22	2.358	8.432	-	PAVEMENT_GENERAL	Urban	F	1011101000010101	0000000000000000	-	car	850.940	-729.037	0.000	0.000	180.000	696.000	987.000	-0.000	Terminate	
"Student6Mode3"	"Tanvi_6"	"Nov 29, 2016 09:17:37 AM"	Unknown	68.98471	10/29/0116 09:18.49	00004139	3.209	Inter615t11-0	0.133	LT1	2	0.000	11.111	-0.4	0.004	0.000	D	F	494.7	359.589	0.197	-0.001	1500.195	1275.642	0.028	-	-0.000	-0.450	-	-	-	22	3.432	11.014	-	PAVEMENT_GENERAL	Urban	F	1011101000010101	0000000000000000	-	car	852.067	-802.013	0.000	0.000	180.000	696.000	987.000	-0.000	Terminate	
"Student6Mode3"	"Tanvi_6"	"Nov 29, 2016 09:17:37 AM"	Unknown	69.98473	10/29/0116 09:18.50	00004199	4.752	Inter615t11-0	0.069	LT1	2	0.000	11.111	-43.0	0.291	0.000	D	F	1916.6	358.686	0.214	0.067	1500.132	1279.291	0.012	-	-0.500	3.090	-	-	-	22	3.223	15.316	-	PAVEMENT_GENERAL	Urban	F	1011101000010101	0000000000000000	-	car	853.247	-561.138	0.000	0.000	180.000	696.000	987.000	-0.000	Terminate	
"Student6Mode3"	"Tanvi_6"	"Nov 29, 2016 09:17:37 AM"	Unknown	70.98476	10/29/0116 09:18.51	00004259	7.715	Inter615t65-0	-0.374	1	1	346.591	11.111	-137.1	0.395	0.000	D	F	2542.5	347.769	0.236	0.353	1499.255	1285.498	0.014	-	-2.580	2.659	-	-	-	22	2.412	18.606	-	PAVEMENT_GENERAL	Urban	F	1011101000010101	0000000000000000	-	car	854.565	-780.815	0.000	0.000	180.000	696.000	987.000	-0.000	Terminate	
"Student6Mode3"	"Tanvi_6"	"Nov 29, 2016 09:17:37 AM"	Unknown	71.98477	10/29/0116 09:18.52	00004319	10.345	Inter615t65-0	-0.793	1	1	325.949	11.111	-161.2	0.238	0.000	D	F	2520.0	324.837	0.286	0.571	1495.314	1293.596	0.019	-	-4.458	2.062	-	-	-	22	2.015	20.847	-	PAVEMENT_GENERAL	Urban	F	1011101000010101	0000000000000000	-	car	853.739	336.948	0.000	0.000	180.000	696.000	987.000	-0.000	Terminate	
"Student6Mode3"	"Tanvi_6"	"Nov 29, 2016 09:17:37 AM"	Unknown	72.98479	10/29/0116 09:18.53	00004379	9.954	Inter615t65-0	-1.730	1	1	298.859	11.111	-146.9	0.051	0.000	D	F	1188.0	296.208	0.098	0.622	1487.484	1300.056	0.035	-	-4.846	-0.476	-	-	-	22	1.982	19.727	-	PAVEMENT_GENERAL	Urban	F	1011101000010101	0000000000000000	-	car	848.788	126.914	0.000	0.000	180.000	696.000	987.000	-0.000	Terminate	
"Student6Mode3"	"Tanvi_6"	"Nov 29, 2016 09:17:37 AM"	Unknown	73.98481	10/29/0116 09:18.54	00004439	10.377	Inter615t3-3	-1.098	1	2	270.000	11.111	-44.6	0.316	0.000	D	F	2019.5	276.958	0.203	0.190	1477.835	1302.433	0.021	-	-1.533	1.355	-	-	-	22	2.559	26.551	-	PAVEMENT_GENERAL	Urban	F	1011101000010101	0000000000000000	-	car	840.709	92.564	0.000	0.000	180.000	696.000	987.000	-0.000	Terminate	
"Student6Mode3"	"Tanvi_6"	"Nov 29, 2016 09:17:37 AM"	Unknown	74.98483	10/29/0116 09:18.55	00004499	11.910	Inter615t19-0	-0.467	1	1	270.063	11.111	-14.9	0.404	0.000	D	F	2267.6	270.984	0.211	0.079	1466.719	1303.065	0.019	-	-0.672	1.522	-	-	-	22	2.698	32.128	-	PAVEMENT_GENERAL	Urban	F	1011101000010101	0000000000000000	-	car	830.650	75.928	0.000	0.000	180.000	696.000	987.000	-0.000	Terminate	
"Student6Mode3"	"Tanvi_6"	"Nov 29, 2016 09:17:37 AM"	Unknown	75.98486	10/29/0116 09:18.56	00004559	13.369	Inter615t19-0	-0.375	1	1	270.102	11.111	0.3	0.397	0.000	D	F	2425.9	270.637	0.211	-0.008	1454.071	1303.170	0.020	-	0.079	1.415	-	-	-	22	2.833	37.871	-	PAVEMENT_GENERAL	Urban	F	1011101000010101	0000000000000000	-	car	819.002	66.689	0.000	0.000	180.000	696.000	987.000	-0.000	Terminate	
"Student6Mode3"	"Tanvi_6"	"Nov 29, 2016 09:17:37 AM"	Unknown	76.98487	10/29/0116 09:18.57	00004619	14.756	Inter615t19-0	-0.322	1	1	270.081	11.111	-3.7	0.383	0.000	D	F	2594.4	269.631	0.209	0.028	1440.004	1303.247	0.020	-	-0.300	1.366	-	-	-	22	2.919	43.066	-	PAVEMENT_GENERAL	Urban	F	1011101000010101	0000000000000000	-	car	806.068	59.196	0.000	0.000	180.000	696.000	987.000	-0.000	Terminate	
"Student6Mode3"	"Tanvi_6"	"Nov 29, 2016 09:17:37 AM"	Unknown	77.98489	10/29/0116 09:18.58	00004679	16.096	Inter615t19-0	-0.407	1	1	270.061	11.111	1.6	0.367	0.000	D	F	2780.9	270.204	0.206	-0.018	1424.574	1303.185	0.020	-	0.185	1.317	-	-	-	22	2.946	47.414	-	PAVEMENT_GENERAL	Urban	F	1011101000010101	0000000000000000	-	car	791.865	53.713	0.000	0.000	180.000	696.000	987.000	-0.000	Terminate	
"Student6Mode3"	"Tanvi_6"	"Nov 29, 2016 09:17:37 AM"	Unknown	78.98492	10/29/0116 09:18.59	00004739	17.384	Inter615t1-2	-0.418	1	2	270.000	11.111	-4.7	0.356	0.000	D	F	2963.1	269.454	0.204	0.044	1407.829	1303.182	0.021	-	-0.331	1.258	-	-	-	22	2.921	50.778	-	PAVEMENT_GENERAL	Urban	F	1011101000010101	0000000000000000	-	car	776.532	48.675	0.000	0.000	180.000	696.000	987.000	-0.000	Terminate	
"Student6Mode3"	"Tanvi_6"	"Nov 29, 2016 09:17:37 AM"	Unknown	79.98493	10/29/0116 09:19.00	00004799	18.616	Inter616t1-2	-0.621	1	2	270.000	11.111	8.2	0.360	0.000	D	F	3135.0	269.620	0.202	-0.060	1389.826	1302.985	0.021	-	0.381	1.210	-	-	-	22	2.841	52.888	-	PAVEMENT_GENERAL	Urban	F	1011101000010101	0000000000000000	-	car	760.033	44.727	0.000	0.000	180.000	696.000	987.000	-0.000	Terminate	
"Student6Mode3"	"Tanvi_6"	"Nov 29, 2016 09:17:37 AM"	Unknown	80.98495	10/29/0116 09:19.01	00004859	19.791	Inter616t1-2	-0.619	1	2	270.000	11.111	0.1	0.344	0.000	D	F	3291.2	270.033	0.199	0.007	1370.617	1302.987	0.021	-	-0.078	1.141	-	-	-	22	2.718	53.799	-	PAVEMENT_GENERAL	Urban	F	1011101000010101	0000000000000000	-	car	742.594	41.445	0.000	0.000	180.000	696.000	987.000	-0.000	Terminate	
"Student6Mode3"	"Tanvi_6"	"Nov 29, 2016 09:17:37 AM"	Unknown	81.98497	10/29/0116 09:19.02	00004919	20.781	Inter616t1-2	-0.617	1	2	270.000	11.111	-3.3	0.335	0.000	D	F	2461.0	269.816	0.190	0.028	1350.280	1302.990	0.023	-	-0.194	0.690	-	-	-	22	2.578	53.582	80.589	PAVEMENT_GENERAL	Urban	F	1011101000010101	0000000000000000	-	car	724.230	38.643	0.000	0.000	180.000	696.000	987.000	-0.000	Terminate	
"Student6Mode3"	"Tanvi_6"	"Nov 29, 2016 09:17:37 AM"	Unknown	82.98499	10/29/0116 09:19.03	00004979	21.412	Inter616t1-2	-0.750	1	2	270.000	11.111	7.8	0.332	0.000	D	F	2454.7	269.589	0.191	-0.042	1329.179	1302.857	0.024	-	0.261	0.613	-	-	-	22	2.454	52.553	34.734	PAVEMENT_GENERAL	Urban	F	1011101000010101	0000000000000000	-	car	705.229	36.676	0.000	0.000	180.000	696.000	987.000	-0.000	Terminate	
"Student6Mode3"	"Tanvi_6"	"Nov 29, 2016 09:17:37 AM"	Unknown	83.98502	10/29/0116 09:19.04	00005039	21.996	Inter616t1-2	-0.650	1	2	270.000	11.111	0.9	0.316	0.000	D	F	2484.8	271.107	0.188	-0.034	1307.471	1302.957	0.024	-	0.315	0.559	-	-	-	22	2.291	50.396	17.449	PAVEMENT_GENERAL	Urban	F	1011101000010101	0000000000000000	-	car	685.917	35.462	0.000	0.000	180.000	696.000	987.000	-0.000	Terminate	
"Student6Mode3"	"Tanvi_6"	"Nov 29, 2016 09:17:37 AM"	Unknown	84.98503	10/29/0116 09:19.05	00005099	22.522	Inter616t1-2	-0.282	1	2	270.000	11.111	-5.4	0.302	0.000	D	F	2509.8	270.612	0.188	0.047	1285.210	1303.325	0.025	-	-0.339	0.508	-	-	-	22	2.079	46.830	10.980	PAVEMENT_GENERAL	Urban	F	1011101000010101	0000000000000000	-	car	666.393	33.778	0.000	0.000	180.000	696.000	987.000	-0.000	Terminate	
"Student6Mode3"	"Tanvi_6"	"Nov 29, 2016 09:17:37 AM"	Unknown	85.98505	10/29/0116 09:19.06	00005159	23.009	Inter616t1-2	-0.186	1	2	270.000	11.111	1.5	0.293	0.000	D	F	2550.9	269.876	0.186	0.003	1262.441	1303.421	0.025	-	-0.037	0.468	-	-	-	22	1.824	41.976	7.652	PAVEMENT_GENERAL	Urban	F	1011101000010101	0000000000000000	-	car	646.469	32.144	0.000	0.000	180.000	696.000	987.000	-0.000	Terminate	
"Student6Mode3"	"Tanvi_6"	"Nov 29, 2016 09:17:37 AM"	Unknown	86.98507	10/29/0116 09:19.07	00005219	23.327	Inter616t1-2	-0.201	1	2	270.000	11.111	0.3	0.101	0.000	D	F	1971.9	270.044	0.172	-0.007	1239.235	1303.406	0.026	-	0.049	-0.108	-	-	-	22	1.543	36.000	5.607	PAVEMENT_GENERAL	Urban	F	1011101000010101	0000000000000000	-	car	626.303	31.084	0.000	0.000	180.000	696.000	987.000	-0.000	Terminate	
"Student6Mode3"	"Tanvi_6"	"Nov 29, 2016 09:17:37 AM"	Unknown	87.98509	10/29/0116 09:19.08	00005279	22.727	Inter616t1-2	-0.198	1	2	270.000	11.111	3.1	0.000	0.000	D	F	1553.8	269.961	0.176	-0.018	1216.186	1303.409	0.030	-	0.090	-0.650	-	-	-	22	1.302	29.588	4.639	PAVEMENT_GENERAL	Urban	F	1011101000010101	0000000000000000	-	car	606.498	31.222	0.000	0.000	180.000	696.000	987.000	-0.000	Terminate	
"Student6Mode3"	"Tanvi_6"	"Nov 29, 2016 09:17:37 AM"	Unknown	88.98512	10/29/0116 09:19.09	00005339	20.278	Inter617t1-2	-0.124	1	2	270.000	11.111	-2.0	0.000	0.227	D	F	1340.0	270.339	0.130	0.007	1194.371	1303.483	0.036	-	-0.032	-3.463	-	-	-	22	1.177	23.876	5.390	PAVEMENT_GENERAL	Urban	F	1011101000010101	0000000000000000	-	car	588.009	34.480	0.000	0.000	180.000	696.000	987.000	-0.000	Terminate	
"Student6Mode3"	"Tanvi_6"	"Nov 29, 2016 09:17:37 AM"	Unknown	89.98513	10/29/0116 09:19.10	00005399	18.173	Inter617t1-2	-0.063	1	2	270.000	11.111	0.2	0.000	0.027	D	F	1235.2	270.063	0.183	0.002	1175.423	1303.544	0.030	-	-0.015	-0.883	-	-	-	22	1.130	20.532	7.269	PAVEMENT_GENERAL	Urban	F	1011101000010101	0000000000000000	-	car	572.137	37.753	0.000	0.000	180.000	696.000	987.000	-0.000	Terminate	
"Student6Mode3"	"Tanvi_6"	"Nov 29, 2016 09:17:37 AM"	Unknown	90.98515	10/29/0116 09:19.11	00005459	17.587	Inter617t1-2	-0.045	1	2	270.000	11.111	-0.7	0.000	0.000	D	F	1199.3	269.985	0.185	0.008	1157.551	1303.562	0.029	-	-0.059	-0.567	-	-	-	22	1.013	17.814	6.927	PAVEMENT_GENERAL	Urban	F	1011101000010101	0000000000000000	-	car	557.319	38.420	0.000	0.000	180.000	696.000	987.000	-0.000	Terminate	
"Student6Mode3"	"Tanvi_6"	"Nov 29, 2016 09:17:37 AM"	Unknown	91.98518	10/29/0116 09:19.12	00005519	17.024	Inter617t1-2	-0.018	1	2	270.000	11.111	8.7	0.000	0.000	D	F	1160.7	270.477	0.186	-0.067	1140.246	1303.589	0.029	R	0.454	-0.561	-	-	-	22	0.903	15.377	6.685	PAVEMENT_GENERAL	Urban	F	1011101001010101	0000000000000000	-	car	543.152	39.414	0.000	0.000	180.000	696.000	987.000	-0.000	Terminate	
"Student6Mode3"	"Tanvi_6"	"Nov 29, 2016 09:17:37 AM"	Unknown	92.98519	10/29/0116 09:19.13	00005579	17.073	Inter617t1-2	0.444	1	2	270.000	11.111	2.5	0.252	0.000	D	F	1945.6	272.637	0.196	-0.037	1123.309	1304.051	0.025	R	0.312	0.461	-	-	-	22	0.766	13.069	5.110	PAVEMENT_GENERAL	Urban	F	1011101001010101	0000000000000000	-	car	529.725	40.045	0.000	0.000	180.000	696.000	987.000	-0.000	Terminate	
"Student6Mode3"	"Tanvi_6"	"Nov 29, 2016 09:17:37 AM"	Unknown	93.98521	10/29/0116 09:19.14	00005639	17.642	Inter617t1-2	1.176	1	2	270.000	11.111	-3.0	0.277	0.000	D	F	2125.4	271.803	0.196	0.049	1105.973	1304.783	0.024	R	-0.344	0.583	-	-	-	22	0.576	10.160	3.086	PAVEMENT_GENERAL	Urban	F	1011101001010101	0000000000000000	-	car	516.354	37.977	0.000	0.000	180.000	696.000	987.000	-0.000	Terminate	
"Student6Mode3"	"Tanvi_6"	"Nov 29, 2016 09:17:37 AM"	Unknown	94.98523	10/29/0116 09:19.15	00005699	18.275	Inter617t1-2	1.784	1	2	270.000	11.111	1.9	0.316	0.000	D	F	2211.1	272.230	0.197	-0.018	1088.036	1305.391	0.023	R	0.148	0.691	-	-	-	22	0.355	6.483	1.584	PAVEMENT_GENERAL	Urban	F	1011101001010101	0000000000000000	-	car	502.681	36.620	0.000	0.000	180.000	696.000	987.000	-0.000	Terminate	
"Student6Mode3"	"Tanvi_6"	"Nov 29, 2016 09:17:37 AM"	Unknown	95.98525	10/29/0116 09:19.16	00005759	18.413	Inter617t1-3	-1.057	2	2	270.000	11.111	0.4	0.000	0.000	D	F	1383.6	272.630	0.174	-0.020	1069.582	1306.150	0.028	-	0.142	-0.563	-	-	-	22	0.243	4.466	1.025	PAVEMENT_GENERAL	Urban	F	1011101000010101	0000000000000000	-	car	488.986	36.393	0.000	0.000	180.000	696.000	987.000	-0.000	Terminate	
"Student6Mode3"	"Tanvi_6"	"Nov 29, 2016 09:17:37 AM"	Unknown	96.98528	10/29/0116 09:19.17	00005819	17.841	Inter617t1-3	-0.313	2	2	270.000	11.111	-8.1	0.000	0.000	D	F	1218.8	271.584	0.184	0.082	1051.470	1306.894	0.029	-	-0.605	-0.572	-	-	-	-	-	-	-	PAVEMENT_GENERAL	Urban	F	1011101000010101	0000000000000000	-	car	475.856	36.812	0.000	0.000	180.000	696.000	987.000	-0.000	Terminate	
"Student6Mode3"	"Tanvi_6"	"Nov 29, 2016 09:17:37 AM"	Unknown	97.98529	10/29/0116 09:19.18	00005879	16.798	Inter617t1-3	-0.064	2	2	270.000	11.111	-1.7	0.000	0.194	D	F	1115.8	270.102	0.120	0.021	1033.975	1307.143	0.032	-	-0.194	-2.763	-	-	-	-	-	-	-	PAVEMENT_GENERAL	Urban	F	1011101000010101	0000000000000000	-	car	463.171	38.044	0.000	0.000	180.000	696.000	987.000	-0.000	Terminate	
"Student6Mode3"	"Tanvi_6"	"Nov 29, 2016 09:17:37 AM"	Unknown	98.98531	10/29/0116 09:19.19	00005939	12.926	Inter617t1-3	-0.052	2	2	270.000	11.111	-1.6	0.000	0.376	D	F	939.9	269.996	0.109	0.004	1018.989	1307.155	0.039	-	-0.031	-4.819	-	-	-	-	-	-	-	PAVEMENT_GENERAL	Urban	F	1011101000010101	0000000000000000	-	car	452.416	49.279	0.000	0.000	180.000	696.000	987.000	-0.000	Terminate	
"Student6Mode3"	"Tanvi_6"	"Nov 29, 2016 09:17:37 AM"	Unknown	99.98534	10/29/0116 09:19.20	00005999	8.366	Inter617t1-3	-0.068	2	2	270.000	11.111	9.1	0.000	0.084	D	F	812.9	270.059	0.200	-0.027	1008.510	1307.139	0.036	-	0.209	-1.866	-	-	-	-	-	-	-	PAVEMENT_GENERAL	Urban	F	1011101000010101	0000000000000000	-	car	445.023	76.229	0.000	0.000	180.000	696.000	987.000	-0.000	Terminate	
"Student6Mode3"	"Tanvi_6"	"Nov 29, 2016 09:17:37 AM"	Unknown	100.98535	10/29/0116 09:19.21	00006059	7.844	Inter617t1-3	0.011	2	2	270.000	11.111	3.5	0.000	0.000	D	F	770.8	270.744	0.197	-0.008	1000.429	1307.218	0.028	-	0.076	-0.471	-	-	-	31	1.025	8.036	7.956	PAVEMENT_GENERAL	Urban	F	1011101000010101	0000000000000000	-	car	439.473	82.452	0.000	0.000	180.000	696.000	987.000	-0.000	Terminate	
"Student6Mode3"	"Tanvi_6"	"Nov 29, 2016 09:17:37 AM"	Unknown	101.98537	10/29/0116 09:19.22	00006119	8.297	Inter618t1-1	-0.550	2	2	269.991	24.444	-1.4	0.212	0.000	D	F	1785.4	270.980	0.323	-0.030	992.558	1307.350	0.024	-	-0.036	1.291	-	-	-	31	1.243	10.310	-	FREEWAY_SMOOTH	Urban	F	1011101000010101	0000000000000000	-	car	434.184	78.491	0.000	0.000	180.000	696.000	987.000	-0.000	Terminate	
"Student6Mode3"	"Tanvi_6"	"Nov 29, 2016 09:17:37 AM"	Unknown	102.98539	10/29/0116 09:19.23	00006179	9.952	Inter618t1-1	-0.417	2	2	269.860	24.444	-4.2	0.446	0.000	D	F	2115.7	270.593	0.324	-0.147	983.475	1307.474	0.039	-	-0.123	1.803	-	-	-	31	1.107	11.017	-	FREEWAY_SMOOTH	Urban	F	1011101000010101	0000000000000000	-	car	428.158	65.186	0.000	0.000	180.000	696.000	987.000	-0.000	Terminate	
"Student6Mode3"	"Tanvi_6"	"Nov 29, 2016 09:17:37 AM"	Unknown	103.98541	10/29/0116 09:19.24	00006239	11.713	Inter618t1-1	-0.348	2	2	269.482	24.444	-4.4	0.564	0.000	D	F	2289.0	269.669	0.319	-0.292	972.635	1307.486	0.058	-	-0.182	1.707	-	-	-	31	1.022	11.974	-	FREEWAY_SMOOTH	Urban	F	1011101000010101	0000000000000000	-	car	421.006	54.645	0.000	0.000	180.000	696.000	987.000	-0.000	Terminate	
"Student6Mode3"	"Tanvi_6"	"Nov 29, 2016 09:17:37 AM"	Unknown	104.98544	10/29/0116 09:19.25	00006299	13.349	Inter618t1-1	-0.346	2	2	268.769	24.444	-6.5	0.614	0.000	D	F	2455.5	268.745	0.323	-0.451	960.095	1307.306	0.082	-	-0.291	1.585	-	-	-	31	0.992	13.237	-	FREEWAY_SMOOTH	Urban	F	1011101000010101	0000000000000000	-	car	412.781	47.362	0.000	0.000	180.000	696.000	987.000	-0.000	Terminate	
"Student6Mode3"	"Tanvi_6"	"Nov 29, 2016 09:17:37 AM"	Unknown	105.98545	10/29/0116 09:19.26	00006359	14.915	Inter618t1-1	-0.394	2	2	267.590	24.444	-8.2	0.623	0.000	D	F	2655.7	267.395	0.310	-0.630	945.969	1306.822	0.107	-	-0.427	1.555	-	-	-	31	0.978	14.592	-	FREEWAY_SMOOTH	Urban	F	1011101000010101	0000000000000000	-	car	403.560	41.564	0.000	0.000	180.000	696.000	987.000	-0.000	Terminate	
"Student6Mode3"	"Tanvi_6"	"Nov 29, 2016 09:17:37 AM"	Unknown	106.98547	10/29/0116 09:19.27	00006419	16.451	Inter618t1-1	-0.469	2	2	265.831	24.444	-9.3	0.624	0.000	D	F	2862.6	265.635	0.304	-0.832	930.314	1305.868	0.134	-	-0.556	1.519	-	-	-	31	0.951	15.637	-	FREEWAY_SMOOTH	Urban	F	1011101000010101	0000000000000000	-	car	393.342	36.686	0.000	0.000	180.000	696.000	987.000	-0.000	Terminate	
"Student6Mode3"	"Tanvi_6"	"Nov 29, 2016 09:17:37 AM"	Unknown	107.98550	10/29/0116 09:19.28	00006479	17.955	Inter618t1-1	-0.505	2	2	263.376	24.444	-9.6	0.626	0.000	D	F	3085.2	263.438	0.305	-1.052	913.186	1304.240	0.163	-	-0.688	1.493	-	-	-	31	0.881	15.813	47.941	FREEWAY_SMOOTH	Urban	F	1111101000010101	0000000000000000	-	car	382.103	32.465	0.000	0.000	180.000	696.000	987.000	-0.000	Terminate	
"Student6Mode3"	"Tanvi_6"	"Nov 29, 2016 09:17:37 AM"	Unknown	108.98551	10/29/0116 09:19.29	00006539	19.421	Inter618t1-1	-0.381	2	2	260.062	24.444	-15.2	0.608	0.000	D	F	3291.4	260.564	0.315	-1.249	894.667	1301.708	0.199	-	-1.130	1.438	-	-	-	31	0.768	14.907	9.683	FREEWAY_SMOOTH	Urban	F	1011101000010101	0000000000000000	-	car	369.809	28.626	0.000	0.000	180.000	696.000	987.000	-0.000	Terminate	
"Student6Mode3"	"Tanvi_6"	"Nov 29, 2016 09:17:37 AM"	Unknown	109.98553	10/29/0116 09:19.30	00006599	20.659	Inter618t1-1	-0.126	2	2	255.784	24.444	-28.4	0.099	0.000	D	F	2443.1	256.128	0.295	-1.392	874.954	1297.802	0.243	L	-2.133	0.320	-	-	-	31	0.617	12.752	4.590	FREEWAY_SMOOTH	Urban	F	1011101000110101	0000000000000000	-	car	356.281	24.914	0.000	0.000	180.000	696.000	987.000	-0.000	Terminate	
"Student6Mode3"	"Tanvi_6"	"Nov 29, 2016 09:17:37 AM"	Unknown	110.98555	10/29/0116 09:19.31	00006659	20.052	Inter618t1-1	-0.460	2	2	250.914	24.444	-36.6	0.000	0.000	D	F	1381.8	246.857	0.023	-1.296	855.526	1291.682	0.255	L	-3.479	-0.615	-	-	-	31	0.498	9.994	4.604	FREEWAY_SMOOTH	Urban	F	1011101000110101	0000000000000000	-	car	341.559	21.987	0.000	0.000	180.000	696.000	987.000	-0.000	Terminate	
"Student6Mode3"	"Tanvi_6"	"Nov 29, 2016 09:17:37 AM"	Unknown	111.98557	10/29/0116 09:19.32	00006719	19.745	Inter618t1-0	1.239	1	2	246.157	24.444	-3.2	0.455	0.000	D	F	2215.6	238.785	-0.042	-1.596	837.909	1282.746	0.190	-	-1.358	0.631	-	-	-	31	0.530	10.472	5.618	FREEWAY_SMOOTH	Urban	F	1011101000010101	0000000000000000	-	car	325.671	19.701	0.000	0.000	180.000	696.000	987.000	-0.000	Terminate	
"Student6Mode3"	"Tanvi_6"	"Nov 29, 2016 09:17:37 AM"	Unknown	112.98560	10/29/0116 09:19.33	00006779	20.485	Inter618t1-0	-0.587	1	2	241.273	24.444	1.6	0.370	0.000	D	F	2386.5	238.104	0.096	-1.724	820.744	1272.262	0.135	-	-0.267	0.707	-	-	-	32	1.022	20.945	56.699	FREEWAY_SMOOTH	Urban	F	1011101000010101	0000000000000000	-	car	308.985	18.299	0.000	0.000	180.000	696.000	987.000	-0.000	Terminate	
"Student6Mode3"	"Tanvi_6"	"Nov 29, 2016 09:17:37 AM"	Unknown	113.98561	10/29/0116 09:19.34	00006839	20.903	Inter618t1-0	-0.939	1	2	236.192	24.444	-18.2	0.250	0.000	D	F	2335.1	236.799	0.205	-1.565	803.206	1261.231	0.126	-	-1.324	0.372	-	-	-	32	0.974	20.357	25.861	FREEWAY_SMOOTH	Urban	F	1011101000010101	0000000000000000	-	car	292.082	17.152	0.000	0.000	180.000	696.000	987.000	-0.000	Terminate	
"Student6Mode3"	"Tanvi_6"	"Nov 29, 2016 09:17:37 AM"	Unknown	114.98563	10/29/0116 09:19.35	00006899	21.318	Inter618t1-0	-0.681	1	2	231.016	24.444	-30.9	0.245	0.000	D	F	2356.8	230.314	0.153	-1.375	786.049	1248.933	0.135	-	-2.897	0.378	-	-	-	32	0.911	19.414	16.155	FREEWAY_SMOOTH	Urban	F	1011101000010101	0000000000000000	-	car	274.620	15.083	0.000	0.000	180.000	696.000	987.000	-0.000	Terminate	
"Student6Mode3"	"Tanvi_6"	"Nov 29, 2016 09:17:37 AM"	Unknown	115.98566	10/29/0116 09:19.36	00006959	21.627	Inter618t1-0	-1.003	1	2	225.751	24.444	-19.7	0.240	0.000	D	F	2386.2	224.154	0.133	-1.495	770.206	1234.458	0.125	-	-1.981	0.356	-	-	-	32	0.824	17.820	11.791	FREEWAY_SMOOTH	Urban	F	1011101000010101	0000000000000000	-	car	255.986	13.339	0.000	0.000	180.000	696.000	987.000	-0.000	Terminate	
"Student6Mode3"	"Tanvi_6"	"Nov 29, 2016 09:17:37 AM"	Unknown	116.98567	10/29/0116 09:19.37	00007019	21.915	Inter618t1-0	-1.105	1	2	220.390	24.444	-13.9	0.069	0.000	D	F	2000.1	221.575	0.212	-1.622	755.386	1218.490	0.122	-	-0.984	0.031	-	-	-	32	0.737	16.161	8.983	FREEWAY_SMOOTH	Urban	F	1011101000010101	0000000000000000	-	car	236.627	12.138	0.000	0.000	180.000	696.000	987.000	-0.000	Terminate	
"Student6Mode3"	"Tanvi_6"	"Nov 29, 2016 09:17:37 AM"	Unknown	117.98569	10/29/0116 09:19.38	00007079	21.279	Inter618t1-0	-0.531	1	2	215.071	24.444	-27.7	0.000	0.000	D	F	1456.9	215.508	0.173	-1.399	741.692	1201.775	0.144	-	-2.710	-0.642	-	-	-	32	0.689	14.657	12.607	FREEWAY_SMOOTH	Urban	F	1011101000010101	0000000000000000	-	car	217.223	11.132	0.000	0.000	180.000	696.000	987.000	-0.000	Terminate	
"Student6Mode3"	"Tanvi_6"	"Nov 29, 2016 09:17:37 AM"	Unknown	118.98571	10/29/0116 09:19.39	00007139	20.770	Inter618t1-0	-0.511	1	2	209.933	24.444	-8.5	0.049	0.000	D	F	1516.0	209.351	0.151	-1.584	730.372	1184.099	0.143	-	-1.384	-0.403	-	-	-	32	0.667	13.856	21.180	FREEWAY_SMOOTH	Urban	F	1011101000010101	0000000000000000	-	car	197.714	10.096	0.000	0.000	180.000	696.000	987.000	-0.000	Terminate	
"Student6Mode3"	"Tanvi_6"	"Nov 29, 2016 09:17:37 AM"	Unknown	119.98573	10/29/0116 09:19.40	00007199	20.349	Inter618t1-0	-0.402	1	2	204.896	24.444	-23.4	0.053	0.000	D	F	1491.5	204.784	0.166	-1.463	720.787	1165.914	0.146	-	-2.201	-0.404	-	-	-	32	0.662	13.479	57.771	FREEWAY_SMOOTH	Urban	F	1011101000010101	0000000000000000	-	car	178.263	9.155	0.000	0.000	180.000	696.000	987.000	-0.000	Terminate	
"Student6Mode3"	"Tanvi_6"	"Nov 29, 2016 09:17:37 AM"	Unknown	120.98576	10/29/0116 09:19.41	00007259	20.112	Inter618t1-0	-0.342	1	2	199.949	24.444	-12.7	0.198	0.000	D	F	1837.2	200.715	0.211	-1.634	713.016	1147.309	0.144	-	-1.002	0.202	-	-	-	32	0.655	13.164	-	FREEWAY_SMOOTH	Urban	F	1011101000010101	0000000000000000	-	car	158.851	8.164	0.000	0.000	180.000	696.000	987.000	-0.000	Terminate	
"Student6Mode3"	"Tanvi_6"	"Nov 29, 2016 09:17:37 AM"	Unknown	121.98577	10/29/0116 09:19.42	00007319	20.303	Inter618t1-0	0.152	1	2	195.028	24.444	-8.5	0.317	0.000	D	F	1981.1	196.889	0.208	-1.618	706.459	1128.224	0.158	-	-1.015	0.383	-	-	-	32	0.652	13.233	70.815	FREEWAY_SMOOTH	Urban	F	1011101000010101	0000000000000000	-	car	139.251	7.029	0.000	0.000	180.000	696.000	987.000	-0.000	Terminate	
"Student6Mode3"	"Tanvi_6"	"Nov 29, 2016 09:17:37 AM"	Unknown	122.98579	10/29/0116 09:19.43	00007379	20.850	Inter618t1-0	1.173	1	2	190.506	24.444	-19.5	0.430	0.000	D	F	2414.1	193.353	0.181	-1.231	700.929	1108.432	0.160	-	-1.651	0.649	-	-	-	32	0.513	10.693	14.565	FREEWAY_SMOOTH	Urban	F	1011101000010101	0000000000000000	-	car	119.172	5.823	0.000	0.000	180.000	696.000	987.000	-0.000	Terminate	
"Student6Mode3"	"Tanvi_6"	"Nov 29, 2016 09:17:37 AM"	Unknown	123.98581	10/29/0116 09:19.44	00007439	20.787	Inter618t1-1	-1.349	2	2	186.721	24.444	-21.8	0.000	0.000	D	F	1472.9	188.664	0.112	-0.890	696.734	1087.883	0.160	-	-2.031	-0.634	-	-	-	32	0.589	12.242	18.254	FREEWAY_SMOOTH	Urban	F	1011101000010101	0000000000000000	-	car	98.526	4.789	0.000	0.000	180.000	696.000	987.000	-0.000	Terminate	
"Student6Mode3"	"Tanvi_6"	"Nov 29, 2016 09:17:37 AM"	Unknown	124.98583	10/29/0116 09:19.45	00007499	20.315	Inter618t1-1	-1.128	2	2	183.820	24.444	-24.6	0.060	0.000	D	F	1510.9	181.547	0.037	-0.551	694.641	1067.489	0.131	-	-2.522	-0.333	-	-	-	32	0.584	11.856	59.583	FREEWAY_SMOOTH	Urban	F	1011101000010101	0000000000000000	-	car	78.141	3.850	0.000	0.000	180.000	696.000	987.000	-0.000	Terminate	
"Student6Mode3"	"Tanvi_6"	"Nov 29, 2016 09:17:37 AM"	Unknown	125.98586	10/29/0116 09:19.46	00007559	19.805	Inter618t1-0	1.353	1	2	181.765	24.444	4.9	0.000	0.000	D	F	1350.3	177.924	0.063	-0.597	694.792	1047.415	0.088	-	-0.103	-0.604	-	-	-	32	0.478	9.466	-	FREEWAY_SMOOTH	Urban	F	1011101000010101	0000000000000000	-	car	58.067	2.932	0.000	0.000	180.000	696.000	987.000	-0.000	Terminate	
"Student6Mode3"	"Tanvi_6"	"Nov 29, 2016 09:17:37 AM"	Unknown	126.98587	10/29/0116 09:19.47	00007619	19.200	Inter618t1-0	0.435	1	2	180.518	24.444	0.9	0.000	0.000	D	F	1309.1	179.139	0.109	-0.360	695.336	1027.920	0.056	-	0.315	-0.598	-	-	-	-	-	-	-	FREEWAY_SMOOTH	Urban	F	1111101000010101	0000000000000000	-	car	38.566	2.009	0.000	0.000	180.000	696.000	987.000	-0.000	Terminate	
"Student6Mode3"	"Tanvi_6"	"Nov 29, 2016 09:17:37 AM"	Unknown	127.98589	10/29/0116 09:19.48	00007679	16.802	Inter618t1-0	0.104	1	2	180.012	24.444	-4.4	0.000	0.460	D	F	1071.3	179.228	-0.010	-0.040	695.598	1009.388	0.046	-	-0.113	-5.603	-	-	-	-	-	-	-	FREEWAY_SMOOTH	Urban	F	1011101000010101	0000000000000000	-	car	20.919	1.404	1.900	2.000	177.244	696.041	986.114	-0.000	Terminate	
"Student6Mode3"	"Tanvi_6"	"Nov 29, 2016 09:17:37 AM"	Unknown	128.98592	10/29/0116 09:19.49	00007739	9.793	Inter686t1-0	0.304	1	1	180.000	11.111	-55.2	0.000	0.696	D	F	837.0	174.251	-0.260	0.309	696.092	995.959	0.043	-	-1.681	-7.946	-	-	-	car	0.817	8.004	1.358	PAVEMENT_GENERAL	Urban	F	1011101000010101	0000000000000000	-	car	10.364	1.770	3.900	2.000	176.816	696.211	983.236	-0.000	Terminate	
"Student6Mode3"	"Tanvi_6"	"Nov 29, 2016 09:17:37 AM"	Unknown	129.98593	10/29/0116 09:19.50	00007799	3.080	Inter686t1-0	-0.309	1	1	180.000	11.111	68.1	0.000	0.000	D	F	477.5	175.048	0.212	0.009	696.705	990.100	0.038	-	0.251	-0.423	-	-	-	car	2.281	7.026	-	PAVEMENT_GENERAL	Urban	F	1011101000010101	0000000000000000	-	car	9.391	-3.315	5.900	2.000	178.727	696.364	978.355	-0.000	Terminate	
"Student6Mode3"	"Tanvi_6"	"Nov 29, 2016 09:17:37 AM"	Unknown	130.98595	10/29/0116 09:19.51	00007859	5.151	Inter686t1-0	-0.374	1	1	180.000	11.111	32.5	0.349	0.000	D	F	2022.8	179.190	0.229	-0.040	696.770	986.403	0.011	-	0.255	3.310	-	-	-	car	1.983	10.213	-	PAVEMENT_GENERAL	Urban	F	1011101000010101	0000000000000000	-	car	12.577	-4.573	7.900	2.000	179.957	696.400	971.471	-0.000	Terminate	
"Student6Mode3"	"Tanvi_6"	"Nov 29, 2016 09:17:37 AM"	Unknown	131.98598	10/29/0116 09:19.52	00007919	8.178	Inter686t1-0	-0.314	1	1	180.000	11.111	-8.1	0.490	0.000	D	F	2658.3	180.352	0.230	0.032	696.710	979.708	0.013	-	-0.181	2.931	-	-	-	car	1.517	12.402	-	PAVEMENT_GENERAL	Urban	F	1011101000010101	0000000000000000	-	car	14.764	-8.576	9.900	2.000	180.013	696.397	962.588	-0.000	Terminate	
"Student6Mode3"	"Tanvi_6"	"Nov 29, 2016 09:17:37 AM"	Unknown	132.98599	10/29/0116 09:19.53	00007979	11.077	Inter686t1-0	-0.331	1	1	180.000	11.111	1.3	0.533	0.000	D	F	3436.3	179.832	0.226	-0.010	696.727	970.076	0.013	-	0.047	2.856	-	-	-	car	1.233	13.653	-	PAVEMENT_GENERAL	Urban	F	1011101000010101	0000000000000000	-	car	16.016	-19.439	11.900	2.000	180.003	696.397	951.704	-0.000	Terminate	
"Student6Mode3"	"Tanvi_6"	"Nov 29, 2016 09:17:37 AM"	Unknown	133.98601	10/29/0116 09:19.54	00008039	13.441	Inter686t1-0	-0.372	1	1	180.000	11.111	6.3	0.550	0.000	D	F	2527.6	179.944	0.207	-0.031	696.768	957.672	0.018	-	0.226	1.633	-	-	-	car	1.051	14.133	-	PAVEMENT_GENERAL	Urban	F	1011101000010101	0000000000000000	-	car	16.497	-35.944	13.900	2.000	180.003	696.397	938.820	-0.000	Terminate	
"Student6Mode3"	"Tanvi_6"	"Nov 29, 2016 09:17:37 AM"	Unknown	134.98604	10/29/0116 09:19.55	00008099	14.970	Inter686t1-0	-0.302	1	1	180.000	11.111	-1.3	0.540	0.000	D	F	2650.8	180.198	0.210	0.016	696.698	943.456	0.020	-	-0.118	1.482	-	-	-	car	0.989	14.801	-	PAVEMENT_GENERAL	Urban	F	1011101000010101	0000000000000000	-	car	17.163	-18.471	15.900	2.000	180.002	696.397	923.936	-0.000	Terminate	
"Student6Mode3"	"Tanvi_6"	"Nov 29, 2016 09:17:37 AM"	Unknown	135.98605	10/29/0116 09:19.56	00008159	16.449	Inter686t1-0	-0.258	1	1	180.000	11.111	-1.7	0.582	0.000	D	F	2858.6	180.200	0.208	0.006	696.654	927.747	0.020	-	-0.027	1.478	-	-	-	car	0.971	15.976	-	PAVEMENT_GENERAL	Urban	F	1011101000010101	0000000000000000	-	car	18.337	-12.641	17.900	2.000	180.002	696.397	907.052	-0.000	Terminate	
"Student6Mode3"	"Tanvi_6"	"Nov 29, 2016 09:17:37 AM"	Unknown	136.98607	10/29/0116 09:19.57	00008219	17.910	Inter686t1-0	-0.263	1	1	180.000	11.111	3.1	0.577	0.000	D	F	3073.4	179.967	0.206	-0.022	696.659	910.565	0.020	-	0.150	1.444	-	-	-	car	0.966	17.295	-	PAVEMENT_GENERAL	Urban	F	1011101000010101	0000000000000000	-	car	19.656	-17.752	19.017	1.000	180.002	696.397	888.551	-0.000	Terminate	
"Student6Mode3"	"Tanvi_6"	"Nov 29, 2016 09:17:37 AM"	Unknown	137.98610	10/29/0116 09:19.58	00008279	19.336	Inter686t1-0	-0.238	1	1	180.000	11.111	-0.4	0.575	0.000	D	F	3278.6	179.892	0.203	0.014	696.634	891.940	0.020	-	-0.129	1.411	-	-	-	car	0.930	17.980	-	PAVEMENT_GENERAL	Urban	F	1011101000010101	0000000000000000	-	car	20.341	-87.913	19.567	0.500	180.002	696.397	869.241	-0.000	Terminate	
"Student6Mode3"	"Tanvi_6"	"Nov 29, 2016 09:17:37 AM"	Unknown	138.98611	10/29/0116 09:19.59	00008339	20.724	Inter686t1-0	-0.244	1	1	180.000	11.111	3.2	0.563	0.000	D	F	3471.4	180.271	0.200	-0.032	696.640	871.905	0.020	-	0.243	1.366	-	-	-	car	0.857	17.759	27.037	PAVEMENT_GENERAL	Urban	F	1011101000010101	0000000000000000	-	car	20.120	30.595	20.067	0.500	180.002	696.397	849.427	-0.000	Terminate	
"Student6Mode3"	"Tanvi_6"	"Nov 29, 2016 09:17:37 AM"	Unknown	139.98613	10/29/0116 09:20.00	00008399	22.040	Inter686t1-0	-0.051	1	1	180.000	11.111	-2.9	0.243	0.000	D	F	2971.2	180.664	0.189	0.017	696.447	850.508	0.021	-	-0.099	0.898	-	-	-	car	0.748	16.475	8.563	PAVEMENT_GENERAL	Urban	F	1011101000010101	0000000000000000	-	car	18.834	9.794	20.116	0.000	180.002	696.397	829.314	-0.000	Terminate	
"Student6Mode3"	"Tanvi_6"	"Nov 29, 2016 09:17:37 AM"	Unknown	140.98616	10/29/0116 09:20.01	00008459	21.699	Inter686t1-0	0.117	1	1	180.000	11.111	-0.2	0.011	0.000	D	F	1505.6	180.297	0.177	-0.001	696.279	828.540	0.030	-	-0.012	-0.598	-	-	-	car	0.674	14.623	9.238	PAVEMENT_GENERAL	Urban	F	1011101000010101	0000000000000000	-	car	16.983	10.736	20.116	0.000	179.973	696.398	809.198	-0.000	Terminate	
"Student6Mode3"	"Tanvi_6"	"Nov 29, 2016 09:17:37 AM"	Unknown	141.98618	10/29/0116 09:20.02	00008519	21.088	Inter686t1-0	0.149	1	1	180.000	11.111	1.9	0.000	0.000	D	F	1438.1	179.644	0.178	0.011	696.247	807.142	0.030	-	-0.118	-0.621	-	-	-	car	0.633	13.341	13.732	PAVEMENT_GENERAL	Urban	F	1011101000010101	0000000000000000	-	car	15.701	16.151	20.116	0.000	179.997	696.403	789.082	-0.000	Terminate	
"Student6Mode3"	"Tanvi_6"	"Nov 29, 2016 09:17:37 AM"	Unknown	142.98619	10/29/0116 09:20.03	00008579	20.536	Inter682t1-1	0.119	1	1	180.000	11.111	-1.8	0.030	0.000	D	F	1420.6	179.999	0.182	0.010	696.285	786.345	0.029	-	-0.066	-0.483	-	-	-	car	0.616	12.659	30.158	PAVEMENT_GENERAL	Urban	F	1011101000010101	0000000000000000	-	car	15.019	35.781	20.116	0.000	179.997	696.403	768.966	-0.000	Terminate	
"Student6Mode3"	"Tanvi_6"	"Nov 29, 2016 09:17:37 AM"	Unknown	143.98621	10/29/0116 09:20.04	00008639	20.065	Inter682t1-1	0.102	1	1	180.000	11.111	0.4	0.039	0.000	D	F	1431.8	180.044	0.183	-0.009	696.302	766.047	0.029	-	0.068	-0.446	-	-	-	car	0.622	12.478	-	PAVEMENT_GENERAL	Urban	F	1011101000010101	0000000000000000	-	car	14.838	-290.484	20.116	0.000	179.996	696.403	748.850	-0.000	Terminate	
"Student6Mode3"	"Tanvi_6"	"Nov 29, 2016 09:17:37 AM"	Unknown	144.98624	10/29/0116 09:20.05	00008699	19.671	Inter682t1-1	0.081	1	1	180.000	11.111	-0.2	0.060	0.000	D	F	1471.7	179.769	0.184	0.004	696.323	746.188	0.028	-	-0.061	-0.354	-	-	-	car	0.647	12.735	-	PAVEMENT_GENERAL	Urban	F	1011101000010101	0000000000000000	-	car	15.094	-33.933	20.116	0.000	179.996	696.403	728.734	-0.000	Terminate	
"Student6Mode3"	"Tanvi_6"	"Nov 29, 2016 09:17:37 AM"	Unknown	145.98625	10/29/0116 09:20.06	00008759	19.355	Inter682t1-1	0.004	1	1	180.000	11.111	0.8	0.074	0.000	D	F	1485.5	179.793	0.186	-0.007	696.400	726.680	0.028	-	0.040	-0.288	-	-	-	car	0.689	13.342	-	PAVEMENT_GENERAL	Urban	F	1011101000010101	0000000000000000	-	car	15.702	-20.617	20.116	0.000	179.996	696.403	708.618	-0.000	Terminate	
"Student6Mode3"	"Tanvi_6"	"Nov 29, 2016 09:17:37 AM"	Unknown	146.98627	10/29/0116 09:20.07	00008819	19.169	Inter682t1-1	-0.055	1	1	180.000	11.111	0.5	0.166	0.000	D	F	1716.0	179.867	0.191	-0.004	696.459	707.440	0.027	-	0.033	0.027	-	-	-	car	0.742	14.219	-	PAVEMENT_GENERAL	Urban	F	1011101000010101	0000000000000000	-	car	16.578	-17.504	20.116	0.000	179.996	696.403	688.502	-0.000	Terminate	
"Student6Mode3"	"Tanvi_6"	"Nov 29, 2016 09:17:37 AM"	Unknown	147.98630	10/29/0116 09:20.08	00008879	19.421	Inter682t1-1	-0.108	1	1	180.000	11.111	1.3	0.289	0.000	D	F	1923.9	179.783	0.193	-0.002	696.512	688.175	0.025	-	0.013	0.377	-	-	-	car	0.776	15.069	-	PAVEMENT_GENERAL	Urban	F	1011101000010101	0000000000000000	-	car	17.429	-25.057	20.116	0.000	179.996	696.403	668.386	-0.000	Terminate	
"Student6Mode3"	"Tanvi_6"	"Nov 29, 2016 09:17:37 AM"	Unknown	148.98631	10/29/0116 09:20.09	00008939	19.780	Inter682t1-1	-0.150	1	1	180.000	11.111	-0.2	0.229	0.000	D	F	1889.2	179.923	0.190	0.001	696.554	668.562	0.025	-	-0.005	0.301	-	-	-	car	0.787	15.573	-	PAVEMENT_GENERAL	Urban	F	1011101000010101	0000000000000000	-	car	17.933	-53.312	20.116	0.000	179.996	696.403	648.270	-0.000	Terminate	
"Student6Mode3"	"Tanvi_6"	"Nov 29, 2016 09:17:37 AM"	Unknown	149.98633	10/29/0116 09:20.10	00008999	20.078	Inter682t1-1	-0.174	1	1	180.000	11.111	0.6	0.231	0.000	D	F	1900.3	179.978	0.190	-0.005	696.578	648.633	0.025	-	0.038	0.293	-	-	-	car	0.785	15.759	-	PAVEMENT_GENERAL	Urban	F	1011101000010101	0000000000000000	-	car	18.119	-475.909	20.116	0.000	179.996	696.403	628.154	-0.000	Terminate	
"Student6Mode3"	"Tanvi_6"	"Nov 29, 2016 09:17:37 AM"	Unknown	150.98636	10/29/0116 09:20.11	00009059	20.361	Inter682t1-1	-0.180	1	1	180.000	11.111	-0.8	0.229	0.000	D	F	1907.6	180.002	0.190	0.003	696.583	628.411	0.025	-	-0.009	0.275	-	-	-	car	0.769	15.654	63.979	PAVEMENT_GENERAL	Urban	F	1011101000010101	0000000000000000	-	car	18.014	73.652	20.116	0.000	180.028	696.401	608.039	-0.000	Terminate	
"Student6Mode3"	"Tanvi_6"	"Nov 29, 2016 09:17:37 AM"	Unknown	151.98637	10/29/0116 09:20.12	00009119	20.629	Inter682t1-1	-0.212	1	1	180.000	11.111	-8.0	0.215	0.000	D	F	1900.9	179.629	0.189	0.056	696.616	607.915	0.026	L	-0.377	0.257	-	-	-	car	0.740	15.257	16.717	PAVEMENT_GENERAL	Urban	F	1011101000110101	0000000000000000	-	car	17.618	19.349	19.716	-4.000	180.043	696.395	587.939	-0.000	Terminate	
"Student6Mode3"	"Tanvi_6"	"Nov 29, 2016 09:17:37 AM"	Unknown	152.98639	10/29/0116 09:20.13	00009179	20.192	Inter688t25-1	-0.724	1	1	180.000	11.111	-7.8	0.000	0.000	D	F	1376.7	176.844	0.176	0.126	697.120	587.443	0.030	L	-0.981	-0.608	-	-	-	car	0.621	12.535	2.800	PAVEMENT_GENERAL	Urban	F	1011101000110101	0000000000000000	-	car	14.910	3.394	15.716	-4.000	180.088	696.376	570.190	-0.000	Terminate	
