"Name"	"Project"	"Time"	ZoneName	Time	SystemTime	Frame	Velocity	LaneName	LanePos	LaneIndex	LaneCount	LaneHeading	SpeedLimit	Steer	Accel	Brake	Gear	Horn	SubjectEngineRPM	SubjectHeading	SubjectPitch	SubjectRoll	SubjectX	SubjectY	SubjectZ	Signal	LatAccel	LongAccel	Collision	CollisionAngle	CollisionVelocity	VehAhead	HeadwayTime	HeadwayDist	TTC	TerrainType	CultureType	Slip	DigitalInputs	DigitalInputs2	ActiveTrigger	EntityName	DistToEntity	TimeToEntity	EntityVelocity	EntityAccel	EntityHeading	EntityX	EntityY	EntityZ	GrabData	
"Student24Mode3"	"Tanvi_6"	"Feb 16, 2017 09:36:13 AM"	Unknown	0.98335	01/16/0117 09:36.17	00000059	0.002	Inter625t13-0	-0.088	1	2	0.000	11.111	-4.7	0.000	0.000	D	F	0.0	0.000	0.153	0.002	1503.500	523.206	0.019	-	0.000	0.000	-	-	-	-	-	-	-	PAVEMENT_GENERAL	Urban	F	1011101000011101	0000000000010000	-	car	928.855	774643.312	0.000	0.000	180.000	696.000	987.000	-0.000	Terminate	
"Student24Mode3"	"Tanvi_6"	"Feb 16, 2017 09:36:13 AM"	Unknown	1.98337	01/16/0117 09:36.18	00000119	0.000	Inter625t13-0	-0.088	1	2	0.000	11.111	-3.8	0.000	0.000	D	F	0.0	0.000	0.197	0.000	1503.500	523.208	0.026	-	-0.000	-0.001	-	-	-	-	-	-	-	PAVEMENT_GENERAL	Urban	F	1011101000011101	0000000000010000	-	car	928.855	4213138.500	0.000	0.000	180.000	696.000	987.000	-0.000	Terminate	
"Student24Mode3"	"Tanvi_6"	"Feb 16, 2017 09:36:13 AM"	Unknown	2.98339	01/16/0117 09:36.19	00000179	-0.000	Inter625t13-0	-0.088	1	2	0.000	11.111	-1.7	0.000	0.000	D	F	0.0	0.000	0.207	0.000	1503.500	523.208	0.028	-	0.000	-0.000	-	-	-	-	-	-	-	PAVEMENT_GENERAL	Urban	F	1011101000011101	0000000000010000	-	car	928.854	-116110504.000	0.000	0.000	180.000	696.000	987.000	-0.000	Terminate	
"Student24Mode3"	"Tanvi_6"	"Feb 16, 2017 09:36:13 AM"	Unknown	3.98341	01/16/0117 09:36.20	00000239	-0.000	Inter625t13-0	-0.088	1	2	0.000	11.111	-3.8	0.000	0.000	D	F	0.0	0.000	0.210	0.000	1503.500	523.208	0.028	-	0.000	-0.000	-	-	-	-	-	-	-	PAVEMENT_GENERAL	Urban	F	1011101000011101	0000000000010000	-	car	928.854	-22308322.000	0.000	0.000	180.000	696.000	987.000	-0.000	Terminate	
"Student24Mode3"	"Tanvi_6"	"Feb 16, 2017 09:36:13 AM"	Unknown	4.98343	01/16/0117 09:36.21	00000299	0.000	Inter625t13-0	-0.088	1	2	0.000	11.111	-3.9	0.000	0.000	D	F	300.0	0.000	0.209	0.000	1503.500	523.208	0.028	-	-0.000	0.001	-	-	-	-	-	-	-	PAVEMENT_GENERAL	Urban	F	1011101000011111	0000000000010000	-	car	928.854	8960956.000	0.000	0.000	180.000	696.000	987.000	-0.000	Terminate	
"Student24Mode3"	"Tanvi_6"	"Feb 16, 2017 09:36:13 AM"	Unknown	5.98345	01/16/0117 09:36.22	00000359	0.012	Inter625t13-0	-0.088	1	2	0.000	11.111	-2.6	0.000	0.000	D	F	477.5	0.000	0.202	-0.000	1503.500	523.212	0.025	-	-0.000	0.018	-	-	-	-	-	-	-	PAVEMENT_GENERAL	Urban	F	1011101000011101	0000000000010000	-	car	928.852	152226.641	0.000	0.000	180.000	696.000	987.000	-0.000	Terminate	
"Student24Mode3"	"Tanvi_6"	"Feb 16, 2017 09:36:13 AM"	Unknown	6.98347	01/16/0117 09:36.23	00000419	0.233	Inter625t13-0	-0.088	1	2	0.000	11.111	-2.2	0.034	0.000	D	F	750.0	0.000	0.221	-0.000	1503.500	523.274	0.023	-	-0.001	0.760	-	-	-	-	-	-	-	PAVEMENT_GENERAL	Urban	F	1011101000011101	0000000000010000	-	car	928.821	8010.738	0.000	0.000	180.000	696.000	987.000	-0.000	Terminate	
"Student24Mode3"	"Tanvi_6"	"Feb 16, 2017 09:36:13 AM"	Unknown	7.98349	01/16/0117 09:36.24	00000479	2.235	Inter625t13-0	-0.090	1	2	0.000	11.111	-2.2	0.129	0.000	D	F	1348.9	359.946	0.219	0.001	1503.498	524.331	0.015	-	-0.008	2.501	-	-	-	-	-	-	-	PAVEMENT_GENERAL	Urban	F	1011101000011101	0000000000010000	-	car	928.294	834.146	0.000	0.000	180.000	696.000	987.000	-0.000	Terminate	
"Student24Mode3"	"Tanvi_6"	"Feb 16, 2017 09:36:13 AM"	Unknown	8.98351	01/16/0117 09:36.25	00000539	4.605	Inter625t13-0	-0.102	1	2	0.000	11.111	-2.2	0.190	0.000	D	F	1765.9	359.785	0.225	0.002	1503.486	527.766	0.015	-	-0.018	2.296	-	-	-	-	-	-	-	PAVEMENT_GENERAL	Urban	F	1011101000011101	0000000000010000	-	car	926.580	404.310	0.000	0.000	180.000	696.000	987.000	-0.000	Terminate	
"Student24Mode3"	"Tanvi_6"	"Feb 16, 2017 09:36:13 AM"	Unknown	9.98353	01/16/0117 09:36.26	00000599	6.707	Inter625t49-0	-0.140	1	1	0.005	11.111	-1.6	0.210	0.000	D	F	2150.7	359.562	0.220	0.003	1503.448	533.467	0.017	-	-0.025	1.911	-	-	-	-	-	-	-	PAVEMENT_GENERAL	Urban	F	1011101000011101	0000000000010000	-	car	923.742	277.465	0.000	0.000	180.000	696.000	987.000	-0.000	Terminate	
"Student24Mode3"	"Tanvi_6"	"Feb 16, 2017 09:36:13 AM"	Unknown	10.98355	01/16/0117 09:36.27	00000659	8.393	Inter625t49-0	-0.219	1	1	0.006	11.111	-1.6	0.212	0.000	D	F	1837.8	359.324	0.212	0.005	1503.370	541.080	0.020	-	-0.037	1.376	-	-	-	-	-	-	-	PAVEMENT_GENERAL	Urban	F	1011101000011101	0000000000010000	-	car	919.969	221.988	0.000	0.000	180.000	696.000	987.000	-0.000	Terminate	
"Student24Mode3"	"Tanvi_6"	"Feb 16, 2017 09:36:13 AM"	Unknown	11.98357	01/16/0117 09:36.28	00000719	9.639	Inter625t49-0	-0.352	1	1	0.008	11.111	-1.8	0.206	0.000	D	F	1903.9	359.039	0.210	0.007	1503.238	550.111	0.021	-	-0.052	1.139	-	-	-	-	-	-	-	PAVEMENT_GENERAL	Urban	F	1011101000011101	0000000000010000	-	car	915.521	193.579	0.000	0.000	180.000	696.000	987.000	-0.000	Terminate	
"Student24Mode3"	"Tanvi_6"	"Feb 16, 2017 09:36:13 AM"	Unknown	12.98359	01/16/0117 09:36.29	00000779	10.670	Inter625t49-0	-0.555	1	1	0.006	11.111	-1.8	0.205	0.000	D	F	1975.8	358.720	0.209	0.008	1503.036	560.275	0.022	-	-0.059	0.980	-	-	-	-	-	-	-	PAVEMENT_GENERAL	Urban	F	1011101000011101	0000000000010000	-	car	910.548	175.201	0.000	0.000	180.000	696.000	987.000	-0.000	Terminate	
"Student24Mode3"	"Tanvi_6"	"Feb 16, 2017 09:36:13 AM"	Unknown	13.98361	01/16/0117 09:36.30	00000839	11.587	Inter625t49-0	-0.794	1	1	0.005	11.111	20.3	0.203	0.000	D	F	2064.1	359.337	0.206	-0.097	1502.798	571.411	0.022	-	0.655	0.852	-	-	-	-	-	-	-	PAVEMENT_GENERAL	Urban	F	1011101000011101	0000000000010000	-	car	905.185	166.861	0.000	0.000	180.000	696.000	987.000	-0.000	Terminate	
"Student24Mode3"	"Tanvi_6"	"Feb 16, 2017 09:36:13 AM"	Unknown	14.98363	01/16/0117 09:36.31	00000899	12.424	Inter625t15-0	-0.531	1	2	0.000	11.111	3.7	0.210	0.000	D	F	2167.6	2.559	0.205	-0.029	1503.062	583.416	0.023	-	0.261	0.828	-	-	-	-	-	-	-	PAVEMENT_GENERAL	Urban	F	1011101000011101	0000000000010000	-	car	899.987	178.037	0.000	0.000	180.000	696.000	987.000	-0.000	Terminate	
"Student24Mode3"	"Tanvi_6"	"Feb 16, 2017 09:36:13 AM"	Unknown	15.98365	01/16/0117 09:36.32	00000959	13.252	Inter625t15-0	0.016	1	2	0.000	11.111	-9.6	0.212	0.000	D	F	2276.5	1.907	0.205	0.046	1503.610	596.244	0.023	-	-0.388	0.819	-	-	-	-	-	-	-	PAVEMENT_GENERAL	Urban	F	1011101000011101	0000000000010000	-	car	894.816	166.586	0.000	0.000	180.000	696.000	987.000	-0.000	Terminate	
"Student24Mode3"	"Tanvi_6"	"Feb 16, 2017 09:36:13 AM"	Unknown	16.98367	01/16/0117 09:36.33	00001019	13.986	Inter614t1-0	0.233	1	2	0.000	11.111	-6.2	0.208	0.000	D	F	1876.0	0.000	0.201	0.038	1503.826	609.884	0.023	-	-0.345	0.619	-	-	-	-	-	-	-	PAVEMENT_GENERAL	Urban	F	1011101000011101	0000000000010000	-	car	889.156	150.151	0.000	0.000	180.000	696.000	987.000	-0.000	Terminate	
"Student24Mode3"	"Tanvi_6"	"Feb 16, 2017 09:36:13 AM"	Unknown	17.98369	01/16/0117 09:36.34	00001079	14.242	Inter614t1-0	0.121	1	2	0.000	11.111	-1.4	0.101	0.000	D	F	1606.4	359.218	0.192	0.011	1503.714	624.070	0.026	-	-0.093	-0.039	-	-	-	-	-	-	-	PAVEMENT_GENERAL	Urban	F	1011101000011101	0000000000010000	-	car	883.146	146.847	0.000	0.000	180.000	696.000	987.000	-0.000	Terminate	
"Student24Mode3"	"Tanvi_6"	"Feb 16, 2017 09:36:13 AM"	Unknown	18.98371	01/16/0117 09:36.35	00001139	14.430	Inter614t1-0	-0.092	1	2	0.000	11.111	3.0	0.157	0.000	D	F	1754.9	359.166	0.198	-0.013	1503.501	638.388	0.025	-	0.098	0.279	-	-	-	-	-	-	-	PAVEMENT_GENERAL	Urban	F	1011101000011101	0000000000010000	-	car	877.179	148.379	0.000	0.000	180.000	696.000	987.000	-0.000	Terminate	
"Student24Mode3"	"Tanvi_6"	"Feb 16, 2017 09:36:13 AM"	Unknown	19.98373	01/16/0117 09:36.36	00001199	14.742	Inter614t1-0	-0.234	1	2	0.000	11.111	2.2	0.166	0.000	D	F	1783.9	359.709	0.198	-0.015	1503.359	652.973	0.025	-	0.118	0.307	-	-	-	-	-	-	-	PAVEMENT_GENERAL	Urban	F	1011101000011101	0000000000010000	-	car	871.370	152.741	0.000	0.000	180.000	696.000	987.000	-0.000	Terminate	
"Student24Mode3"	"Tanvi_6"	"Feb 16, 2017 09:36:13 AM"	Unknown	20.98375	01/16/0117 09:36.37	00001259	15.044	Inter614t1-0	-0.270	1	2	0.000	11.111	0.6	0.166	0.000	D	F	1804.2	0.000	0.198	-0.006	1503.323	667.867	0.025	-	0.043	0.294	-	-	-	-	-	-	-	PAVEMENT_GENERAL	Urban	F	1011101000011101	0000000000010000	-	car	865.751	156.486	0.000	0.000	180.000	696.000	987.000	-0.000	Terminate	
"Student24Mode3"	"Tanvi_6"	"Feb 16, 2017 09:36:13 AM"	Unknown	21.98377	01/16/0117 09:36.38	00001319	15.332	Inter614t1-0	-0.265	1	2	0.000	11.111	0.0	0.168	0.000	D	F	1818.0	0.036	0.197	-0.000	1503.328	683.056	0.025	-	0.003	0.284	-	-	-	-	-	-	-	PAVEMENT_GENERAL	Urban	F	1011101000011101	0000000000010000	-	car	860.288	159.525	0.000	0.000	180.000	696.000	987.000	-0.000	Terminate	
"Student24Mode3"	"Tanvi_6"	"Feb 16, 2017 09:36:13 AM"	Unknown	22.98379	01/16/0117 09:36.39	00001379	15.595	Inter614t1-0	-0.253	1	2	0.000	11.111	-0.8	0.162	0.000	D	F	1822.1	0.066	0.196	0.001	1503.340	698.523	0.025	-	-0.011	0.244	-	-	-	-	-	-	-	PAVEMENT_GENERAL	Urban	F	1011101000011101	0000000000010000	-	car	854.972	163.467	0.000	0.000	180.000	696.000	987.000	-0.000	Terminate	
"Student24Mode3"	"Tanvi_6"	"Feb 16, 2017 09:36:13 AM"	Unknown	23.98381	01/16/0117 09:36.40	00001439	15.823	Inter614t1-0	-0.261	1	2	0.000	11.111	-1.1	0.160	0.000	D	F	1832.8	359.835	0.196	0.010	1503.332	714.234	0.025	-	-0.070	0.218	-	-	-	-	-	-	-	PAVEMENT_GENERAL	Urban	F	1011101000011101	0000000000010000	-	car	849.806	166.368	0.000	0.000	180.000	696.000	987.000	-0.000	Terminate	
"Student24Mode3"	"Tanvi_6"	"Feb 16, 2017 09:36:13 AM"	Unknown	24.98383	01/16/0117 09:36.41	00001499	16.030	Inter614t1-0	-0.323	1	2	0.000	11.111	-0.6	0.157	0.000	D	F	1845.2	359.715	0.196	0.004	1503.270	730.162	0.026	-	-0.031	0.203	-	-	-	-	-	-	-	PAVEMENT_GENERAL	Urban	F	1011101000011101	0000000000010000	-	car	844.783	171.149	0.000	0.000	180.000	696.000	987.000	-0.000	Terminate	
"Student24Mode3"	"Tanvi_6"	"Feb 16, 2017 09:36:13 AM"	Unknown	25.98385	01/16/0117 09:36.42	00001559	16.229	Inter614t1-0	-0.406	1	2	0.000	11.111	2.7	0.159	0.000	D	F	1862.4	359.792	0.195	-0.016	1503.187	746.292	0.026	-	0.118	0.200	-	-	-	-	-	-	-	PAVEMENT_GENERAL	Urban	F	1011101000011101	0000000000010000	-	car	839.953	178.927	0.000	0.000	180.000	696.000	987.000	-0.000	Terminate	
"Student24Mode3"	"Tanvi_6"	"Feb 16, 2017 09:36:13 AM"	Unknown	26.98387	01/16/0117 09:36.43	00001619	16.420	Inter614t1-0	-0.408	1	2	0.000	11.111	1.9	0.159	0.000	D	F	1874.9	0.218	0.195	-0.013	1503.185	762.617	0.026	-	0.111	0.188	-	-	-	-	-	-	-	PAVEMENT_GENERAL	Urban	F	1011101000011101	0000000000010000	-	car	835.432	192.612	0.000	0.000	180.000	696.000	987.000	-0.000	Terminate	
"Student24Mode3"	"Tanvi_6"	"Feb 16, 2017 09:36:13 AM"	Unknown	27.98389	01/16/0117 09:36.44	00001679	16.619	Inter614t1-0	-0.308	1	2	0.000	11.111	0.4	0.166	0.000	D	F	1899.1	0.456	0.195	-0.006	1503.285	779.135	0.026	-	0.033	0.207	-	-	-	-	-	-	-	PAVEMENT_GENERAL	Urban	F	1011101000011101	0000000000010000	-	car	831.257	207.004	0.000	0.000	180.000	696.000	987.000	-0.000	Terminate	
"Student24Mode3"	"Tanvi_6"	"Feb 16, 2017 09:36:13 AM"	Unknown	28.98391	01/16/0117 09:36.45	00001739	16.825	Inter614t1-0	-0.168	1	2	0.000	11.111	-0.2	0.164	0.000	D	F	1914.6	0.490	0.194	0.001	1503.425	795.857	0.026	-	-0.006	0.203	-	-	-	-	-	-	-	PAVEMENT_GENERAL	Urban	F	1011101000011101	0000000000010000	-	car	827.382	221.488	0.000	0.000	180.000	696.000	987.000	-0.000	Terminate	
"Student24Mode3"	"Tanvi_6"	"Feb 16, 2017 09:36:13 AM"	Unknown	29.98393	01/16/0117 09:36.46	00001799	17.002	Inter612t1-0	-0.046	1	2	0.000	11.111	-1.6	0.113	0.000	D	F	1843.0	0.269	0.190	0.012	1503.548	812.778	0.026	-	-0.094	0.023	-	-	-	-	-	-	-	PAVEMENT_GENERAL	Urban	F	1011101000011101	0000000000010000	-	car	823.768	234.866	0.000	0.000	180.000	696.000	987.000	-0.000	Terminate	
"Student24Mode3"	"Tanvi_6"	"Feb 16, 2017 09:36:13 AM"	Unknown	30.98395	01/16/0117 09:36.47	00001859	16.491	Inter612t1-0	-0.022	1	2	0.000	11.111	-2.2	0.000	0.000	D	F	1619.4	359.781	0.186	0.022	1503.572	829.562	0.029	-	-0.170	-0.601	-	-	-	-	-	-	-	PAVEMENT_GENERAL	Urban	F	1011101000011101	0000000000010000	-	car	820.415	254.996	0.000	0.000	180.000	696.000	987.000	-0.000	Terminate	
"Student24Mode3"	"Tanvi_6"	"Feb 16, 2017 09:36:13 AM"	Unknown	31.98397	01/16/0117 09:36.48	00001919	15.895	Inter612t1-0	-0.118	1	2	0.000	11.111	1.2	0.000	0.000	D	F	1560.8	359.640	0.188	-0.007	1503.475	845.754	0.029	-	0.053	-0.590	-	-	-	-	-	-	-	PAVEMENT_GENERAL	Urban	F	1011101000011101	0000000000010000	-	car	817.376	288.096	0.000	0.000	180.000	696.000	987.000	-0.000	Terminate	
"Student24Mode3"	"Tanvi_6"	"Feb 16, 2017 09:36:13 AM"	Unknown	32.98399	01/16/0117 09:36.49	00001979	15.310	Inter612t1-0	-0.182	1	2	0.000	11.111	0.9	0.000	0.000	D	F	1503.6	359.886	0.188	-0.008	1503.411	861.356	0.029	-	0.054	-0.581	-	-	-	-	-	-	-	PAVEMENT_GENERAL	Urban	F	1011101000011101	0000000000010000	-	car	814.769	341.739	0.000	0.000	180.000	696.000	987.000	-0.000	Terminate	
"Student24Mode3"	"Tanvi_6"	"Feb 16, 2017 09:36:13 AM"	Unknown	33.98401	01/16/0117 09:36.50	00002039	14.999	Inter612t1-0	-0.197	1	2	0.000	11.111	-0.4	0.046	0.000	D	F	1557.4	0.000	0.191	0.003	1503.396	876.475	0.027	-	-0.019	-0.268	-	-	-	-	-	-	-	PAVEMENT_GENERAL	Urban	F	1011101000011101	0000000000010000	-	car	812.566	397.088	0.000	0.000	180.000	696.000	987.000	-0.000	Terminate	
"Student24Mode3"	"Tanvi_6"	"Feb 16, 2017 09:36:13 AM"	Unknown	34.98403	01/16/0117 09:36.51	00002099	14.553	Inter612t1-0	-0.218	1	2	0.000	11.111	-0.4	0.000	0.000	D	F	1429.1	359.888	0.188	0.002	1503.375	891.284	0.029	-	-0.017	-0.568	-	-	-	-	-	-	-	PAVEMENT_GENERAL	Urban	F	1011101000011101	0000000000010000	-	car	810.670	465.507	0.000	0.000	180.000	696.000	987.000	-0.000	Terminate	
"Student24Mode3"	"Tanvi_6"	"Feb 16, 2017 09:36:13 AM"	Unknown	35.98405	01/16/0117 09:36.52	00002159	14.108	Inter612t1-0	-0.259	1	2	0.000	11.111	-0.3	0.063	0.000	D	F	1515.3	359.776	0.193	0.002	1503.334	905.580	0.028	-	-0.017	-0.218	-	-	-	-	-	-	-	PAVEMENT_GENERAL	Urban	F	1011101000011101	0000000000010000	-	car	809.069	550.204	0.000	0.000	180.000	696.000	987.000	-0.000	Terminate	
"Student24Mode3"	"Tanvi_6"	"Feb 16, 2017 09:36:13 AM"	Unknown	36.98407	01/16/0117 09:36.53	00002219	14.084	Inter612t1-0	-0.315	1	2	0.000	11.111	0.3	0.093	0.000	D	F	1584.7	359.796	0.196	-0.002	1503.278	919.657	0.026	-	0.017	0.015	-	-	-	-	-	-	-	PAVEMENT_GENERAL	Urban	F	1011101000011101	0000000000010000	-	car	807.723	661.697	0.000	0.000	180.000	696.000	987.000	-0.000	Terminate	
"Student24Mode3"	"Tanvi_6"	"Feb 16, 2017 09:36:13 AM"	Unknown	37.98409	01/16/0117 09:36.54	00002279	14.108	Inter612t1-0	-0.361	1	2	0.000	11.111	0.1	0.115	0.000	D	F	1623.4	359.821	0.197	-0.001	1503.232	933.747	0.026	-	0.006	0.066	-	-	-	-	-	-	-	PAVEMENT_GENERAL	Urban	F	1011101000011101	0000000000010000	-	car	806.627	829.325	0.000	0.000	180.000	696.000	987.000	-0.000	Terminate	
"Student24Mode3"	"Tanvi_6"	"Feb 16, 2017 09:36:13 AM"	Unknown	38.98411	01/16/0117 09:36.55	00002339	14.167	Inter612t1-0	-0.395	1	2	0.000	11.111	0.0	0.113	0.000	D	F	1632.3	359.909	0.197	-0.001	1503.198	947.884	0.026	-	0.008	0.069	-	-	-	-	-	-	-	PAVEMENT_GENERAL	Urban	F	1011101000011101	0000000000010000	-	car	805.786	1137.673	0.000	0.000	180.000	696.000	987.000	-0.000	Terminate	
"Student24Mode3"	"Tanvi_6"	"Feb 16, 2017 09:36:13 AM"	Unknown	39.98413	01/16/0117 09:36.56	00002399	14.236	Inter612t1-0	-0.408	1	2	0.000	11.111	1.2	0.136	0.000	D	F	1671.9	0.047	0.197	-0.008	1503.186	962.082	0.026	-	0.057	0.120	-	-	-	-	-	-	-	PAVEMENT_GENERAL	Urban	F	1011101000011101	0000000000010000	-	car	805.211	1882.922	0.000	0.000	180.000	696.000	987.000	-0.000	Terminate	
"Student24Mode3"	"Tanvi_6"	"Feb 16, 2017 09:36:13 AM"	Unknown	40.98415	01/16/0117 09:36.57	00002459	14.386	Inter612t1-0	-0.373	1	2	0.000	11.111	0.3	0.134	0.000	D	F	1679.4	0.215	0.197	-0.002	1503.220	976.396	0.026	-	0.023	0.153	-	-	-	-	-	-	-	PAVEMENT_GENERAL	Urban	F	1011101000011101	0000000000010000	-	car	804.930	5966.102	0.000	0.000	180.000	696.000	987.000	-0.000	Terminate	
"Student24Mode3"	"Tanvi_6"	"Feb 16, 2017 09:36:13 AM"	Unknown	41.98417	01/16/0117 09:36.58	00002519	14.439	Inter612t1-0	-0.321	1	2	0.000	11.111	-3.6	0.041	0.000	D	F	1495.4	0.101	0.190	0.021	1503.272	990.839	0.027	-	-0.139	-0.218	-	-	-	-	-	-	-	PAVEMENT_GENERAL	Urban	F	1011101000011101	0000000000010000	-	car	804.922	-8553.830	0.000	0.000	180.000	696.000	987.000	-0.000	Terminate	
"Student24Mode3"	"Tanvi_6"	"Feb 16, 2017 09:36:13 AM"	Unknown	42.98419	01/16/0117 09:36.59	00002579	13.959	Inter613t1-0	-0.399	1	2	0.000	11.111	3.4	0.042	0.000	D	F	1429.0	359.394	0.191	-0.013	1503.195	1005.029	0.028	-	0.067	-0.381	-	-	-	-	-	-	-	PAVEMENT_GENERAL	Urban	F	1011101000011101	0000000000010000	-	car	805.036	-4902.978	0.000	0.000	180.000	696.000	987.000	-0.000	Terminate	
"Student24Mode3"	"Tanvi_6"	"Feb 16, 2017 09:36:13 AM"	Unknown	43.98421	01/16/0117 09:37.00	00002639	13.755	Inter613t1-0	-0.485	1	2	0.000	11.111	-1.9	0.065	0.000	D	F	1491.5	359.683	0.194	0.012	1503.109	1018.871	0.027	-	-0.069	-0.160	-	-	-	-	-	-	-	PAVEMENT_GENERAL	Urban	F	1011101000011101	0000000000010000	-	car	805.378	-1725.716	0.000	0.000	180.000	696.000	987.000	-0.000	Terminate	
"Student24Mode3"	"Tanvi_6"	"Feb 16, 2017 09:36:13 AM"	Unknown	44.98423	01/16/0117 09:37.01	00002699	13.606	Inter613t1-0	-0.591	1	2	0.000	11.111	4.8	0.074	0.000	D	F	1503.6	359.572	0.196	-0.028	1503.002	1032.547	0.027	-	0.159	-0.107	-	-	-	-	-	-	-	PAVEMENT_GENERAL	Urban	F	1011101000011101	0000000000010000	-	car	805.927	-1211.638	0.000	0.000	180.000	696.000	987.000	-0.000	Terminate	
"Student24Mode3"	"Tanvi_6"	"Feb 16, 2017 09:36:13 AM"	Unknown	45.98425	01/16/0117 09:37.02	00002759	13.499	Inter613t1-0	-0.608	1	2	0.000	11.111	-1.1	0.078	0.000	D	F	1491.2	0.103	0.196	0.002	1502.985	1046.101	0.027	-	-0.015	-0.107	-	-	-	-	-	-	-	PAVEMENT_GENERAL	Urban	F	1011101000011101	0000000000010000	-	car	806.787	-798.682	0.000	0.000	180.000	696.000	987.000	-0.000	Terminate	
"Student24Mode3"	"Tanvi_6"	"Feb 16, 2017 09:36:13 AM"	Unknown	46.98427	01/16/0117 09:37.03	00002819	13.431	Inter613t1-0	-0.576	1	2	0.000	11.111	1.4	0.086	0.000	D	F	1517.0	0.318	0.196	-0.011	1503.017	1059.560	0.027	-	0.090	-0.043	-	-	-	-	-	-	-	PAVEMENT_GENERAL	Urban	F	1011101000011101	0000000000010000	-	car	807.913	-632.706	0.000	0.000	180.000	696.000	987.000	-0.000	Terminate	
"Student24Mode3"	"Tanvi_6"	"Feb 16, 2017 09:36:13 AM"	Unknown	47.98429	01/16/0117 09:37.04	00002879	13.337	Inter613t1-0	-0.496	1	2	0.000	11.111	-0.9	0.081	0.000	D	F	1492.2	0.332	0.196	0.002	1503.098	1072.941	0.027	-	-0.026	-0.075	-	-	-	-	-	-	-	PAVEMENT_GENERAL	Urban	F	1011101000011101	0000000000010000	-	car	809.301	-543.557	0.000	0.000	180.000	696.000	987.000	-0.000	Terminate	
"Student24Mode3"	"Tanvi_6"	"Feb 16, 2017 09:36:13 AM"	Unknown	48.98431	01/16/0117 09:37.05	00002939	13.273	Inter613t1-0	-0.434	1	2	0.000	11.111	-0.3	0.086	0.000	D	F	1507.0	0.215	0.196	0.002	1503.159	1086.242	0.027	-	-0.015	-0.044	-	-	-	-	-	-	-	PAVEMENT_GENERAL	Urban	F	1011101000011101	0000000000010000	-	car	810.878	-485.812	0.000	0.000	180.000	696.000	987.000	-0.000	Terminate	
"Student24Mode3"	"Tanvi_6"	"Feb 16, 2017 09:36:13 AM"	Unknown	49.98433	01/16/0117 09:37.06	00002999	13.333	Inter613t1-0	-0.373	1	2	0.000	11.111	1.9	0.141	0.000	D	F	1654.3	0.425	0.202	-0.012	1503.220	1099.521	0.026	-	0.095	0.245	-	-	-	-	-	-	-	PAVEMENT_GENERAL	Urban	F	1011101000011101	0000000000010000	-	car	812.665	-419.185	0.000	0.000	180.000	696.000	987.000	-0.000	Terminate	
"Student24Mode3"	"Tanvi_6"	"Feb 16, 2017 09:36:13 AM"	Unknown	50.98435	01/16/0117 09:37.07	00003059	13.683	Inter613t1-0	-0.247	1	2	0.000	11.111	0.3	0.166	0.000	D	F	1742.8	0.595	0.201	-0.002	1503.346	1113.021	0.025	-	0.014	0.379	-	-	-	-	-	-	-	PAVEMENT_GENERAL	Urban	F	1011101000011101	0000000000010000	-	car	814.763	-362.033	0.000	0.000	180.000	696.000	987.000	-0.000	Terminate	
"Student24Mode3"	"Tanvi_6"	"Feb 16, 2017 09:36:13 AM"	Unknown	51.98437	01/16/0117 09:37.08	00003119	14.111	Inter613t1-0	-0.107	1	2	0.000	11.111	-0.9	0.180	0.000	D	F	1793.7	0.501	0.200	0.007	1503.486	1126.914	0.024	-	-0.048	0.431	-	-	-	-	-	-	-	PAVEMENT_GENERAL	Urban	F	1011101000011101	0000000000010000	-	car	817.158	-322.899	0.000	0.000	180.000	696.000	987.000	-0.000	Terminate	
"Student24Mode3"	"Tanvi_6"	"Feb 16, 2017 09:36:13 AM"	Unknown	52.98439	01/16/0117 09:37.09	00003179	14.521	Inter613t1-0	0.021	1	2	0.000	11.111	-0.5	0.185	0.000	D	F	1830.8	0.524	0.200	0.003	1503.615	1141.228	0.024	-	-0.016	0.440	-	-	-	-	-	-	-	PAVEMENT_GENERAL	Urban	F	1011101000011101	0000000000010000	-	car	819.849	-287.248	0.000	0.000	180.000	696.000	987.000	-0.000	Terminate	
"Student24Mode3"	"Tanvi_6"	"Feb 16, 2017 09:36:13 AM"	Unknown	53.98441	01/16/0117 09:37.10	00003239	14.843	Inter613t1-0	0.137	1	2	0.000	11.111	-1.7	0.123	0.000	D	F	1701.6	0.351	0.192	0.011	1503.730	1155.932	0.025	-	-0.074	0.124	-	-	-	-	-	-	-	PAVEMENT_GENERAL	Urban	F	1011101000011101	0000000000010000	-	car	822.847	-263.095	0.000	0.000	180.000	696.000	987.000	-0.000	Terminate	
"Student24Mode3"	"Tanvi_6"	"Feb 16, 2017 09:36:13 AM"	Unknown	54.98443	01/16/0117 09:37.11	00003299	14.935	Inter613t1-0	0.187	1	2	0.000	11.111	-1.1	0.152	0.000	D	F	1756.7	0.032	0.197	0.008	1503.780	1170.806	0.026	-	-0.064	0.195	-	-	-	-	-	-	-	PAVEMENT_GENERAL	Urban	F	1011101000011101	0000000000010000	-	car	826.069	-248.689	0.000	0.000	180.000	696.000	987.000	-0.000	Terminate	
"Student24Mode3"	"Tanvi_6"	"Feb 16, 2017 09:36:13 AM"	Unknown	55.98445	01/16/0117 09:37.12	00003359	15.296	Inter613t1-0	0.171	1	2	0.000	11.111	-0.5	0.203	0.000	D	F	1905.1	359.858	0.199	0.004	1503.764	1185.901	0.025	-	-0.031	0.447	-	-	-	-	-	-	-	PAVEMENT_GENERAL	Urban	F	1011101000011101	0000000000010000	-	car	829.532	-229.136	0.000	0.000	180.000	696.000	987.000	-0.000	Terminate	
"Student24Mode3"	"Tanvi_6"	"Feb 16, 2017 09:36:13 AM"	Unknown	56.98447	01/16/0117 09:37.13	00003419	15.824	Inter615t9-0	0.120	1	2	0.000	11.111	1.3	0.224	0.000	D	F	1980.9	359.810	0.200	-0.008	1503.713	1201.453	0.024	-	0.046	0.559	-	-	-	-	-	-	-	PAVEMENT_GENERAL	Urban	F	1011101000011101	0000000000010000	-	car	833.338	-207.824	0.000	0.000	180.000	696.000	987.000	-0.000	Terminate	
"Student24Mode3"	"Tanvi_6"	"Feb 16, 2017 09:36:13 AM"	Unknown	57.98449	01/16/0117 09:37.14	00003479	16.369	Inter615t33-0	0.101	1	1	0.063	11.111	0.8	0.217	0.000	D	F	1995.3	0.057	0.198	-0.005	1503.695	1217.555	0.024	-	0.050	0.505	-	-	-	22	3.486	57.054	3.486	PAVEMENT_GENERAL	Urban	F	1111101000011101	0000000000010000	-	car	837.596	-185.784	0.000	0.000	180.000	696.000	987.000	-0.000	Terminate	
"Student24Mode3"	"Tanvi_6"	"Feb 16, 2017 09:36:13 AM"	Unknown	58.98451	01/16/0117 09:37.15	00003539	16.651	Inter615t33-0	0.107	1	1	0.112	11.111	-0.0	0.101	0.000	D	F	1798.4	0.091	0.188	0.000	1503.719	1234.132	0.027	-	-0.003	-0.103	-	-	-	22	2.435	40.550	2.435	PAVEMENT_GENERAL	Urban	F	1011101000011101	0000000000010000	-	car	842.320	-172.013	0.000	0.000	180.000	696.000	987.000	-0.000	Terminate	
"Student24Mode3"	"Tanvi_6"	"Feb 16, 2017 09:36:13 AM"	Unknown	59.98453	01/16/0117 09:37.16	00003599	15.896	Inter615t33-0	0.098	1	1	0.061	11.111	-0.0	0.000	0.188	D	F	1518.9	0.067	0.116	0.002	1503.742	1250.546	0.030	-	-0.008	-2.923	-	-	-	22	1.670	26.550	1.670	PAVEMENT_GENERAL	Urban	F	1011101000011101	0000000000010000	-	car	847.290	-171.230	0.000	0.000	180.000	696.000	987.000	-0.000	Terminate	
"Student24Mode3"	"Tanvi_6"	"Feb 16, 2017 09:36:13 AM"	Unknown	60.98455	01/16/0117 09:37.17	00003659	8.852	Inter615t33-0	0.101	1	1	0.061	11.111	0.0	0.000	0.794	D	F	769.6	0.075	-0.347	-0.000	1503.759	1263.408	0.045	-	0.001	-9.002	-	-	-	-	-	-	-	PAVEMENT_GENERAL	Urban	F	1011101000011101	0000000000010000	-	car	851.383	-295.945	0.000	0.000	180.000	696.000	987.000	-0.000	Terminate	
"Student24Mode3"	"Tanvi_6"	"Feb 16, 2017 09:36:13 AM"	Unknown	61.98457	01/16/0117 09:37.18	00003719	1.100	Inter615t11-1	0.102	2	2	0.000	11.111	0.0	0.000	0.233	D	F	477.5	0.078	0.026	0.000	1503.765	1267.932	0.041	-	0.000	-3.366	-	-	-	-	-	-	-	PAVEMENT_GENERAL	Urban	F	1011101000011101	0000000000010000	-	car	852.864	-2350.823	0.000	0.000	180.000	696.000	987.000	-0.000	Terminate	
"Student24Mode3"	"Tanvi_6"	"Feb 16, 2017 09:36:13 AM"	Unknown	62.98459	01/16/0117 09:37.19	00003779	0.737	Inter615t11-1	0.104	2	2	0.000	11.111	0.1	0.000	0.000	D	F	477.5	0.080	0.185	-0.000	1503.766	1268.716	0.029	-	-0.000	-0.031	-	-	-	-	-	-	-	PAVEMENT_GENERAL	Urban	F	1011101000011101	0000000000010000	-	car	853.123	-3500.108	0.000	0.000	180.000	696.000	987.000	-0.000	Terminate	
"Student24Mode3"	"Tanvi_6"	"Feb 16, 2017 09:36:13 AM"	Unknown	63.98461	01/16/0117 09:37.20	00003839	0.711	Inter615t11-1	0.105	2	2	0.000	11.111	0.3	0.000	0.000	D	F	477.5	0.085	0.195	0.000	1503.767	1269.440	0.027	-	-0.001	-0.022	-	-	-	-	-	-	-	PAVEMENT_GENERAL	Urban	F	1011101000011101	0000000000010000	-	car	853.362	-3619.946	0.000	0.000	180.000	696.000	987.000	-0.000	Terminate	
"Student24Mode3"	"Tanvi_6"	"Feb 16, 2017 09:36:13 AM"	Unknown	64.98463	01/16/0117 09:37.21	00003899	0.693	Inter615t11-1	0.106	2	2	0.000	11.111	0.2	0.000	0.000	D	F	477.5	0.088	0.202	0.000	1503.768	1270.141	0.026	-	0.000	-0.016	-	-	-	-	-	-	-	PAVEMENT_GENERAL	Urban	F	1011101000011101	0000000000010000	-	car	853.595	-3708.128	0.000	0.000	180.000	696.000	987.000	-0.000	Terminate	
"Student24Mode3"	"Tanvi_6"	"Feb 16, 2017 09:36:13 AM"	Unknown	65.98465	01/16/0117 09:37.22	00003959	1.564	Inter615t11-1	0.107	2	2	0.000	11.111	0.6	0.099	0.000	D	F	1222.8	0.096	0.230	-0.000	1503.770	1271.008	0.020	-	0.001	2.454	-	-	-	-	-	-	-	PAVEMENT_GENERAL	Urban	F	1011101000011101	0000000000010000	-	car	853.884	-1637.772	0.000	0.000	180.000	696.000	987.000	-0.000	Terminate	
"Student24Mode3"	"Tanvi_6"	"Feb 16, 2017 09:36:13 AM"	Unknown	66.98467	01/16/0117 09:37.23	00004019	3.749	Inter615t11-1	0.113	2	2	0.000	11.111	0.8	0.143	0.000	D	F	1534.8	0.113	0.225	-0.002	1503.775	1273.688	0.017	L	0.009	2.063	-	-	-	-	-	-	-	PAVEMENT_GENERAL	Urban	F	1011101000111101	0000000000010000	-	car	854.782	-678.022	0.000	0.000	180.000	696.000	987.000	-0.000	Terminate	
"Student24Mode3"	"Tanvi_6"	"Feb 16, 2017 09:36:13 AM"	Unknown	67.98470	01/16/0117 09:37.24	00004079	5.502	Inter615t11-1	0.110	2	2	0.000	11.111	-8.3	0.145	0.000	D	F	1790.3	359.857	0.213	0.016	1503.772	1278.370	0.019	-	-0.110	1.409	-	-	-	-	-	-	-	PAVEMENT_GENERAL	Urban	F	1011101000011101	0000000000010000	-	car	856.356	-461.895	0.000	0.000	180.000	696.000	987.000	-0.000	Terminate	
"Student24Mode3"	"Tanvi_6"	"Feb 16, 2017 09:36:13 AM"	Unknown	68.98471	01/16/0117 09:37.25	00004139	6.705	Inter615t67-0	-0.069	1	1	359.884	11.111	-34.2	0.141	0.000	D	F	1538.2	357.235	0.209	0.068	1503.588	1284.517	0.021	-	-0.525	0.957	-	-	-	-	-	-	-	PAVEMENT_GENERAL	Urban	F	1011101000011101	0000000000010000	-	car	858.288	-426.643	0.000	0.000	180.000	696.000	987.000	-0.000	Terminate	
"Student24Mode3"	"Tanvi_6"	"Feb 16, 2017 09:36:13 AM"	Unknown	69.98473	01/16/0117 09:37.26	00004199	7.342	Inter615t67-0	-1.019	1	1	359.884	11.111	-130.7	0.030	0.000	D	F	1208.0	348.038	0.171	0.338	1502.624	1291.568	0.026	-	-2.467	-0.323	-	-	-	-	-	-	-	PAVEMENT_GENERAL	Urban	F	1011101000011101	0000000000010000	-	car	859.849	-772.122	0.000	0.000	180.000	696.000	987.000	-0.000	Terminate	
"Student24Mode3"	"Tanvi_6"	"Feb 16, 2017 09:36:13 AM"	Unknown	70.98476	01/16/0117 09:37.27	00004259	6.947	-Inter615t59-0	-1.502	-1	1	89.733	11.111	-206.2	0.011	0.000	D	F	1064.0	323.860	0.151	0.464	1499.407	1297.915	0.030	-	-3.475	-0.758	-	-	-	-	-	-	-	PAVEMENT_GENERAL	Urban	F	1011101000011101	0000000000010000	-	car	859.111	478.288	0.000	0.000	180.000	696.000	987.000	-0.000	Terminate	
"Student24Mode3"	"Tanvi_6"	"Feb 16, 2017 09:36:13 AM"	Unknown	71.98477	01/16/0117 09:37.28	00004319	6.724	-Inter615t85-0	-1.078	-1	1	179.883	11.111	-164.1	0.090	0.000	D	F	1385.9	295.816	0.174	0.301	1493.900	1301.759	0.027	-	-2.441	0.139	-	-	-	22	1.222	8.217	-	PAVEMENT_GENERAL	Urban	F	1011101000011101	0000000000010000	-	car	855.381	187.747	0.000	0.000	180.000	696.000	987.000	-0.000	Terminate	
"Student24Mode3"	"Tanvi_6"	"Feb 16, 2017 09:36:13 AM"	Unknown	72.98479	01/16/0117 09:37.29	00004379	7.607	Inter615t75-0	-0.222	1	1	269.734	11.111	-88.7	0.182	0.000	D	F	1698.2	277.607	0.206	0.196	1487.000	1303.334	0.022	-	-1.614	1.160	-	-	-	22	1.920	14.609	-	PAVEMENT_GENERAL	Urban	F	1011101000011101	0000000000010000	-	car	849.549	128.187	0.000	0.000	180.000	696.000	987.000	-0.000	Terminate	
"Student24Mode3"	"Tanvi_6"	"Feb 16, 2017 09:36:13 AM"	Unknown	73.98481	01/16/0117 09:37.30	00004439	9.019	Inter615t3-3	0.018	1	2	270.000	11.111	-4.7	0.268	0.000	D	F	1938.9	269.617	0.214	0.009	1478.714	1303.549	0.019	-	-0.138	1.485	-	-	-	22	2.253	20.324	-	PAVEMENT_GENERAL	Urban	F	1011101000011101	0000000000010000	-	car	841.941	100.428	0.000	0.000	180.000	696.000	987.000	-0.000	Terminate	
"Student24Mode3"	"Tanvi_6"	"Feb 16, 2017 09:36:13 AM"	Unknown	74.98483	01/16/0117 09:37.31	00004499	10.542	Inter615t3-3	-0.043	1	2	270.000	11.111	4.6	0.321	0.000	D	F	2118.0	269.969	0.215	-0.016	1468.938	1303.488	0.019	-	0.149	1.542	-	-	-	22	2.271	23.946	-	PAVEMENT_GENERAL	Urban	F	1011101000011101	0000000000010000	-	car	832.864	85.349	0.000	0.000	180.000	696.000	987.000	-0.000	Terminate	
"Student24Mode3"	"Tanvi_6"	"Feb 16, 2017 09:36:13 AM"	Unknown	75.98486	01/16/0117 09:37.32	00004559	11.967	Inter615t19-0	0.025	1	1	270.091	11.111	2.8	0.312	0.000	D	F	2223.3	270.691	0.211	-0.015	1457.666	1303.566	0.020	-	0.113	1.339	-	-	-	22	2.736	32.747	-	PAVEMENT_GENERAL	Urban	F	1011101000011101	0000000000010000	-	car	822.473	74.809	0.000	0.000	180.000	696.000	987.000	-0.000	Terminate	
"Student24Mode3"	"Tanvi_6"	"Feb 16, 2017 09:36:13 AM"	Unknown	76.98487	01/16/0117 09:37.33	00004619	13.242	Inter615t19-0	0.212	1	1	270.096	11.111	-7.8	0.303	0.000	D	F	2368.5	271.074	0.209	0.030	1445.056	1303.771	0.021	-	-0.179	1.235	-	-	-	22	2.950	39.061	-	PAVEMENT_GENERAL	Urban	F	1011101000011101	0000000000010000	-	car	810.923	67.033	0.000	0.000	180.000	696.000	987.000	-0.000	Terminate	
"Student24Mode3"	"Tanvi_6"	"Feb 16, 2017 09:36:13 AM"	Unknown	77.98489	01/16/0117 09:37.34	00004679	14.434	Inter615t19-0	0.237	1	1	270.061	11.111	-2.6	0.298	0.000	D	F	2504.7	269.429	0.206	0.022	1431.212	1303.821	0.021	-	-0.213	1.155	-	-	-	22	3.101	44.762	-	PAVEMENT_GENERAL	Urban	F	1011101000011101	0000000000010000	-	car	798.211	59.961	0.000	0.000	180.000	696.000	987.000	-0.000	Terminate	
"Student24Mode3"	"Tanvi_6"	"Feb 16, 2017 09:36:13 AM"	Unknown	78.98492	01/16/0117 09:37.35	00004739	15.551	Inter615t1-2	0.035	1	2	270.000	11.111	-1.4	0.289	0.000	D	F	2662.7	269.145	0.205	0.010	1416.216	1303.635	0.021	-	-0.074	1.085	-	-	-	22	3.201	49.776	-	PAVEMENT_GENERAL	Urban	F	1011101000011101	0000000000010000	-	car	784.386	54.747	0.000	0.000	180.000	696.000	987.000	-0.000	Terminate	
"Student24Mode3"	"Tanvi_6"	"Feb 16, 2017 09:36:13 AM"	Unknown	79.98493	01/16/0117 09:37.36	00004799	16.609	Inter615t1-2	-0.245	1	2	270.000	11.111	-0.4	0.287	0.000	D	F	2810.9	268.822	0.203	0.010	1400.134	1303.355	0.022	-	-0.068	1.033	-	-	-	22	3.097	51.432	-	PAVEMENT_GENERAL	Urban	F	1011101000011101	0000000000010000	-	car	769.577	50.343	0.000	0.000	180.000	696.000	987.000	-0.000	Terminate	
"Student24Mode3"	"Tanvi_6"	"Feb 16, 2017 09:36:13 AM"	Unknown	80.98495	01/16/0117 09:37.37	00004859	17.625	Inter616t1-2	-0.498	1	2	270.000	11.111	4.5	0.284	0.000	D	F	2377.9	269.850	0.192	-0.047	1383.017	1303.109	0.022	-	0.362	0.838	-	-	-	22	3.223	56.809	-	PAVEMENT_GENERAL	Urban	F	1011101000011101	0000000000010000	-	car	753.893	47.029	0.000	0.000	180.000	696.000	987.000	-0.000	Terminate	
"Student24Mode3"	"Tanvi_6"	"Feb 16, 2017 09:36:13 AM"	Unknown	81.98497	01/16/0117 09:37.38	00004919	18.169	Inter616t1-2	-0.488	1	2	270.000	11.111	2.8	0.164	0.000	D	F	2023.2	270.292	0.182	-0.022	1365.072	1303.119	0.025	-	0.170	0.126	-	-	-	22	3.246	58.984	-	PAVEMENT_GENERAL	Urban	F	1011101000011101	0000000000010000	-	car	737.633	45.011	0.000	0.000	180.000	696.000	987.000	-0.000	Terminate	
"Student24Mode3"	"Tanvi_6"	"Feb 16, 2017 09:36:13 AM"	Unknown	82.98499	01/16/0117 09:37.39	00004979	17.873	Inter616t1-2	-0.346	1	2	270.000	11.111	-2.7	0.000	0.000	D	F	1283.1	270.437	0.184	0.025	1346.984	1303.261	0.029	-	-0.152	-0.562	-	-	-	22	3.414	61.016	-	PAVEMENT_GENERAL	Urban	F	1011101000011101	0000000000010000	-	car	721.382	45.042	0.000	0.000	180.000	696.000	987.000	-0.000	Terminate	
"Student24Mode3"	"Tanvi_6"	"Feb 16, 2017 09:36:13 AM"	Unknown	83.98502	01/16/0117 09:37.40	00005039	17.323	Inter616t1-2	-0.252	1	2	270.000	11.111	1.2	0.019	0.000	D	F	1192.6	270.322	0.187	-0.010	1329.393	1303.355	0.029	-	0.076	-0.487	-	-	-	22	3.654	63.300	-	PAVEMENT_GENERAL	Urban	F	1011101000011101	0000000000010000	-	car	705.642	45.662	0.000	0.000	180.000	696.000	987.000	-0.000	Terminate	
"Student24Mode3"	"Tanvi_6"	"Feb 16, 2017 09:36:13 AM"	Unknown	84.98503	01/16/0117 09:37.41	00005099	16.868	Inter616t1-2	-0.122	1	2	270.000	11.111	0.2	0.019	0.000	D	F	1184.2	270.555	0.188	-0.003	1312.298	1303.485	0.029	-	0.034	-0.456	-	-	-	22	3.871	65.296	-	PAVEMENT_GENERAL	Urban	F	1011101000011101	0000000000010000	-	car	690.451	46.247	0.000	0.000	180.000	696.000	987.000	-0.000	Terminate	
"Student24Mode3"	"Tanvi_6"	"Feb 16, 2017 09:36:13 AM"	Unknown	85.98505	01/16/0117 09:37.42	00005159	16.427	Inter616t1-2	0.048	1	2	270.000	11.111	0.3	0.026	0.000	D	F	1191.4	270.644	0.189	-0.004	1295.654	1303.655	0.029	-	0.026	-0.424	-	-	-	22	4.074	66.918	-	PAVEMENT_GENERAL	Urban	F	1011101000011101	0000000000010000	-	car	675.767	46.800	0.000	0.000	180.000	696.000	987.000	-0.000	Terminate	
"Student24Mode3"	"Tanvi_6"	"Feb 16, 2017 09:36:13 AM"	Unknown	86.98507	01/16/0117 09:37.43	00005219	16.035	Inter616t1-2	0.195	1	2	270.000	11.111	-4.5	0.039	0.000	D	F	1210.1	270.143	0.190	0.040	1279.430	1303.802	0.028	-	-0.287	-0.364	-	-	-	22	4.255	68.232	-	PAVEMENT_GENERAL	Urban	F	1011101000011101	0000000000010000	-	car	661.533	47.011	0.000	0.000	180.000	696.000	987.000	-0.000	Terminate	
"Student24Mode3"	"Tanvi_6"	"Feb 16, 2017 09:36:13 AM"	Unknown	87.98509	01/16/0117 09:37.44	00005279	15.678	Inter616t1-2	0.148	1	2	270.000	11.111	-0.8	0.044	0.000	D	F	1199.1	269.628	0.191	0.005	1263.575	1303.754	0.028	-	-0.048	-0.338	-	-	-	22	4.420	69.289	-	PAVEMENT_GENERAL	Urban	F	1011101000011101	0000000000010000	-	car	647.621	47.136	0.000	0.000	180.000	696.000	987.000	-0.000	Terminate	
"Student24Mode3"	"Tanvi_6"	"Feb 16, 2017 09:36:13 AM"	Unknown	88.98512	01/16/0117 09:37.45	00005339	15.476	Inter616t1-2	0.032	1	2	270.000	11.111	-0.3	0.108	0.000	D	F	1455.5	269.531	0.192	0.002	1248.040	1303.639	0.026	-	-0.016	-0.006	-	-	-	22	4.529	70.093	-	PAVEMENT_GENERAL	Urban	F	1011101000011101	0000000000010000	-	car	634.043	47.012	0.000	0.000	180.000	696.000	987.000	-0.000	Terminate	
"Student24Mode3"	"Tanvi_6"	"Feb 16, 2017 09:36:13 AM"	Unknown	89.98513	01/16/0117 09:37.46	00005399	15.379	Inter616t1-2	-0.101	1	2	270.000	11.111	1.4	0.063	0.000	D	F	1289.9	269.483	0.192	-0.003	1232.607	1303.506	0.027	-	0.029	-0.192	-	-	-	22	4.584	70.497	-	PAVEMENT_GENERAL	Urban	F	1011101000011101	0000000000010000	-	car	620.636	46.606	0.000	0.000	180.000	696.000	987.000	-0.000	Terminate	
"Student24Mode3"	"Tanvi_6"	"Feb 16, 2017 09:36:13 AM"	Unknown	90.98515	01/16/0117 09:37.47	00005459	15.358	Inter616t1-2	-0.163	1	2	270.000	11.111	2.7	0.132	0.000	D	F	1509.1	270.156	0.195	-0.023	1217.264	1303.443	0.026	-	0.177	0.081	-	-	-	22	4.590	70.497	300.630	PAVEMENT_GENERAL	Urban	F	1011101000011101	0000000000010000	-	car	607.438	46.346	0.000	0.000	180.000	696.000	987.000	-0.000	Terminate	
"Student24Mode3"	"Tanvi_6"	"Feb 16, 2017 09:36:13 AM"	Unknown	91.98518	01/16/0117 09:37.48	00005519	15.356	Inter616t1-2	-0.084	1	2	270.000	11.111	-1.4	0.088	0.000	D	F	1387.1	270.296	0.192	0.009	1201.884	1303.523	0.027	-	-0.068	-0.121	-	-	-	22	4.412	67.752	140.509	PAVEMENT_GENERAL	Urban	F	1011101000011101	0000000000010000	-	car	594.386	45.808	0.000	0.000	180.000	696.000	987.000	-0.000	Terminate	
"Student24Mode3"	"Tanvi_6"	"Feb 16, 2017 09:36:13 AM"	Unknown	92.98519	01/16/0117 09:37.49	00005579	15.374	Inter617t1-2	-0.038	1	2	270.000	11.111	-1.0	0.123	0.000	D	F	1500.3	270.042	0.195	0.007	1186.538	1303.569	0.026	-	-0.056	0.098	-	-	-	22	4.520	69.499	92.567	PAVEMENT_GENERAL	Urban	F	1011101000011101	0000000000010000	-	car	581.459	45.033	0.000	0.000	180.000	696.000	987.000	-0.000	Terminate	
"Student24Mode3"	"Tanvi_6"	"Feb 16, 2017 09:36:13 AM"	Unknown	93.98521	01/16/0117 09:37.50	00005639	15.380	Inter617t1-2	-0.040	1	2	270.000	11.111	0.5	0.111	0.000	D	F	1473.9	269.983	0.195	-0.004	1171.162	1303.567	0.026	-	0.018	0.028	-	-	-	22	4.463	68.639	71.125	PAVEMENT_GENERAL	Urban	F	1011101000011101	0000000000010000	-	car	568.599	44.414	0.000	0.000	180.000	696.000	987.000	-0.000	Terminate	
"Student24Mode3"	"Tanvi_6"	"Feb 16, 2017 09:36:13 AM"	Unknown	94.98523	01/16/0117 09:37.51	00005699	15.405	Inter617t1-2	-0.045	1	2	270.000	11.111	-0.2	0.123	0.000	D	F	1489.5	269.944	0.195	0.002	1155.771	1303.562	0.026	-	-0.018	0.039	-	-	-	22	4.387	67.583	58.470	PAVEMENT_GENERAL	Urban	F	1011101000011101	0000000000010000	-	car	555.852	43.780	0.000	0.000	180.000	696.000	987.000	-0.000	Terminate	
"Student24Mode3"	"Tanvi_6"	"Feb 16, 2017 09:36:13 AM"	Unknown	95.98525	01/16/0117 09:37.52	00005759	15.522	Inter617t1-2	-0.061	1	2	270.000	11.111	-0.1	0.136	0.000	D	F	1532.3	269.942	0.195	0.000	1140.308	1303.546	0.026	-	-0.003	0.105	-	-	-	22	4.271	66.299	47.405	PAVEMENT_GENERAL	Urban	F	1011101000011101	0000000000010000	-	car	543.178	42.935	0.000	0.000	180.000	696.000	987.000	-0.000	Terminate	
"Student24Mode3"	"Tanvi_6"	"Feb 16, 2017 09:36:13 AM"	Unknown	96.98528	01/16/0117 09:37.53	00005819	15.629	Inter617t1-2	-0.079	1	2	270.000	11.111	0.0	0.146	0.000	D	F	1564.9	269.923	0.196	0.000	1124.735	1303.528	0.026	-	-0.001	0.139	-	-	-	22	4.145	64.778	39.723	PAVEMENT_GENERAL	Urban	F	1011101000011101	0000000000010000	-	car	530.561	42.154	0.000	0.000	180.000	696.000	987.000	-0.000	Terminate	
"Student24Mode3"	"Tanvi_6"	"Feb 16, 2017 09:36:13 AM"	Unknown	97.98529	01/16/0117 09:37.54	00005879	15.788	Inter617t1-2	-0.090	1	2	270.000	11.111	1.4	0.150	0.000	D	F	1559.0	270.066	0.193	-0.010	1109.030	1303.517	0.026	-	0.073	0.122	-	-	-	22	3.991	63.015	32.920	PAVEMENT_GENERAL	Urban	F	1011101000011101	0000000000010000	-	car	518.002	41.373	0.000	0.000	180.000	696.000	987.000	-0.000	Terminate	
"Student24Mode3"	"Tanvi_6"	"Feb 16, 2017 09:36:13 AM"	Unknown	98.98531	01/16/0117 09:37.55	00005939	15.919	Inter617t1-2	-0.058	1	2	270.000	11.111	-1.1	0.155	0.000	D	F	1584.5	270.047	0.195	0.010	1093.179	1303.549	0.026	-	-0.071	0.139	-	-	-	22	3.846	61.219	52.332	PAVEMENT_GENERAL	Urban	F	1011101000011101	0000000000010000	-	car	505.532	40.636	0.000	0.000	180.000	696.000	987.000	-0.000	Terminate	
"Student24Mode3"	"Tanvi_6"	"Feb 16, 2017 09:36:13 AM"	Unknown	99.98534	01/16/0117 09:37.56	00005999	16.050	Inter617t1-2	-0.068	1	2	270.000	11.111	-0.2	0.145	0.000	D	F	1569.1	269.887	0.194	0.003	1077.192	1303.539	0.026	-	-0.022	0.112	-	-	-	22	3.798	60.965	-	PAVEMENT_GENERAL	Urban	F	1011101000011101	0000000000010000	-	car	493.124	39.872	0.000	0.000	180.000	696.000	987.000	-0.000	Terminate	
"Student24Mode3"	"Tanvi_6"	"Feb 16, 2017 09:36:13 AM"	Unknown	100.98535	01/16/0117 09:37.57	00006059	16.158	Inter617t1-2	-0.093	1	2	270.000	11.111	0.7	0.146	0.000	D	F	1572.9	269.982	0.194	-0.006	1061.088	1303.514	0.026	-	0.045	0.109	-	-	-	-	-	-	-	PAVEMENT_GENERAL	Urban	F	1011101000011101	0000000000010000	-	car	480.828	39.374	0.000	0.000	180.000	696.000	987.000	-0.000	Terminate	
"Student24Mode3"	"Tanvi_6"	"Feb 16, 2017 09:36:13 AM"	Unknown	101.98537	01/16/0117 09:37.58	00006119	15.788	Inter617t1-2	-0.085	1	2	270.000	11.111	0.2	0.000	0.000	D	F	1076.7	270.074	0.188	-0.003	1045.051	1303.522	0.029	-	0.019	-0.542	-	-	-	-	-	-	-	PAVEMENT_GENERAL	Urban	F	1011101000011101	0000000000010000	-	car	468.833	40.134	0.000	0.000	180.000	696.000	987.000	-0.000	Terminate	
"Student24Mode3"	"Tanvi_6"	"Feb 16, 2017 09:36:13 AM"	Unknown	102.98539	01/16/0117 09:37.59	00006179	15.353	Inter617t1-2	-0.055	1	2	270.000	11.111	1.5	0.104	0.000	D	F	1463.8	270.181	0.197	-0.009	1029.520	1303.552	0.027	-	0.062	-0.081	-	-	-	-	-	-	-	PAVEMENT_GENERAL	Urban	F	1011101000011101	0000000000010000	-	car	457.467	41.204	0.000	0.000	180.000	696.000	987.000	-0.000	Terminate	
"Student24Mode3"	"Tanvi_6"	"Feb 16, 2017 09:36:13 AM"	Unknown	103.98541	01/16/0117 09:38.00	00006239	15.265	Inter617t1-2	0.026	1	2	270.000	11.111	1.1	0.018	0.000	D	F	1131.3	270.431	0.175	-0.009	1014.174	1303.633	0.028	-	0.066	-0.512	-	-	-	-	-	-	-	PAVEMENT_GENERAL	Urban	F	1011101000011101	0000000000010000	-	car	446.518	41.581	0.000	0.000	180.000	696.000	987.000	-0.000	Terminate	
"Student24Mode3"	"Tanvi_6"	"Feb 16, 2017 09:36:13 AM"	Unknown	104.98544	01/16/0117 09:38.01	00006299	14.740	Inter618t1-0	-0.523	1	2	270.000	24.444	1.2	0.000	0.000	D	F	1005.3	270.694	0.189	-0.010	999.169	1303.777	0.029	-	0.076	-0.527	-	-	-	-	-	-	-	PAVEMENT_GENERAL	Urban	F	1011101000011101	0000000000010000	-	car	436.114	43.344	0.000	0.000	180.000	696.000	987.000	-0.000	Terminate	
"Student24Mode3"	"Tanvi_6"	"Feb 16, 2017 09:36:13 AM"	Unknown	105.98545	01/16/0117 09:38.02	00006359	14.223	Inter618t1-0	-0.306	1	2	269.887	24.444	1.2	0.000	0.000	D	F	970.1	270.993	0.251	-0.154	984.690	1303.988	0.038	-	0.065	-0.513	32	6.0	6.594	32	-0.200	-2.846	-0.426	FREEWAY_SMOOTH	Urban	F	1011101000011101	0000000000010000	-	car	426.386	45.395	0.000	0.000	180.000	696.000	987.000	-0.000	Terminate	
"Student24Mode3"	"Tanvi_6"	"Feb 16, 2017 09:36:13 AM"	Unknown	106.98547	01/16/0117 09:38.03	00006419	13.821	Inter618t1-0	0.019	1	2	269.391	24.444	-8.0	0.127	0.000	D	F	1478.8	270.823	0.267	-0.299	970.711	1304.234	0.052	-	-0.310	-0.002	-	-	-	-	-	-	-	FREEWAY_SMOOTH	Urban	F	1011101000011101	0000000000010000	-	car	417.288	46.904	0.000	0.000	180.000	696.000	987.000	-0.000	Terminate	
"Student24Mode3"	"Tanvi_6"	"Feb 16, 2017 09:36:13 AM"	Unknown	107.98550	01/16/0117 09:38.04	00006479	13.987	Inter618t1-0	0.168	1	2	268.521	24.444	-12.6	0.139	0.000	D	F	1676.6	268.277	0.255	-0.448	956.821	1304.142	0.066	-	-0.671	0.229	-	-	-	-	-	-	-	FREEWAY_SMOOTH	Urban	F	1011101000011101	0000000000010000	-	car	408.258	44.352	0.000	0.000	180.000	696.000	987.000	-0.000	Terminate	
"Student24Mode3"	"Tanvi_6"	"Feb 16, 2017 09:36:13 AM"	Unknown	108.98551	01/16/0117 09:38.05	00006539	14.284	Inter618t1-0	-0.021	1	2	267.246	24.444	-7.2	0.164	0.000	D	F	1757.4	266.286	0.245	-0.681	942.718	1303.447	0.078	-	-0.410	0.329	-	-	-	-	-	-	-	FREEWAY_SMOOTH	Urban	F	1011101000011101	0000000000010000	-	car	398.899	42.017	0.000	0.000	180.000	696.000	987.000	-0.000	Terminate	
"Student24Mode3"	"Tanvi_6"	"Feb 16, 2017 09:36:13 AM"	Unknown	109.98553	01/16/0117 09:38.06	00006599	14.603	Inter618t1-0	-0.259	1	2	265.547	24.444	-6.3	0.164	0.000	D	F	1776.4	264.855	0.242	-0.888	928.316	1302.319	0.089	-	-0.370	0.317	-	-	-	-	-	-	-	FREEWAY_SMOOTH	Urban	F	1011101000011101	0000000000010000	-	car	389.299	40.212	0.000	0.000	180.000	696.000	987.000	-0.000	Terminate	
"Student24Mode3"	"Tanvi_6"	"Feb 16, 2017 09:36:13 AM"	Unknown	110.98555	01/16/0117 09:38.07	00006659	14.915	Inter618t1-0	-0.382	1	2	263.388	24.444	-7.0	0.169	0.000	D	F	1801.2	263.345	0.250	-1.085	913.635	1300.792	0.101	-	-0.422	0.319	-	-	-	-	-	-	-	FREEWAY_SMOOTH	Urban	F	1011101000011101	0000000000010000	-	car	379.518	38.480	0.000	0.000	180.000	696.000	987.000	-0.000	Terminate	
"Student24Mode3"	"Tanvi_6"	"Feb 16, 2017 09:36:13 AM"	Unknown	111.98557	01/16/0117 09:38.08	00006719	15.212	Inter618t1-0	-0.315	1	2	260.748	24.444	-10.9	0.159	0.000	D	F	1794.2	261.477	0.269	-1.265	898.700	1298.802	0.117	-	-0.621	0.269	-	-	-	-	-	-	-	FREEWAY_SMOOTH	Urban	F	1011101000011101	0000000000010000	-	car	369.538	36.625	0.000	0.000	180.000	696.000	987.000	-0.000	Terminate	
"Student24Mode3"	"Tanvi_6"	"Feb 16, 2017 09:36:13 AM"	Unknown	112.98560	01/16/0117 09:38.09	00006779	15.460	Inter618t1-0	-0.159	1	2	257.617	24.444	-18.8	0.159	0.000	D	F	1802.8	257.935	0.259	-1.409	883.604	1296.101	0.136	-	-1.167	0.237	-	-	-	-	-	-	-	FREEWAY_SMOOTH	Urban	F	1011101000011101	0000000000010000	-	car	359.219	33.868	0.000	0.000	180.000	696.000	987.000	-0.000	Terminate	
"Student24Mode3"	"Tanvi_6"	"Feb 16, 2017 09:36:13 AM"	Unknown	113.98561	01/16/0117 09:38.10	00006839	15.683	Inter618t1-0	-0.220	1	2	254.000	24.444	-18.6	0.157	0.000	D	F	1812.9	253.353	0.194	-1.601	868.518	1292.251	0.149	-	-1.248	0.208	-	-	-	-	-	-	-	FREEWAY_SMOOTH	Urban	F	1011101000011101	0000000000010000	-	car	348.269	30.808	0.000	0.000	180.000	696.000	987.000	-0.000	Terminate	
"Student24Mode3"	"Tanvi_6"	"Feb 16, 2017 09:36:13 AM"	Unknown	114.98563	01/16/0117 09:38.11	00006899	15.869	Inter618t1-0	-0.481	1	2	250.119	24.444	-14.4	0.153	0.000	D	F	1823.8	248.995	0.154	-1.614	853.588	1287.161	0.141	-	-1.090	0.182	-	-	-	-	-	-	-	FREEWAY_SMOOTH	Urban	F	1011101000011101	0000000000010000	-	car	336.655	28.236	0.000	0.000	180.000	696.000	987.000	-0.000	Terminate	
"Student24Mode3"	"Tanvi_6"	"Feb 16, 2017 09:36:13 AM"	Unknown	115.98566	01/16/0117 09:38.12	00006959	16.040	Inter618t1-0	-0.550	1	2	246.203	24.444	-6.2	0.152	0.000	D	F	1832.0	247.400	0.224	-1.700	838.794	1281.180	0.138	-	-0.398	0.154	-	-	-	-	-	-	-	FREEWAY_SMOOTH	Urban	F	1011101000011101	0000000000010000	-	car	324.645	27.028	0.000	0.000	180.000	696.000	987.000	-0.000	Terminate	
"Student24Mode3"	"Tanvi_6"	"Feb 16, 2017 09:36:13 AM"	Unknown	116.98567	01/16/0117 09:38.13	00007019	16.157	Inter618t1-0	-0.027	1	2	242.265	24.444	-37.9	0.138	0.000	D	F	1810.8	243.999	0.239	-1.461	824.060	1274.672	0.155	-	-2.097	0.066	-	-	-	-	-	-	-	FREEWAY_SMOOTH	Urban	F	1011101000011101	0000000000010000	-	car	312.529	25.252	0.000	0.000	180.000	696.000	987.000	-0.000	Terminate	
"Student24Mode3"	"Tanvi_6"	"Feb 16, 2017 09:36:13 AM"	Unknown	117.98569	01/16/0117 09:38.14	00007079	16.234	Inter618t1-0	-0.085	1	2	238.303	24.444	-4.8	0.136	0.000	D	F	1822.9	237.268	0.157	-1.673	810.025	1266.619	0.153	-	-0.739	0.101	-	-	-	-	-	-	-	FREEWAY_SMOOTH	Urban	F	1011101000011101	0000000000010000	-	car	299.615	22.553	0.000	0.000	180.000	696.000	987.000	-0.000	Terminate	
"Student24Mode3"	"Tanvi_6"	"Feb 16, 2017 09:36:13 AM"	Unknown	118.98571	01/16/0117 09:38.15	00007139	16.332	Inter618t1-0	-0.101	1	2	234.317	24.444	-21.0	0.138	0.000	D	F	1824.6	234.933	0.207	-1.594	796.472	1257.591	0.152	-	-1.203	0.085	-	-	-	-	-	-	-	FREEWAY_SMOOTH	Urban	F	1011101000011101	0000000000010000	-	car	286.282	21.285	0.000	0.000	180.000	696.000	987.000	-0.000	Terminate	
"Student24Mode3"	"Tanvi_6"	"Feb 16, 2017 09:36:13 AM"	Unknown	119.98573	01/16/0117 09:38.16	00007199	16.423	Inter618t1-0	-0.136	1	2	230.311	24.444	-11.5	0.145	0.000	D	F	1845.4	229.754	0.170	-1.630	783.526	1247.573	0.151	-	-1.043	0.116	-	-	-	-	-	-	-	FREEWAY_SMOOTH	Urban	F	1011101000011101	0000000000010000	-	car	272.521	19.397	0.000	0.000	180.000	696.000	987.000	-0.000	Terminate	
"Student24Mode3"	"Tanvi_6"	"Feb 16, 2017 09:36:13 AM"	Unknown	120.98576	01/16/0117 09:38.17	00007259	16.550	Inter618t1-0	-0.166	1	2	226.285	24.444	-12.7	0.148	0.000	D	F	1861.7	226.687	0.198	-1.637	771.224	1236.600	0.150	-	-0.906	0.128	-	-	-	-	-	-	-	FREEWAY_SMOOTH	Urban	F	1011101000011101	0000000000010000	-	car	258.329	18.009	0.000	0.000	180.000	696.000	987.000	-0.000	Terminate	
"Student24Mode3"	"Tanvi_6"	"Feb 16, 2017 09:36:13 AM"	Unknown	121.98577	01/16/0117 09:38.18	00007319	16.684	Inter618t1-0	0.029	1	2	222.208	24.444	-17.7	0.150	0.000	D	F	1878.0	223.003	0.215	-1.592	759.476	1224.850	0.156	-	-1.246	0.137	-	-	-	-	-	-	-	FREEWAY_SMOOTH	Urban	F	1011101000011101	0000000000010000	-	car	243.815	16.560	0.000	0.000	180.000	696.000	987.000	-0.000	Terminate	
"Student24Mode3"	"Tanvi_6"	"Feb 16, 2017 09:36:13 AM"	Unknown	122.98579	01/16/0117 09:38.19	00007379	16.823	Inter618t1-0	0.205	1	2	218.134	24.444	-20.5	0.150	0.000	D	F	1884.9	218.323	0.195	-1.563	748.521	1212.178	0.162	-	-1.500	0.139	-	-	-	-	-	-	-	FREEWAY_SMOOTH	Urban	F	1011101000011101	0000000000010000	-	car	228.862	15.034	0.000	0.000	180.000	696.000	987.000	-0.000	Terminate	
"Student24Mode3"	"Tanvi_6"	"Feb 16, 2017 09:36:13 AM"	Unknown	123.98581	01/16/0117 09:38.20	00007439	16.959	Inter618t1-0	0.158	1	2	214.004	24.444	-17.0	0.153	0.000	D	F	1902.2	213.556	0.176	-1.590	738.604	1198.513	0.160	-	-1.276	0.156	-	-	-	-	-	-	-	FREEWAY_SMOOTH	Urban	F	1011101000011101	0000000000010000	-	car	213.401	13.588	0.000	0.000	180.000	696.000	987.000	-0.000	Terminate	
"Student24Mode3"	"Tanvi_6"	"Feb 16, 2017 09:36:13 AM"	Unknown	124.98583	01/16/0117 09:38.21	00007499	17.102	Inter618t1-0	0.020	1	2	209.825	24.444	-17.1	0.155	0.000	D	F	1912.1	209.282	0.168	-1.590	729.701	1183.997	0.156	-	-1.279	0.139	-	-	-	-	-	-	-	FREEWAY_SMOOTH	Urban	F	1011101000011101	0000000000010000	-	car	197.500	12.257	0.000	0.000	180.000	696.000	987.000	-0.000	Terminate	
"Student24Mode3"	"Tanvi_6"	"Feb 16, 2017 09:36:13 AM"	Unknown	125.98586	01/16/0117 09:38.22	00007559	17.234	Inter618t1-0	-0.145	1	2	205.636	24.444	-16.6	0.152	0.000	D	F	1916.3	205.030	0.168	-1.592	721.839	1168.737	0.151	-	-1.263	0.129	-	-	-	-	-	-	-	FREEWAY_SMOOTH	Urban	F	1011101000011101	0000000000010000	-	car	181.205	10.991	0.000	0.000	180.000	696.000	987.000	-0.000	Terminate	
"Student24Mode3"	"Tanvi_6"	"Feb 16, 2017 09:36:13 AM"	Unknown	126.98587	01/16/0117 09:38.23	00007619	17.363	Inter618t1-0	-0.303	1	2	201.400	24.444	-16.5	0.159	0.000	D	F	1931.1	200.886	0.169	-1.592	715.063	1152.824	0.146	-	-1.257	0.136	-	-	-	-	-	-	-	FREEWAY_SMOOTH	Urban	F	1011101000011101	0000000000010000	-	car	164.556	9.782	0.000	0.000	180.000	696.000	987.000	-0.000	Terminate	
"Student24Mode3"	"Tanvi_6"	"Feb 16, 2017 09:36:13 AM"	Unknown	127.98589	01/16/0117 09:38.24	00007679	17.487	Inter618t1-0	-0.431	1	2	197.131	24.444	-15.5	0.152	0.000	D	F	1934.3	196.730	0.174	-1.598	709.416	1136.340	0.142	-	-1.227	0.124	-	-	-	-	-	-	-	FREEWAY_SMOOTH	Urban	F	1011101000011101	0000000000010000	-	car	147.582	8.615	0.000	0.000	180.000	696.000	987.000	-0.000	Terminate	
"Student24Mode3"	"Tanvi_6"	"Feb 16, 2017 09:36:13 AM"	Unknown	128.98592	01/16/0117 09:38.25	00007739	17.594	Inter618t1-0	-0.493	1	2	192.946	24.444	-15.8	0.152	0.000	D	F	1939.4	192.778	0.121	-1.449	704.913	1119.388	0.131	-	-1.217	0.100	-	-	-	-	-	-	-	FREEWAY_SMOOTH	Urban	F	1011101000011101	0000000000010000	-	car	130.328	7.498	0.000	0.000	180.000	696.000	987.000	-0.000	Terminate	
"Student24Mode3"	"Tanvi_6"	"Feb 16, 2017 09:36:13 AM"	Unknown	129.98593	01/16/0117 09:38.26	00007799	17.511	Inter618t1-0	-0.566	1	2	189.317	24.444	-15.4	0.085	0.000	D	F	1834.8	188.722	0.118	-1.200	701.588	1102.123	0.115	-	-1.246	-0.215	-	-	-	-	-	-	-	FREEWAY_SMOOTH	Urban	F	1011101000011101	0000000000010000	-	car	112.899	6.482	0.000	0.000	180.000	696.000	987.000	-0.000	Terminate	
"Student24Mode3"	"Tanvi_6"	"Feb 16, 2017 09:36:13 AM"	Unknown	130.98595	01/16/0117 09:38.27	00007859	17.329	Inter618t1-0	-0.822	1	2	186.288	24.444	-4.4	0.093	0.000	D	F	1841.0	185.263	0.120	-1.045	699.478	1084.839	0.095	-	-0.611	-0.155	-	-	-	-	-	-	-	FREEWAY_SMOOTH	Urban	F	1011101000011101	0000000000010000	-	car	95.541	5.522	0.000	0.000	180.000	696.000	987.000	-0.000	Terminate	
"Student24Mode3"	"Tanvi_6"	"Feb 16, 2017 09:36:13 AM"	Unknown	131.98598	01/16/0117 09:38.28	00007919	17.184	Inter618t1-0	-0.864	1	2	183.876	24.444	-4.9	0.099	0.000	D	F	1835.5	184.689	0.155	-0.844	697.995	1067.647	0.079	-	-0.255	-0.140	-	-	-	-	-	-	-	FREEWAY_SMOOTH	Urban	F	1011101000011101	0000000000010000	-	car	78.313	4.565	0.000	0.000	180.000	696.000	987.000	-0.000	Terminate	
"Student24Mode3"	"Tanvi_6"	"Feb 16, 2017 09:36:13 AM"	Unknown	132.98599	01/16/0117 09:38.29	00007979	17.043	Inter618t1-0	-0.540	1	2	182.048	24.444	-9.1	0.097	0.000	D	F	1820.6	183.210	0.150	-0.564	696.793	1050.576	0.069	-	-0.579	-0.141	-	-	-	-	-	-	-	FREEWAY_SMOOTH	Urban	F	1011101000011101	0000000000010000	-	car	61.222	3.596	0.000	0.000	180.000	696.000	987.000	-0.000	Terminate	
"Student24Mode3"	"Tanvi_6"	"Feb 16, 2017 09:36:13 AM"	Unknown	133.98601	01/16/0117 09:38.30	00008039	16.891	Inter618t1-0	-0.340	1	2	180.804	24.444	-4.7	0.088	0.000	D	F	1795.8	180.820	0.135	-0.347	696.177	1033.618	0.055	-	-0.501	-0.167	-	-	-	-	-	-	-	FREEWAY_SMOOTH	Urban	F	1011101000011101	0000000000010000	-	car	44.259	2.620	0.000	0.000	180.000	696.000	987.000	-0.000	Terminate	
"Student24Mode3"	"Tanvi_6"	"Feb 16, 2017 09:36:13 AM"	Unknown	134.98604	01/16/0117 09:38.31	00008099	16.729	Inter618t1-0	-0.321	1	2	180.142	24.444	-0.7	0.088	0.000	D	F	1784.3	180.318	0.136	-0.163	696.031	1016.809	0.039	-	-0.040	-0.159	-	-	-	-	-	-	-	FREEWAY_SMOOTH	Urban	F	1011101000011101	0000000000010000	-	car	27.800	1.790	1.200	2.000	178.663	696.010	986.650	-0.000	Terminate	
"Student24Mode3"	"Tanvi_6"	"Feb 16, 2017 09:36:13 AM"	Unknown	135.98605	01/16/0117 09:38.32	00008159	16.581	Inter618t1-0	-0.277	1	2	180.000	24.444	-7.2	0.090	0.000	D	F	1769.4	179.917	0.203	0.051	695.977	1000.155	0.027	-	-0.325	-0.143	-	-	-	car	0.519	8.605	0.643	PAVEMENT_GENERAL	Urban	F	1011101000011101	0000000000010000	-	car	13.326	0.996	3.200	2.000	176.551	696.144	984.471	-0.000	Terminate	
"Student24Mode3"	"Tanvi_6"	"Feb 16, 2017 09:36:13 AM"	Unknown	136.98607	01/16/0117 09:38.33	00008219	15.935	Inter686t1-0	0.198	1	1	180.000	11.111	-0.7	0.000	0.057	D	F	1553.4	178.554	0.163	0.011	696.198	983.820	0.030	-	-0.150	-1.215	car	6.3	10.734	car	-0.075	-1.190	-0.111	PAVEMENT_GENERAL	Urban	F	1011101000011101	0000000000010000	-	car	1.172	0.109	5.200	2.000	177.951	696.323	980.291	-0.000	Terminate	
"Student24Mode3"	"Tanvi_6"	"Feb 16, 2017 09:36:13 AM"	Unknown	137.98610	01/16/0117 09:38.34	00008279	15.198	Inter686t1-0	-0.208	1	1	180.000	11.111	3.4	0.000	0.000	D	F	1492.7	178.438	0.188	-0.012	696.604	968.317	0.029	-	0.091	-0.579	-	-	-	-	-	-	-	PAVEMENT_GENERAL	Urban	F	1011101000011101	0000000000010000	-	car	4.732	-0.400	3.375	-0.500	179.529	696.391	975.405	-0.000	Terminate	
"Student24Mode3"	"Tanvi_6"	"Feb 16, 2017 09:36:13 AM"	Unknown	138.98611	01/16/0117 09:38.35	00008339	14.623	Inter686t1-0	-0.440	1	1	180.000	11.111	6.0	0.000	0.000	D	F	1436.3	180.002	0.188	-0.052	696.836	953.409	0.029	-	0.411	-0.570	-	-	-	-	-	-	-	PAVEMENT_GENERAL	Urban	F	1011101000011101	0000000000010000	-	car	16.189	-1.549	4.167	2.000	179.911	696.398	971.953	-0.000	Terminate	
"Student24Mode3"	"Tanvi_6"	"Feb 16, 2017 09:36:13 AM"	Unknown	139.98613	01/16/0117 09:38.36	00008399	14.058	Inter686t1-0	-0.289	1	1	180.000	11.111	-4.0	0.000	0.000	D	F	1380.8	181.036	0.190	0.022	696.685	939.071	0.029	-	-0.068	-0.561	-	-	-	-	-	-	-	PAVEMENT_GENERAL	Urban	F	1011101000011101	0000000000010000	-	car	25.374	-3.218	6.167	2.000	180.016	696.398	966.803	-0.000	Terminate	
"Student24Mode3"	"Tanvi_6"	"Feb 16, 2017 09:36:13 AM"	Unknown	140.98616	01/16/0117 09:38.37	00008459	13.575	Inter686t1-0	-0.209	1	1	180.000	11.111	-5.4	0.026	0.000	D	F	1343.9	179.543	0.193	0.044	696.606	925.272	0.028	-	-0.312	-0.392	-	-	-	-	-	-	-	PAVEMENT_GENERAL	Urban	F	1011101000011101	0000000000010000	-	car	32.021	-5.921	8.167	2.000	180.009	696.397	959.652	-0.000	Terminate	
"Student24Mode3"	"Tanvi_6"	"Feb 16, 2017 09:36:13 AM"	Unknown	141.98618	01/16/0117 09:38.38	00008519	13.221	Inter686t1-0	-0.439	1	1	180.000	11.111	-3.2	0.035	0.000	D	F	1361.8	178.574	0.193	0.020	696.835	911.880	0.028	-	-0.157	-0.341	-	-	-	-	-	-	-	PAVEMENT_GENERAL	Urban	F	1011101000011101	0000000000010000	-	car	36.265	-11.874	10.167	2.000	180.007	696.397	950.502	-0.000	Terminate	
"Student24Mode3"	"Tanvi_6"	"Feb 16, 2017 09:36:13 AM"	Unknown	142.98619	01/16/0117 09:38.39	00008579	12.880	Inter686t1-0	-0.773	1	1	180.000	11.111	12.1	0.032	0.000	D	F	1334.4	179.068	0.193	-0.072	697.169	898.835	0.028	-	0.528	-0.336	-	-	-	-	-	-	-	PAVEMENT_GENERAL	Urban	F	1011101000011101	0000000000010000	-	car	38.164	-53.342	12.167	2.000	180.005	696.397	939.352	-0.000	Terminate	
"Student24Mode3"	"Tanvi_6"	"Feb 16, 2017 09:36:13 AM"	Unknown	143.98621	01/16/0117 09:38.40	00008639	12.549	Inter686t1-0	-0.725	1	1	180.000	11.111	0.3	0.034	0.000	D	F	1303.6	180.937	0.195	-0.003	697.121	886.120	0.028	-	0.073	-0.328	-	-	-	-	-	-	-	PAVEMENT_GENERAL	Urban	F	1011101000011101	0000000000010000	-	car	37.728	23.248	14.167	2.000	180.005	696.397	926.201	-0.000	Terminate	
"Student24Mode3"	"Tanvi_6"	"Feb 16, 2017 09:36:13 AM"	Unknown	144.98624	01/16/0117 09:38.41	00008699	12.207	Inter686t1-0	-0.657	1	1	180.000	11.111	-10.7	0.028	0.000	D	F	1259.3	179.051	0.193	0.072	697.053	873.741	0.028	-	-0.569	-0.350	-	-	-	-	-	-	-	PAVEMENT_GENERAL	Urban	F	1011101000011101	0000000000010000	-	car	35.841	19.556	14.042	-0.500	180.005	696.397	911.936	-0.000	Terminate	
"Student24Mode3"	"Tanvi_6"	"Feb 16, 2017 09:36:13 AM"	Unknown	145.98625	01/16/0117 09:38.42	00008759	11.863	Inter686t1-0	-0.936	1	1	180.000	11.111	10.0	0.028	0.000	D	F	1236.1	178.954	0.195	-0.049	697.333	861.710	0.028	-	0.369	-0.340	-	-	-	-	-	-	-	PAVEMENT_GENERAL	Urban	F	1011101000011101	0000000000010000	-	car	34.083	20.354	13.542	-0.500	180.005	696.397	898.140	-0.000	Terminate	
"Student24Mode3"	"Tanvi_6"	"Feb 16, 2017 09:36:13 AM"	Unknown	146.98627	01/16/0117 09:38.43	00008819	11.538	Inter686t1-0	-0.847	1	1	180.000	11.111	12.8	0.035	0.000	D	F	1237.0	181.967	0.194	-0.070	697.243	850.016	0.028	-	0.570	-0.280	-	-	-	-	-	-	-	PAVEMENT_GENERAL	Urban	F	1011101000011101	0000000000010000	-	car	32.478	21.374	13.042	-0.500	180.005	696.397	884.843	-0.000	Terminate	
"Student24Mode3"	"Tanvi_6"	"Feb 16, 2017 09:36:13 AM"	Unknown	147.98630	01/16/0117 09:38.44	00008879	11.293	Inter686t1-0	-0.309	1	1	180.000	11.111	-5.3	0.037	0.000	D	F	1223.1	182.774	0.197	0.023	696.705	838.614	0.028	-	-0.165	-0.253	-	-	-	-	-	-	-	PAVEMENT_GENERAL	Urban	F	1011101000011101	0000000000010000	-	car	31.063	23.736	12.584	-0.500	180.005	696.397	872.035	-0.000	Terminate	
"Student24Mode3"	"Tanvi_6"	"Feb 16, 2017 09:36:13 AM"	Unknown	148.98631	01/16/0117 09:38.45	00008939	11.072	Inter686t1-0	0.076	1	1	180.000	11.111	-13.2	0.069	0.000	D	F	1316.2	181.005	0.201	0.055	696.320	827.457	0.027	-	-0.477	-0.051	-	-	-	-	-	-	-	PAVEMENT_GENERAL	Urban	F	1011101000011101	0000000000010000	-	car	29.821	26.218	12.209	-0.500	180.005	696.397	859.638	-0.000	Terminate	
"Student24Mode3"	"Tanvi_6"	"Feb 16, 2017 09:36:13 AM"	Unknown	149.98633	01/16/0117 09:38.46	00008999	11.181	Inter686t1-0	0.084	1	1	180.000	11.111	-2.6	0.127	0.000	D	F	1518.4	179.508	0.202	0.014	696.312	816.365	0.025	-	-0.114	0.266	-	-	-	-	-	-	-	PAVEMENT_GENERAL	Urban	F	1011101000011101	0000000000010000	-	car	28.788	31.879	12.084	-0.500	180.005	696.397	847.512	-0.000	Terminate	
"Student24Mode3"	"Tanvi_6"	"Feb 16, 2017 09:36:13 AM"	Unknown	150.98636	01/16/0117 09:38.47	00009059	11.581	Inter686t1-0	-0.045	1	1	180.000	11.111	2.1	0.160	0.000	D	F	1637.6	179.290	0.204	-0.004	696.441	805.001	0.024	-	0.046	0.492	-	-	-	-	-	-	-	PAVEMENT_GENERAL	Urban	F	1011101000011101	0000000000010000	-	car	28.053	47.860	12.167	2.000	180.005	696.397	835.413	-0.000	Terminate	
"Student24Mode3"	"Tanvi_6"	"Feb 16, 2017 09:36:13 AM"	Unknown	151.98637	01/16/0117 09:38.48	00009119	12.109	Inter682t1-1	-0.114	1	1	180.000	11.111	3.1	0.169	0.000	D	F	1677.1	179.966	0.203	-0.017	696.518	793.156	0.024	-	0.132	0.503	-	-	-	-	-	-	-	PAVEMENT_GENERAL	Urban	F	1011101000011101	0000000000010000	-	car	27.653	103.770	12.375	-0.500	180.005	696.397	823.168	-0.000	Terminate	
"Student24Mode3"	"Tanvi_6"	"Feb 16, 2017 09:36:13 AM"	Unknown	152.98639	01/16/0117 09:38.49	00009179	12.600	Inter682t1-1	-0.089	1	1	180.000	11.111	-1.6	0.176	0.000	D	F	1712.0	180.079	0.203	0.008	696.493	780.797	0.024	-	-0.064	0.483	-	-	-	-	-	-	-	PAVEMENT_GENERAL	Urban	F	1011101000011101	0000000000010000	-	car	27.492	409.717	12.667	2.000	180.003	696.397	810.648	-0.000	Terminate	
"Student24Mode3"	"Tanvi_6"	"Feb 16, 2017 09:36:13 AM"	Unknown	153.98642	01/16/0117 09:38.50	00009239	13.091	Inter682t1-1	-0.091	1	1	180.000	11.111	-0.9	0.173	0.000	D	F	1734.4	179.946	0.201	0.005	696.495	767.949	0.024	-	-0.030	0.464	-	-	-	-	-	-	-	PAVEMENT_GENERAL	Urban	F	1011101000011101	0000000000010000	-	car	27.486	-3960.427	13.084	0.500	179.988	696.402	797.794	-0.000	Terminate	
"Student24Mode3"	"Tanvi_6"	"Feb 16, 2017 09:36:13 AM"	Unknown	154.98643	01/16/0117 09:38.51	00009299	13.537	Inter682t1-1	-0.124	1	1	180.000	11.111	-0.5	0.168	0.000	D	F	1737.0	179.760	0.200	0.004	696.528	754.629	0.024	-	-0.033	0.404	-	-	-	-	-	-	-	PAVEMENT_GENERAL	Urban	F	1011101000011101	0000000000010000	-	car	27.590	-108.903	13.284	0.500	179.995	696.403	784.579	-0.000	Terminate	
