"Name"	"Project"	"Time"	ZoneName	Time	SystemTime	Frame	Velocity	LaneName	LanePos	LaneIndex	LaneCount	LaneHeading	SpeedLimit	Steer	Accel	Brake	Gear	Horn	SubjectEngineRPM	SubjectHeading	SubjectPitch	SubjectRoll	SubjectX	SubjectY	SubjectZ	Signal	LatAccel	LongAccel	Collision	CollisionAngle	CollisionVelocity	VehAhead	HeadwayTime	HeadwayDist	TTC	TerrainType	CultureType	Slip	DigitalInputs	DigitalInputs2	ActiveTrigger	EntityName	DistToEntity	TimeToEntity	EntityVelocity	EntityAccel	EntityHeading	EntityX	EntityY	EntityZ	GrabData	
"student29mode1"	"Tanvi_6"	"Feb 16, 2017 10:40:23 AM"	Unknown	0.98335	01/16/0117 10:40.28	00000059	0.003	Inter625t13-0	-0.089	1	2	0.000	11.111	-231.8	0.986	0.000	D	F	0.0	359.944	0.171	0.071	1503.499	523.205	0.020	-	0.004	0.004	-	-	-	-	-	-	-	PAVEMENT_GENERAL	Urban	F	1011101000011101	0000000000010000	-	car	928.855	720294.375	0.000	0.000	180.000	696.000	987.000	-0.000	Terminate	
"student29mode1"	"Tanvi_6"	"Feb 16, 2017 10:40:23 AM"	Unknown	1.98337	01/16/0117 10:40.29	00000119	0.001	Inter625t13-0	-0.087	1	2	0.000	11.111	-231.7	0.986	0.000	D	F	0.0	0.000	0.203	0.003	1503.501	523.206	0.026	-	-0.001	-0.001	-	-	-	-	-	-	-	PAVEMENT_GENERAL	Urban	F	1111101000011101	0000000000010000	-	car	928.856	3057198.750	0.000	0.000	180.000	696.000	987.000	-0.000	Terminate	
"student29mode1"	"Tanvi_6"	"Feb 16, 2017 10:40:23 AM"	Unknown	2.98339	01/16/0117 10:40.30	00000179	0.000	Inter625t13-0	-0.087	1	2	0.000	11.111	-234.3	0.984	0.000	D	F	0.0	0.000	0.210	0.004	1503.501	523.207	0.028	-	-0.000	-0.000	-	-	-	-	-	-	-	PAVEMENT_GENERAL	Urban	F	1011101000011101	0000000000010000	-	car	928.856	30775012.000	0.000	0.000	180.000	696.000	987.000	-0.000	Terminate	
"student29mode1"	"Tanvi_6"	"Feb 16, 2017 10:40:23 AM"	Unknown	3.98341	01/16/0117 10:40.31	00000239	-0.000	Inter625t13-0	-0.087	1	2	0.000	11.111	-233.8	0.986	0.000	D	F	0.0	0.000	0.210	0.001	1503.501	523.207	0.028	-	-0.000	-0.000	-	-	-	-	-	-	-	PAVEMENT_GENERAL	Urban	F	1011101000011101	0000000000010000	-	car	928.856	-42047372.000	0.000	0.000	180.000	696.000	987.000	-0.000	Terminate	
"student29mode1"	"Tanvi_6"	"Feb 16, 2017 10:40:23 AM"	Unknown	4.98343	01/16/0117 10:40.32	00000299	-0.000	Inter625t13-0	-0.086	1	2	0.000	11.111	-223.5	0.984	0.000	D	F	0.0	0.000	0.210	0.000	1503.502	523.207	0.028	-	-0.000	0.000	-	-	-	-	-	-	-	PAVEMENT_GENERAL	Urban	F	1011101000011101	0000000000010000	-	car	928.856	-36445824.000	0.000	0.000	180.000	696.000	987.000	-0.000	Terminate	
"student29mode1"	"Tanvi_6"	"Feb 16, 2017 10:40:23 AM"	Unknown	5.98345	01/16/0117 10:40.33	00000359	-0.000	Inter625t13-0	-0.086	1	2	0.000	11.111	-226.3	0.986	0.000	D	F	0.0	0.000	0.209	0.000	1503.502	523.207	0.028	-	-0.000	0.000	-	-	-	-	-	-	-	PAVEMENT_GENERAL	Urban	F	1011101000011101	0000000000010000	-	car	928.857	-50503568.000	0.000	0.000	180.000	696.000	987.000	-0.000	Terminate	
"student29mode1"	"Tanvi_6"	"Feb 16, 2017 10:40:23 AM"	Unknown	6.98347	01/16/0117 10:40.34	00000419	1.954	Inter625t13-0	-0.192	1	2	0.000	11.111	-218.5	0.986	0.000	D	F	294.4	356.654	0.015	0.108	1503.396	523.637	0.002	-	-0.720	4.398	-	-	-	-	-	-	-	PAVEMENT_GENERAL	Urban	T	1011101000011101	0000000000010000	-	car	928.551	868.086	0.000	0.000	180.000	696.000	987.000	-0.000	Terminate	
"student29mode1"	"Tanvi_6"	"Feb 16, 2017 10:40:23 AM"	Unknown	7.98349	01/16/0117 10:40.35	00000479	5.508	Inter625t13-0	-1.284	1	2	0.000	11.111	-81.7	0.000	0.000	D	F	1180.5	343.578	0.077	0.070	1502.304	527.517	0.014	-	-0.615	-0.423	-	-	-	-	-	-	-	PAVEMENT_GENERAL	Urban	F	1011101000011101	0000000000010000	-	car	925.676	233.247	0.000	0.000	180.000	696.000	987.000	-0.000	Terminate	
"student29mode1"	"Tanvi_6"	"Feb 16, 2017 10:40:23 AM"	Unknown	8.98351	01/16/0117 10:40.36	00000539	5.076	-Inter625t13-2	-0.413	LT-1	2	180.000	11.111	20.3	0.000	0.000	D	F	775.4	338.617	0.198	-0.058	1500.401	532.468	0.028	-	0.364	-0.467	-	-	-	-	-	-	-	PAVEMENT_GENERAL	Urban	F	1011101000011101	0000000000010000	-	car	921.578	234.112	0.000	0.000	180.000	696.000	987.000	-0.000	Terminate	
"student29mode1"	"Tanvi_6"	"Feb 16, 2017 10:40:23 AM"	Unknown	9.98353	01/16/0117 10:40.37	00000599	4.611	-Inter625t51-0	0.899	-1	1	176.843	11.111	50.0	0.000	0.000	D	F	700.0	342.190	0.197	-0.057	1498.838	537.051	0.028	-	0.413	-0.472	-	-	-	-	-	-	-	PAVEMENT_GENERAL	Urban	F	1011101000011101	0000000000010000	-	car	917.968	271.845	0.000	0.000	180.000	696.000	987.000	-0.000	Terminate	
"student29mode1"	"Tanvi_6"	"Feb 16, 2017 10:40:23 AM"	Unknown	10.98355	01/16/0117 10:40.38	00000659	4.142	-Inter625t53-0	-1.449	-1	1	180.005	11.111	96.2	0.000	0.000	D	F	630.3	348.231	0.195	-0.097	1497.838	541.313	0.028	-	0.682	-0.498	-	-	-	-	-	-	-	PAVEMENT_GENERAL	Urban	F	1011101000011101	0000000000010000	-	car	915.018	337.809	0.000	0.000	180.000	696.000	987.000	-0.000	Terminate	
"student29mode1"	"Tanvi_6"	"Feb 16, 2017 10:40:23 AM"	Unknown	11.98357	01/16/0117 10:40.39	00000719	3.680	-Inter625t53-0	-1.125	-1	1	180.005	11.111	100.9	0.000	0.000	D	F	560.3	356.367	0.196	-0.062	1497.514	545.211	0.028	-	0.479	-0.485	-	-	-	-	-	-	-	PAVEMENT_GENERAL	Urban	F	1011101000011101	0000000000010000	-	car	912.846	461.752	0.000	0.000	180.000	696.000	987.000	-0.000	Terminate	
"student29mode1"	"Tanvi_6"	"Feb 16, 2017 10:40:23 AM"	Unknown	12.98359	01/16/0117 10:40.40	00000779	3.221	-Inter625t51-0	1.401	-1	1	176.843	11.111	97.4	0.000	0.000	D	F	490.4	3.527	0.197	-0.044	1497.695	548.660	0.028	-	0.343	-0.476	-	-	-	-	-	-	-	PAVEMENT_GENERAL	Urban	F	1011101000011101	0000000000010000	-	car	911.346	665.879	0.000	0.000	180.000	696.000	987.000	-0.000	Terminate	
"student29mode1"	"Tanvi_6"	"Feb 16, 2017 10:40:23 AM"	Unknown	13.98361	01/16/0117 10:40.41	00000839	2.837	-Inter625t51-0	0.704	-1	1	176.478	11.111	1.2	0.035	0.000	D	F	787.8	7.626	0.211	0.016	1498.122	551.642	0.028	-	-0.118	-0.059	-	-	-	-	-	-	-	PAVEMENT_GENERAL	Urban	F	1011101000011101	0000000000010000	-	car	910.294	900.986	0.000	0.000	180.000	696.000	987.000	-0.000	Terminate	
"student29mode1"	"Tanvi_6"	"Feb 16, 2017 10:40:23 AM"	Unknown	14.98363	01/16/0117 10:40.42	00000899	4.362	-Inter625t51-0	-0.061	-1	1	175.947	11.111	18.5	0.145	0.000	D	F	1603.3	7.174	0.210	-0.033	1498.542	555.034	0.017	-	0.229	1.778	-	-	-	-	-	-	-	PAVEMENT_GENERAL	Urban	F	1111101000011101	0000000000010000	-	car	909.050	578.399	0.000	0.000	180.000	696.000	987.000	-0.000	Terminate	
"student29mode1"	"Tanvi_6"	"Feb 16, 2017 10:40:23 AM"	Unknown	15.98365	01/16/0117 10:40.43	00000959	5.978	-Inter625t51-0	-1.426	-1	1	175.149	11.111	32.8	0.160	0.000	D	F	1808.1	10.238	0.219	-0.053	1499.388	560.159	0.019	-	0.404	1.641	-	-	-	-	-	-	-	PAVEMENT_GENERAL	Urban	F	1011101000011101	0000000000010000	-	car	907.380	498.066	0.000	0.000	180.000	696.000	987.000	-0.000	Terminate	
"student29mode1"	"Tanvi_6"	"Feb 16, 2017 10:40:23 AM"	Unknown	16.98367	01/16/0117 10:40.44	00001019	7.227	-	-	SH	1	-	-	-0.1	0.162	0.000	D	F	1622.7	13.820	0.212	0.019	1500.869	566.635	0.021	-	-0.070	1.081	-	-	-	-	-	-	-	PAVEMENT_GENERAL	Urban	F	1011101000011101	0000000000010000	-	car	905.672	526.963	0.000	0.000	180.000	696.000	987.000	-0.000	Terminate	
"student29mode1"	"Tanvi_6"	"Feb 16, 2017 10:40:23 AM"	Unknown	17.98369	01/16/0117 10:40.45	00001079	8.256	Inter625t49-0	-1.149	1	1	0.005	11.111	-34.5	0.171	0.000	D	F	1709.1	9.652	0.209	0.091	1502.443	574.222	0.022	-	-0.724	0.973	-	-	-	14	2.989	24.677	-	PAVEMENT_GENERAL	Urban	F	1011101000011101	0000000000010000	-	car	903.586	364.888	0.000	0.000	180.000	696.000	987.000	-0.000	Terminate	
"student29mode1"	"Tanvi_6"	"Feb 16, 2017 10:40:23 AM"	Unknown	18.98371	01/16/0117 10:40.46	00001139	9.199	Inter625t49-0	-0.117	1	1	0.005	11.111	-18.1	0.175	0.000	D	F	1790.9	5.207	0.207	0.056	1503.476	582.891	0.022	-	-0.473	0.900	-	-	-	14	3.625	33.342	-	PAVEMENT_GENERAL	Urban	F	1011101000011101	0000000000010000	-	car	900.592	268.574	0.000	0.000	180.000	696.000	987.000	-0.000	Terminate	
"student29mode1"	"Tanvi_6"	"Feb 16, 2017 10:40:23 AM"	Unknown	19.98373	01/16/0117 10:40.47	00001199	10.191	Inter625t15-0	0.574	1	2	0.000	11.111	-13.6	0.208	0.000	D	F	1951.0	3.478	0.212	0.055	1504.168	592.550	0.022	-	-0.383	1.078	-	-	-	14	4.515	46.014	-	PAVEMENT_GENERAL	Urban	F	1011101000011101	0000000000010000	-	car	896.932	229.613	0.000	0.000	180.000	696.000	987.000	-0.000	Terminate	
"student29mode1"	"Tanvi_6"	"Feb 16, 2017 10:40:23 AM"	Unknown	20.98375	01/16/0117 10:40.48	00001259	11.206	Inter614t1-0	0.987	1	2	0.000	11.111	-6.0	0.210	0.000	D	F	2034.7	1.382	0.208	0.021	1504.581	603.251	0.022	-	-0.223	0.949	-	-	-	14	4.946	55.429	-	PAVEMENT_GENERAL	Urban	F	1011101000011101	0000000000010000	-	car	892.663	195.788	0.000	0.000	180.000	696.000	987.000	-0.000	Terminate	
"student29mode1"	"Tanvi_6"	"Feb 16, 2017 10:40:23 AM"	Unknown	21.98377	01/16/0117 10:40.49	00001319	11.938	Inter614t1-0	1.128	1	2	0.000	11.111	-10.0	0.152	0.000	D	F	1670.1	0.005	0.200	0.049	1504.721	614.874	0.024	-	-0.365	0.440	-	-	-	14	5.354	63.922	-	PAVEMENT_GENERAL	Urban	F	1011101000011101	0000000000010000	-	car	887.870	177.947	0.000	0.000	180.000	696.000	987.000	-0.000	Terminate	
"student29mode1"	"Tanvi_6"	"Feb 16, 2017 10:40:23 AM"	Unknown	22.98379	01/16/0117 10:40.50	00001379	12.466	Inter614t1-0	0.950	1	2	0.000	11.111	2.7	0.183	0.000	D	F	1730.4	358.653	0.203	-0.011	1504.543	627.060	0.024	-	0.016	0.567	-	-	-	14	5.764	71.852	-	PAVEMENT_GENERAL	Urban	F	1011101000011101	0000000000010000	-	car	882.682	165.410	0.000	0.000	180.000	696.000	987.000	-0.000	Terminate	
"student29mode1"	"Tanvi_6"	"Feb 16, 2017 10:40:23 AM"	Unknown	23.98381	01/16/0117 10:40.51	00001439	13.024	Inter614t1-0	0.730	1	2	0.000	11.111	4.0	0.187	0.000	D	F	1765.8	359.376	0.203	-0.021	1504.323	639.804	0.024	-	0.167	0.550	-	-	-	14	6.083	79.223	-	PAVEMENT_GENERAL	Urban	F	1011101000011101	0000000000010000	-	car	877.374	166.481	0.000	0.000	180.000	696.000	987.000	-0.000	Terminate	
"student29mode1"	"Tanvi_6"	"Feb 16, 2017 10:40:23 AM"	Unknown	24.98383	01/16/0117 10:40.52	00001499	13.559	Inter614t1-0	0.676	1	2	0.000	11.111	3.9	0.187	0.000	D	F	1792.0	0.198	0.202	-0.025	1504.270	653.097	0.024	-	0.190	0.521	-	-	-	14	6.346	86.046	-	PAVEMENT_GENERAL	Urban	F	1011101000011101	0000000000010000	-	car	872.164	169.889	0.000	0.000	180.000	696.000	987.000	-0.000	Terminate	
"student29mode1"	"Tanvi_6"	"Feb 16, 2017 10:40:23 AM"	Unknown	25.98385	01/16/0117 10:40.53	00001559	14.060	Inter614t1-0	0.800	1	2	0.000	11.111	2.0	0.187	0.000	D	F	1814.8	0.789	0.201	-0.014	1504.394	666.909	0.024	-	0.106	0.484	-	-	-	14	6.568	92.351	-	PAVEMENT_GENERAL	Urban	F	1011101000011101	0000000000010000	-	car	867.099	173.565	0.000	0.000	180.000	696.000	987.000	-0.000	Terminate	
"student29mode1"	"Tanvi_6"	"Feb 16, 2017 10:40:23 AM"	Unknown	26.98387	01/16/0117 10:40.54	00001619	14.526	Inter614t1-0	1.008	1	2	0.000	11.111	-1.4	0.189	0.000	D	F	1832.7	0.757	0.200	0.010	1504.601	681.204	0.024	-	-0.070	0.450	-	-	-	14	6.758	98.171	-	PAVEMENT_GENERAL	Urban	F	1011101000011101	0000000000010000	-	car	862.133	173.879	0.000	0.000	180.000	696.000	987.000	-0.000	Terminate	
"student29mode1"	"Tanvi_6"	"Feb 16, 2017 10:40:23 AM"	Unknown	27.98389	01/16/0117 10:40.55	00001679	14.953	Inter614t1-0	1.162	1	2	0.000	11.111	-2.3	0.185	0.000	D	F	1845.5	0.387	0.199	0.015	1504.755	695.947	0.025	-	-0.116	0.407	-	-	-	14	6.925	103.545	-	PAVEMENT_GENERAL	Urban	F	1011101000011101	0000000000010000	-	car	857.173	172.532	0.000	0.000	180.000	696.000	987.000	-0.000	Terminate	
"student29mode1"	"Tanvi_6"	"Feb 16, 2017 10:40:23 AM"	Unknown	28.98391	01/16/0117 10:40.56	00001739	15.340	Inter614t1-0	1.211	1	2	0.000	11.111	-2.0	0.183	0.000	D	F	1856.3	0.000	0.198	0.012	1504.804	711.096	0.025	-	-0.101	0.363	-	-	-	14	7.074	108.511	-	PAVEMENT_GENERAL	Urban	F	1011101000011101	0000000000010000	-	car	852.209	171.878	0.000	0.000	180.000	696.000	987.000	-0.000	Terminate	
"student29mode1"	"Tanvi_6"	"Feb 16, 2017 10:40:23 AM"	Unknown	29.98393	01/16/0117 10:40.57	00001799	15.685	Inter614t1-0	1.138	1	2	0.000	11.111	-2.9	0.180	0.000	D	F	1871.1	359.412	0.197	0.021	1504.731	726.610	0.025	-	-0.160	0.341	-	-	-	14	7.212	113.114	-	PAVEMENT_GENERAL	Urban	F	1011101000011101	0000000000010000	-	car	847.257	170.819	0.000	0.000	180.000	696.000	987.000	-0.000	Terminate	
"student29mode1"	"Tanvi_6"	"Feb 16, 2017 10:40:23 AM"	Unknown	30.98395	01/16/0117 10:40.58	00001859	16.018	Inter614t1-0	0.907	1	2	0.000	11.111	-2.2	0.180	0.000	D	F	1886.6	358.898	0.197	0.016	1504.500	742.461	0.025	-	-0.126	0.322	-	-	-	14	7.328	117.378	-	PAVEMENT_GENERAL	Urban	F	1011101000011101	0000000000010000	-	car	842.313	170.806	0.000	0.000	180.000	696.000	987.000	-0.000	Terminate	
"student29mode1"	"Tanvi_6"	"Feb 16, 2017 10:40:23 AM"	Unknown	31.98397	01/16/0117 10:40.59	00001919	16.331	Inter614t1-0	0.565	1	2	0.000	11.111	9.8	0.180	0.000	D	F	1904.8	358.955	0.196	-0.059	1504.158	758.634	0.025	-	0.390	0.302	-	-	-	14	7.429	121.322	-	PAVEMENT_GENERAL	Urban	F	1011101000011101	0000000000010000	-	car	837.444	177.178	0.000	0.000	180.000	696.000	987.000	-0.000	Terminate	
"student29mode1"	"Tanvi_6"	"Feb 16, 2017 10:40:23 AM"	Unknown	32.98399	01/16/0117 10:41.00	00001979	16.619	Inter614t1-0	0.544	1	2	0.000	11.111	9.9	0.182	0.000	D	F	1925.3	1.074	0.194	-0.079	1504.137	775.109	0.025	-	0.609	0.283	-	-	-	14	7.519	124.962	-	PAVEMENT_GENERAL	Urban	F	1011101000011101	0000000000010000	-	car	833.095	212.909	0.000	0.000	180.000	696.000	987.000	-0.000	Terminate	
"student29mode1"	"Tanvi_6"	"Feb 16, 2017 10:40:23 AM"	Unknown	33.98401	01/16/0117 10:41.01	00002039	16.898	Inter614t1-0	1.126	1	2	0.000	11.111	9.0	0.182	0.000	D	F	1947.6	3.090	0.194	-0.077	1504.719	791.858	0.025	-	0.577	0.277	-	-	-	14	7.594	128.330	-	PAVEMENT_GENERAL	Urban	F	1011101000011101	0000000000010000	-	car	829.570	269.982	0.000	0.000	180.000	696.000	987.000	-0.000	Terminate	
"student29mode1"	"Tanvi_6"	"Feb 16, 2017 10:40:23 AM"	Unknown	34.98403	01/16/0117 10:41.02	00002099	17.170	Inter612t1-1	-1.694	2	2	0.000	11.111	-19.1	0.182	0.000	D	F	1966.4	0.648	0.190	0.183	1505.500	808.875	0.026	-	-1.416	0.263	-	-	-	14	7.792	133.779	-	PAVEMENT_GENERAL	Urban	F	1011101000011101	0000000000010000	-	car	826.506	236.156	0.000	0.000	180.000	696.000	987.000	-0.000	Terminate	
"student29mode1"	"Tanvi_6"	"Feb 16, 2017 10:40:23 AM"	Unknown	35.98405	01/16/0117 10:41.03	00002159	17.425	Inter612t1-0	1.744	1	2	0.000	11.111	-1.4	0.180	0.000	D	F	1983.5	358.679	0.194	0.015	1505.337	826.172	0.025	-	-0.156	0.246	-	-	-	14	7.704	134.248	-	PAVEMENT_GENERAL	Urban	F	1011101000011101	0000000000010000	-	car	822.803	217.129	0.000	0.000	180.000	696.000	987.000	-0.000	Terminate	
"student29mode1"	"Tanvi_6"	"Feb 16, 2017 10:40:23 AM"	Unknown	36.98407	01/16/0117 10:41.04	00002219	17.669	Inter612t1-0	1.337	1	2	0.000	11.111	2.6	0.180	0.000	D	F	2000.0	358.781	0.193	-0.017	1504.930	843.715	0.025	-	0.128	0.239	-	-	-	14	7.744	136.821	-	PAVEMENT_GENERAL	Urban	F	1011101000011101	0000000000010000	-	car	819.163	237.366	0.000	0.000	180.000	696.000	987.000	-0.000	Terminate	
"student29mode1"	"Tanvi_6"	"Feb 16, 2017 10:40:23 AM"	Unknown	37.98409	01/16/0117 10:41.05	00002279	17.819	Inter612t1-0	1.051	1	2	0.000	11.111	4.2	0.134	0.000	D	F	1942.7	359.570	0.191	-0.037	1504.645	861.484	0.027	-	0.292	0.013	-	-	-	14	7.810	139.168	-	PAVEMENT_GENERAL	Urban	F	1011101000011101	0000000000010000	-	car	815.968	284.790	0.000	0.000	180.000	696.000	987.000	-0.000	Terminate	
"student29mode1"	"Tanvi_6"	"Feb 16, 2017 10:40:23 AM"	Unknown	38.98411	01/16/0117 10:41.06	00002339	17.758	Inter612t1-0	0.986	1	2	0.000	11.111	0.0	0.106	0.000	D	F	1895.9	359.902	0.189	0.001	1504.580	879.286	0.027	-	0.003	-0.112	-	-	-	14	7.967	141.482	-	PAVEMENT_GENERAL	Urban	F	1011101000011101	0000000000010000	-	car	813.363	342.471	0.000	0.000	180.000	696.000	987.000	-0.000	Terminate	
"student29mode1"	"Tanvi_6"	"Feb 16, 2017 10:40:23 AM"	Unknown	39.98413	01/16/0117 10:41.07	00002399	17.654	Inter612t1-0	0.959	1	2	0.000	11.111	0.7	0.108	0.000	D	F	1888.5	0.000	0.190	-0.006	1504.552	896.991	0.027	-	0.039	-0.099	-	-	-	14	8.151	143.896	-	PAVEMENT_GENERAL	Urban	F	1011101000011101	0000000000010000	-	car	811.188	412.394	0.000	0.000	180.000	696.000	987.000	-0.000	Terminate	
"student29mode1"	"Tanvi_6"	"Feb 16, 2017 10:40:23 AM"	Unknown	40.98415	01/16/0117 10:41.08	00002459	17.553	Inter612t1-0	0.969	1	2	0.000	11.111	4.3	0.104	0.000	D	F	1878.9	0.190	0.190	-0.028	1504.562	914.594	0.027	-	0.187	-0.100	-	-	-	14	8.341	146.413	-	PAVEMENT_GENERAL	Urban	F	1011101000011101	0000000000010000	-	car	809.438	536.945	0.000	0.000	180.000	696.000	987.000	-0.000	Terminate	
"student29mode1"	"Tanvi_6"	"Feb 16, 2017 10:40:23 AM"	Unknown	41.98417	01/16/0117 10:41.09	00002519	17.450	Inter612t1-0	1.105	1	2	0.000	11.111	0.4	0.104	0.000	D	F	1868.5	0.626	0.190	-0.004	1504.698	932.095	0.027	-	0.045	-0.101	-	-	-	14	8.540	149.031	-	PAVEMENT_GENERAL	Urban	F	1011101000011101	0000000000010000	-	car	808.201	814.995	0.000	0.000	180.000	696.000	987.000	-0.000	Terminate	
"student29mode1"	"Tanvi_6"	"Feb 16, 2017 10:40:23 AM"	Unknown	42.98419	01/16/0117 10:41.10	00002579	17.339	Inter612t1-0	1.297	1	2	0.000	11.111	-4.8	0.099	0.000	D	F	1849.0	0.535	0.190	0.032	1504.890	949.491	0.027	-	-0.197	-0.123	-	-	-	14	8.752	151.755	-	PAVEMENT_GENERAL	Urban	F	1011101000011101	0000000000010000	-	car	807.400	1258.540	0.000	0.000	180.000	696.000	987.000	-0.000	Terminate	
"student29mode1"	"Tanvi_6"	"Feb 16, 2017 10:40:23 AM"	Unknown	43.98421	01/16/0117 10:41.11	00002639	17.218	Inter612t1-0	1.308	1	2	0.000	11.111	-2.8	0.101	0.000	D	F	1843.6	359.516	0.191	0.029	1504.901	966.768	0.027	-	-0.206	-0.113	-	-	-	14	8.979	154.598	-	PAVEMENT_GENERAL	Urban	F	1011101000011101	0000000000010000	-	car	806.795	1401.236	0.000	0.000	180.000	696.000	987.000	-0.000	Terminate	
"student29mode1"	"Tanvi_6"	"Feb 16, 2017 10:40:23 AM"	Unknown	44.98423	01/16/0117 10:41.12	00002699	17.115	Inter612t1-0	1.146	1	2	0.000	11.111	2.0	0.106	0.000	D	F	1840.4	359.512	0.191	-0.014	1504.739	983.932	0.027	-	0.094	-0.092	-	-	-	14	9.206	157.554	-	PAVEMENT_GENERAL	Urban	F	1011101000011101	0000000000010000	-	car	806.386	3829.932	0.000	0.000	180.000	696.000	987.000	-0.000	Terminate	
"student29mode1"	"Tanvi_6"	"Feb 16, 2017 10:40:23 AM"	Unknown	45.98425	01/16/0117 10:41.13	00002759	17.020	Inter613t1-0	1.063	1	2	0.000	11.111	1.2	0.102	0.000	D	F	1830.1	0.000	0.191	-0.011	1504.656	1000.999	0.027	-	0.099	-0.095	-	-	-	14	9.436	160.606	-	PAVEMENT_GENERAL	Urban	F	1011101000011101	0000000000010000	-	car	806.418	-2802.088	0.000	0.000	180.000	696.000	987.000	-0.000	Terminate	
"student29mode1"	"Tanvi_6"	"Feb 16, 2017 10:40:23 AM"	Unknown	46.98427	01/16/0117 10:41.14	00002819	16.923	Inter613t1-0	1.069	1	2	0.000	11.111	-0.2	0.099	0.000	D	F	1817.0	0.049	0.191	-0.000	1504.662	1017.971	0.027	-	0.002	-0.104	-	-	-	14	9.676	163.754	-	PAVEMENT_GENERAL	Urban	F	1011101000011101	0000000000010000	-	car	806.896	-1218.813	0.000	0.000	180.000	696.000	987.000	-0.000	Terminate	
"student29mode1"	"Tanvi_6"	"Feb 16, 2017 10:40:23 AM"	Unknown	47.98429	01/16/0117 10:41.15	00002879	16.812	Inter613t1-0	1.080	1	2	0.000	11.111	-0.0	0.099	0.000	D	F	1804.7	0.014	0.191	0.002	1504.673	1034.838	0.027	-	-0.013	-0.114	-	-	-	14	9.909	166.585	-	PAVEMENT_GENERAL	Urban	F	1011101000011101	0000000000010000	-	car	807.728	-810.332	0.000	0.000	180.000	696.000	987.000	-0.000	Terminate	
"student29mode1"	"Tanvi_6"	"Feb 16, 2017 10:40:23 AM"	Unknown	48.98431	01/16/0117 10:41.16	00002939	16.701	Inter613t1-0	1.103	1	2	0.000	11.111	1.7	0.101	0.000	D	F	1800.9	0.218	0.192	-0.012	1504.696	1051.594	0.027	-	0.093	-0.096	-	-	-	14	9.942	166.037	65.711	PAVEMENT_GENERAL	Urban	F	1011101000011101	0000000000010000	-	car	808.912	-580.684	0.000	0.000	180.000	696.000	987.000	-0.000	Terminate	
"student29mode1"	"Tanvi_6"	"Feb 16, 2017 10:40:23 AM"	Unknown	49.98433	01/16/0117 10:41.17	00002999	16.599	Inter613t1-0	1.198	1	2	0.000	11.111	0.6	0.097	0.000	D	F	1785.2	0.380	0.192	-0.002	1504.791	1068.245	0.027	-	0.019	-0.107	-	-	-	14	9.772	162.212	36.248	PAVEMENT_GENERAL	Urban	F	1011101000011101	0000000000010000	-	car	810.502	-458.282	0.000	0.000	180.000	696.000	987.000	-0.000	Terminate	
"student29mode1"	"Tanvi_6"	"Feb 16, 2017 10:40:23 AM"	Unknown	50.98435	01/16/0117 10:41.18	00003059	16.485	Inter613t1-0	1.328	1	2	0.000	11.111	-3.1	0.093	0.000	D	F	1769.2	0.576	0.191	0.006	1504.921	1084.788	0.027	-	-0.036	-0.125	-	-	-	14	9.549	157.415	31.360	PAVEMENT_GENERAL	Urban	F	1011101000011101	0000000000010000	-	car	812.451	-379.142	0.000	0.000	180.000	696.000	987.000	-0.000	Terminate	
"student29mode1"	"Tanvi_6"	"Feb 16, 2017 10:40:23 AM"	Unknown	51.98437	01/16/0117 10:41.19	00003119	16.360	Inter613t1-0	1.402	1	2	0.000	11.111	-2.0	0.090	0.000	D	F	1755.9	359.947	0.192	0.015	1504.995	1101.211	0.027	-	-0.124	-0.131	-	-	-	14	9.304	152.212	28.217	PAVEMENT_GENERAL	Urban	F	1011101000011101	0000000000010000	-	car	814.658	-358.554	0.000	0.000	180.000	696.000	987.000	-0.000	Terminate	
"student29mode1"	"Tanvi_6"	"Feb 16, 2017 10:40:23 AM"	Unknown	52.98439	01/16/0117 10:41.20	00003179	16.232	Inter613t1-0	1.354	1	2	0.000	11.111	-0.3	0.090	0.000	D	F	1744.2	359.736	0.192	0.004	1504.947	1117.506	0.027	-	-0.023	-0.128	-	-	-	-	-	-	-	PAVEMENT_GENERAL	Urban	F	1011101000011101	0000000000010000	-	car	817.047	-325.337	0.000	0.000	180.000	696.000	987.000	-0.000	Terminate	
"student29mode1"	"Tanvi_6"	"Feb 16, 2017 10:40:23 AM"	Unknown	53.98441	01/16/0117 10:41.21	00003239	16.105	Inter613t1-0	1.271	1	2	0.000	11.111	-1.9	0.088	0.000	D	F	1733.9	359.661	0.192	0.008	1504.865	1133.675	0.027	-	-0.063	-0.124	-	-	-	-	-	-	-	PAVEMENT_GENERAL	Urban	F	1111101000011101	0000000000010000	-	car	819.696	-294.877	0.000	0.000	180.000	696.000	987.000	-0.000	Terminate	
"student29mode1"	"Tanvi_6"	"Feb 16, 2017 10:40:23 AM"	Unknown	54.98443	01/16/0117 10:41.22	00003299	15.985	Inter613t1-0	1.108	1	2	0.000	11.111	-1.8	0.092	0.000	D	F	1724.1	359.121	0.192	0.014	1504.701	1149.718	0.027	-	-0.124	-0.117	-	-	-	-	-	-	-	PAVEMENT_GENERAL	Urban	F	1011101000011101	0000000000010000	-	car	822.550	-282.438	0.000	0.000	180.000	696.000	987.000	-0.000	Terminate	
"student29mode1"	"Tanvi_6"	"Feb 16, 2017 10:40:23 AM"	Unknown	55.98445	01/16/0117 10:41.23	00003359	15.867	Inter613t1-0	0.823	1	2	0.000	11.111	-1.3	0.086	0.000	D	F	1713.9	358.818	0.193	0.009	1504.416	1165.641	0.027	-	-0.071	-0.113	-	-	-	-	-	-	-	PAVEMENT_GENERAL	Urban	F	1011101000011101	0000000000010000	-	car	825.559	-266.028	0.000	0.000	180.000	696.000	987.000	-0.000	Terminate	
"student29mode1"	"Tanvi_6"	"Feb 16, 2017 10:40:23 AM"	Unknown	56.98447	01/16/0117 10:41.24	00003419	15.757	Inter613t1-0	0.471	1	2	0.000	11.111	-1.2	0.090	0.000	D	F	1705.5	358.638	0.193	0.007	1504.064	1181.449	0.027	-	-0.049	-0.108	-	-	-	-	-	-	-	PAVEMENT_GENERAL	Urban	F	1111101000011101	0000000000010000	-	car	828.771	-249.543	0.000	0.000	180.000	696.000	987.000	-0.000	Terminate	
"student29mode1"	"Tanvi_6"	"Feb 16, 2017 10:40:23 AM"	Unknown	57.98449	01/16/0117 10:41.25	00003479	15.651	Inter613t1-0	0.055	1	2	0.000	11.111	-4.3	0.092	0.000	D	F	1696.0	358.285	0.193	0.019	1503.648	1197.147	0.027	-	-0.164	-0.103	-	-	-	-	-	-	-	PAVEMENT_GENERAL	Urban	F	1011101000011101	0000000000010000	-	car	832.180	-238.721	0.000	0.000	180.000	696.000	987.000	-0.000	Terminate	
"student29mode1"	"Tanvi_6"	"Feb 16, 2017 10:40:23 AM"	Unknown	58.98451	01/16/0117 10:41.26	00003539	15.549	Inter615t9-0	-0.634	1	2	0.000	11.111	-10.1	0.090	0.000	D	F	1686.3	356.242	0.191	0.087	1502.960	1212.731	0.027	-	-0.659	-0.100	-	-	-	-	-	-	-	PAVEMENT_GENERAL	Urban	F	1011101000011101	0000000000010000	-	car	835.577	-261.252	0.000	0.000	180.000	696.000	987.000	-0.000	Terminate	
"student29mode1"	"Tanvi_6"	"Feb 16, 2017 10:40:23 AM"	Unknown	59.98453	01/16/0117 10:41.27	00003599	15.451	Inter615t31-0	-1.207	1	1	355.110	11.111	13.3	0.090	0.000	D	F	1677.5	355.501	0.192	-0.073	1501.769	1228.184	0.027	-	0.493	-0.096	-	-	-	22	2.999	46.336	2.999	PAVEMENT_GENERAL	Urban	F	1011101000011101	0000000000010000	-	car	838.731	-257.608	0.000	0.000	180.000	696.000	987.000	-0.000	Terminate	
"student29mode1"	"Tanvi_6"	"Feb 16, 2017 10:40:23 AM"	Unknown	60.98455	01/16/0117 10:41.28	00003659	14.075	Inter615t31-0	-0.731	1	1	355.773	11.111	11.3	0.079	0.334	D	F	1501.6	358.806	0.101	-0.094	1500.976	1243.332	0.035	-	0.728	-4.006	-	-	-	22	2.216	31.183	2.216	PAVEMENT_GENERAL	Urban	F	1011101000011101	0000000000010000	-	car	842.444	-211.136	0.000	0.000	180.000	696.000	987.000	-0.000	Terminate	
"student29mode1"	"Tanvi_6"	"Feb 16, 2017 10:40:23 AM"	Unknown	61.98457	01/16/0117 10:41.29	00003719	10.195	Inter615t31-0	0.172	1	1	356.903	11.111	-2.7	0.076	0.328	D	F	1298.7	0.294	0.140	0.001	1500.889	1255.454	0.036	-	0.015	-3.831	-	-	-	22	1.873	19.099	1.873	PAVEMENT_GENERAL	Urban	F	1011101000011101	0000000000010000	-	car	846.118	-258.326	0.000	0.000	180.000	696.000	987.000	-0.000	Terminate	
"student29mode1"	"Tanvi_6"	"Feb 16, 2017 10:40:23 AM"	Unknown	62.98459	01/16/0117 10:41.30	00003779	6.388	Inter615t31-0	0.594	1	1	356.903	11.111	-8.1	0.081	0.328	D	F	1179.5	359.323	0.146	0.016	1500.863	1263.721	0.035	-	-0.121	-3.644	-	-	-	22	1.697	10.843	1.697	PAVEMENT_GENERAL	Urban	F	1011101000011101	0000000000010000	-	car	848.746	-423.209	0.000	0.000	180.000	696.000	987.000	-0.000	Terminate	
"student29mode1"	"Tanvi_6"	"Feb 16, 2017 10:40:23 AM"	Unknown	63.98461	01/16/0117 10:41.31	00003839	2.499	Inter615t11-0	0.712	LT1	2	0.000	11.111	-4.8	0.069	0.445	D	F	1107.6	358.762	0.145	0.001	1500.774	1268.246	0.037	-	-0.004	-3.962	-	-	-	22	2.513	6.280	2.513	PAVEMENT_GENERAL	Urban	F	1011101000011101	0000000000010000	-	car	850.143	-1099.242	0.000	0.000	180.000	696.000	987.000	-0.000	Terminate	
"student29mode1"	"Tanvi_6"	"Feb 16, 2017 10:40:23 AM"	Unknown	64.98463	01/16/0117 10:41.32	00003899	0.029	Inter615t11-0	0.688	LT1	2	0.000	11.111	-4.9	0.071	0.436	D	F	1020.6	358.663	0.249	-0.000	1500.750	1269.200	0.031	-	0.001	-0.380	-	-	-	22	181.712	5.327	181.712	PAVEMENT_GENERAL	Urban	F	1011101000011101	0000000000010000	-	car	850.436	-93944.953	0.000	0.000	180.000	696.000	987.000	-0.000	Terminate	
"student29mode1"	"Tanvi_6"	"Feb 16, 2017 10:40:23 AM"	Unknown	65.98465	01/16/0117 10:41.33	00003959	-0.000	Inter615t11-0	0.688	LT1	2	0.000	11.111	-4.8	0.074	0.403	D	F	1027.3	358.663	0.221	0.000	1500.750	1269.202	0.029	-	-0.000	-0.000	-	-	-	22	-	5.325	-	PAVEMENT_GENERAL	Urban	F	1011101000011101	0000000000010000	-	car	850.436	8224800.000	0.000	0.000	180.000	696.000	987.000	-0.000	Terminate	
"student29mode1"	"Tanvi_6"	"Feb 16, 2017 10:40:23 AM"	Unknown	66.98467	01/16/0117 10:41.34	00004019	-0.000	Inter615t11-0	0.688	LT1	2	0.000	11.111	-4.7	0.071	0.388	D	F	1028.5	358.663	0.212	0.000	1500.750	1269.202	0.028	-	-0.000	0.000	-	-	-	22	-	5.325	-	PAVEMENT_GENERAL	Urban	F	1011101000011101	0000000000010000	-	car	850.436	22685544.000	0.000	0.000	180.000	696.000	987.000	-0.000	Terminate	
"student29mode1"	"Tanvi_6"	"Feb 16, 2017 10:40:23 AM"	Unknown	67.98470	01/16/0117 10:41.35	00004079	-0.000	Inter615t11-0	0.688	LT1	2	0.000	11.111	-4.8	0.071	0.379	D	F	1028.7	358.663	0.209	0.000	1500.750	1269.202	0.028	-	-0.000	0.000	-	-	-	22	-	5.675	-	PAVEMENT_GENERAL	Urban	F	1011101000011101	0000000000010000	-	car	850.436	64827768.000	0.000	0.000	180.000	696.000	987.000	-0.000	Terminate	
"student29mode1"	"Tanvi_6"	"Feb 16, 2017 10:40:23 AM"	Unknown	68.98471	01/16/0117 10:41.36	00004139	0.000	Inter615t11-0	0.688	LT1	2	0.000	11.111	-4.7	0.081	0.287	D	F	1071.7	358.663	0.209	0.000	1500.750	1269.202	0.028	-	-0.000	0.000	-	-	-	22	-	7.856	-	PAVEMENT_GENERAL	Urban	F	1111101000011101	0000000000010000	-	car	850.436	-106999560.000	0.000	0.000	180.000	696.000	987.000	-0.000	Terminate	
"student29mode1"	"Tanvi_6"	"Feb 16, 2017 10:40:23 AM"	Unknown	69.98473	01/16/0117 10:41.37	00004199	1.041	Inter615t11-0	0.682	LT1	2	0.000	11.111	-7.4	0.134	0.000	D	F	1309.6	358.628	0.251	0.004	1500.744	1269.405	0.013	-	-0.016	3.128	-	-	-	22	11.423	11.886	-	PAVEMENT_GENERAL	Urban	F	1011101000011101	0000000000010000	-	car	850.498	-2650.059	0.000	0.000	180.000	696.000	987.000	-0.000	Terminate	
"student29mode1"	"Tanvi_6"	"Feb 16, 2017 10:40:23 AM"	Unknown	70.98476	01/16/0117 10:41.38	00004259	3.622	Inter615t11-0	0.607	LT1	2	0.000	11.111	-8.1	0.143	0.000	D	F	1520.1	358.265	0.220	0.006	1500.669	1271.832	0.015	-	-0.043	2.093	-	-	-	22	4.320	15.649	-	PAVEMENT_GENERAL	Urban	F	1011101000011101	0000000000010000	-	car	851.234	-770.505	0.000	0.000	180.000	696.000	987.000	-0.000	Terminate	
"student29mode1"	"Tanvi_6"	"Feb 16, 2017 10:40:23 AM"	Unknown	71.98477	01/16/0117 10:41.39	00004319	5.608	Inter615t11-0	0.350	LT1	2	0.000	11.111	-51.9	0.169	0.000	D	F	1850.8	355.990	0.216	0.086	1500.412	1276.454	0.017	-	-0.629	1.721	-	-	-	22	3.426	19.210	-	PAVEMENT_GENERAL	Urban	F	1011101000011101	0000000000010000	-	car	852.545	-559.052	0.000	0.000	180.000	696.000	987.000	-0.000	Terminate	
"student29mode1"	"Tanvi_6"	"Feb 16, 2017 10:40:23 AM"	Unknown	72.98479	01/16/0117 10:41.40	00004379	6.854	Inter615t65-0	-0.718	1	1	355.278	11.111	-100.1	0.134	0.000	D	F	1530.9	346.519	0.202	0.217	1499.312	1282.667	0.022	-	-1.604	0.810	-	-	-	22	3.311	22.694	-	PAVEMENT_GENERAL	Urban	F	1011101000011101	0000000000010000	-	car	853.636	-1063.472	0.000	0.000	180.000	696.000	987.000	-0.000	Terminate	
"student29mode1"	"Tanvi_6"	"Feb 16, 2017 10:40:23 AM"	Unknown	73.98481	01/16/0117 10:41.41	00004439	7.672	Inter615t65-0	-1.772	1	1	335.334	11.111	-100.0	0.139	0.000	D	F	1592.1	332.377	0.199	0.253	1496.508	1289.359	0.023	-	-1.936	0.723	-	-	-	22	3.485	26.742	-	PAVEMENT_GENERAL	Urban	F	1011101000011101	0000000000010000	-	car	853.347	921.723	0.000	0.000	180.000	696.000	987.000	-0.000	Terminate	
"student29mode1"	"Tanvi_6"	"Feb 16, 2017 10:40:23 AM"	Unknown	74.98483	01/16/0117 10:41.42	00004499	8.412	-Inter615t59-0	0.543	-1	1	89.733	11.111	-85.5	0.141	0.000	D	F	1641.2	318.901	0.198	0.252	1491.746	1295.835	0.024	-	-1.949	0.641	-	-	-	22	3.386	28.481	-	PAVEMENT_GENERAL	Urban	F	1011101000011101	0000000000010000	-	car	851.216	297.453	0.000	0.000	180.000	696.000	987.000	-0.000	Terminate	
"student29mode1"	"Tanvi_6"	"Feb 16, 2017 10:40:23 AM"	Unknown	75.98486	01/16/0117 10:41.43	00004559	9.037	Inter615t65-0	-1.513	1	1	287.307	11.111	-98.3	0.141	0.000	D	F	1684.9	303.583	0.191	0.332	1485.057	1301.413	0.025	-	-2.557	0.525	-	-	-	22	3.771	34.082	-	PAVEMENT_GENERAL	Urban	F	1011101000011101	0000000000010000	-	car	847.033	164.677	0.000	0.000	180.000	696.000	987.000	-0.000	Terminate	
"student29mode1"	"Tanvi_6"	"Feb 16, 2017 10:40:23 AM"	Unknown	76.98487	01/16/0117 10:41.44	00004619	9.573	Inter615t3-3	1.579	1	2	270.000	11.111	-101.9	0.143	0.000	D	F	1727.8	286.238	0.185	0.378	1476.547	1305.110	0.025	-	-2.940	0.445	-	-	-	22	4.600	44.033	-	PAVEMENT_GENERAL	Urban	F	1011101000011101	0000000000010000	-	car	840.521	112.055	0.000	0.000	180.000	696.000	987.000	-0.000	Terminate	
"student29mode1"	"Tanvi_6"	"Feb 16, 2017 10:40:23 AM"	Unknown	77.98489	01/16/0117 10:41.45	00004679	10.095	Inter615t17-0	-0.629	1	1	270.063	11.111	-40.5	0.143	0.000	D	F	1789.9	274.247	0.200	0.158	1466.829	1306.502	0.024	-	-1.262	0.522	-	-	-	-	-	-	-	PAVEMENT_GENERAL	Urban	F	1011101000011101	0000000000010000	-	car	832.062	92.311	0.000	0.000	180.000	696.000	987.000	-0.000	Terminate	
"student29mode1"	"Tanvi_6"	"Feb 16, 2017 10:40:23 AM"	Unknown	78.98492	01/16/0117 10:41.46	00004739	10.635	Inter615t17-0	-0.377	1	1	270.095	11.111	0.0	0.150	0.000	D	F	1784.1	270.559	0.208	0.007	1456.472	1306.765	0.024	-	-0.028	0.636	-	-	-	-	-	-	-	PAVEMENT_GENERAL	Urban	F	1011101000011101	0000000000010000	-	car	822.606	84.261	0.000	0.000	180.000	696.000	987.000	-0.000	Terminate	
"student29mode1"	"Tanvi_6"	"Feb 16, 2017 10:40:23 AM"	Unknown	79.98493	01/16/0117 10:41.47	00004799	11.156	Inter615t17-0	-0.281	1	1	270.098	11.111	-4.3	0.168	0.000	D	F	1622.2	270.483	0.205	0.020	1445.568	1306.878	0.024	-	-0.132	0.509	-	-	-	-	-	-	-	PAVEMENT_GENERAL	Urban	F	1011101000011101	0000000000010000	-	car	812.609	79.488	0.000	0.000	180.000	696.000	987.000	-0.000	Terminate	
"student29mode1"	"Tanvi_6"	"Feb 16, 2017 10:40:23 AM"	Unknown	80.98495	01/16/0117 10:41.48	00004859	11.785	Inter615t17-0	-0.260	1	1	270.062	11.111	-0.6	0.185	0.000	D	F	1706.8	270.083	0.205	0.005	1434.103	1306.922	0.023	-	-0.032	0.635	-	-	-	-	-	-	-	PAVEMENT_GENERAL	Urban	F	1011101000011101	0000000000010000	-	car	802.094	74.223	0.000	0.000	180.000	696.000	987.000	-0.000	Terminate	
"student29mode1"	"Tanvi_6"	"Feb 16, 2017 10:40:23 AM"	Unknown	81.98497	01/16/0117 10:41.49	00004919	12.402	Inter615t17-0	-0.283	1	1	270.061	11.111	-1.7	0.187	0.000	D	F	1734.4	269.782	0.203	0.010	1422.006	1306.911	0.024	-	-0.075	0.594	-	-	-	-	-	-	-	PAVEMENT_GENERAL	Urban	F	1011101000011101	0000000000010000	-	car	791.006	69.584	0.000	0.000	180.000	696.000	987.000	-0.000	Terminate	
"student29mode1"	"Tanvi_6"	"Feb 16, 2017 10:40:23 AM"	Unknown	82.98499	01/16/0117 10:41.50	00004979	12.971	Inter615t1-3	-0.366	2	2	270.000	11.111	-1.1	0.185	0.000	D	F	1761.5	269.524	0.202	0.007	1409.317	1306.834	0.024	-	-0.053	0.549	-	-	-	-	-	-	-	PAVEMENT_GENERAL	Urban	F	1011101000011101	0000000000010000	-	car	779.379	65.606	0.000	0.000	180.000	696.000	987.000	-0.000	Terminate	
"student29mode1"	"Tanvi_6"	"Feb 16, 2017 10:40:23 AM"	Unknown	83.98502	01/16/0117 10:41.51	00005039	13.503	Inter616t1-3	-0.488	2	2	270.000	11.111	1.2	0.187	0.000	D	F	1786.5	269.557	0.202	-0.007	1396.077	1306.719	0.024	-	0.051	0.513	-	-	-	-	-	-	-	PAVEMENT_GENERAL	Urban	F	1011101000011101	0000000000010000	-	car	767.269	62.249	0.000	0.000	180.000	696.000	987.000	-0.000	Terminate	
"student29mode1"	"Tanvi_6"	"Feb 16, 2017 10:40:23 AM"	Unknown	84.98503	01/16/0117 10:41.52	00005099	13.998	Inter616t1-3	-0.561	2	2	270.000	11.111	1.3	0.185	0.000	D	F	1805.7	269.848	0.201	-0.009	1382.323	1306.646	0.024	-	0.067	0.476	-	-	-	-	-	-	-	PAVEMENT_GENERAL	Urban	F	1011101000011101	0000000000010000	-	car	754.749	59.407	0.000	0.000	180.000	696.000	987.000	-0.000	Terminate	
"student29mode1"	"Tanvi_6"	"Feb 16, 2017 10:40:23 AM"	Unknown	85.98505	01/16/0117 10:41.53	00005159	14.457	Inter616t1-3	-0.569	2	2	270.000	11.111	0.8	0.183	0.000	D	F	1825.1	270.085	0.200	-0.005	1368.093	1306.638	0.024	-	0.045	0.442	-	-	-	-	-	-	-	PAVEMENT_GENERAL	Urban	F	1011101000011101	0000000000010000	-	car	741.870	56.863	0.000	0.000	180.000	696.000	987.000	-0.000	Terminate	
"student29mode1"	"Tanvi_6"	"Feb 16, 2017 10:40:23 AM"	Unknown	86.98507	01/16/0117 10:41.54	00005219	14.885	Inter616t1-3	-0.536	2	2	270.000	11.111	-0.7	0.185	0.000	D	F	1845.9	270.120	0.199	0.004	1353.420	1306.671	0.025	-	-0.031	0.414	-	-	-	-	-	-	-	PAVEMENT_GENERAL	Urban	F	1011101000011101	0000000000010000	-	car	728.661	54.490	0.000	0.000	180.000	696.000	987.000	-0.000	Terminate	
"student29mode1"	"Tanvi_6"	"Feb 16, 2017 10:40:23 AM"	Unknown	87.98509	01/16/0117 10:41.55	00005279	15.287	Inter616t1-3	-0.517	2	2	270.000	11.111	0.1	0.189	0.000	D	F	1864.5	270.034	0.198	0.001	1338.332	1306.690	0.025	-	-0.006	0.393	-	-	-	-	-	-	-	PAVEMENT_GENERAL	Urban	F	1011101000011101	0000000000010000	-	car	715.131	52.270	0.000	0.000	180.000	696.000	987.000	-0.000	Terminate	
"student29mode1"	"Tanvi_6"	"Feb 16, 2017 10:40:23 AM"	Unknown	88.98512	01/16/0117 10:41.56	00005339	15.664	Inter616t1-3	-0.495	2	2	270.000	11.111	0.9	0.183	0.000	D	F	1877.7	270.169	0.198	-0.006	1322.854	1306.712	0.025	-	0.050	0.360	-	-	-	-	-	-	-	PAVEMENT_GENERAL	Urban	F	1011101000011101	0000000000010000	-	car	701.318	50.337	0.000	0.000	180.000	696.000	987.000	-0.000	Terminate	
"student29mode1"	"Tanvi_6"	"Feb 16, 2017 10:40:23 AM"	Unknown	89.98513	01/16/0117 10:41.57	00005399	16.002	Inter616t1-3	-0.427	2	2	270.000	11.111	0.9	0.182	0.000	D	F	1888.5	270.343	0.197	-0.007	1307.019	1306.780	0.025	-	0.051	0.327	-	-	-	-	-	-	-	PAVEMENT_GENERAL	Urban	F	1011101000011101	0000000000010000	-	car	687.281	48.629	0.000	0.000	180.000	696.000	987.000	-0.000	Terminate	
"student29mode1"	"Tanvi_6"	"Feb 16, 2017 10:40:23 AM"	Unknown	90.98515	01/16/0117 10:41.58	00005459	16.322	Inter616t1-3	-0.305	2	2	270.000	11.111	0.7	0.182	0.000	D	F	1908.4	270.535	0.196	-0.006	1290.856	1306.901	0.025	-	0.046	0.312	-	-	-	-	-	-	-	PAVEMENT_GENERAL	Urban	F	1011101000011101	0000000000010000	-	car	673.059	47.058	0.000	0.000	180.000	696.000	987.000	-0.000	Terminate	
"student29mode1"	"Tanvi_6"	"Feb 16, 2017 10:40:23 AM"	Unknown	91.98518	01/16/0117 10:41.59	00005519	16.628	Inter616t1-3	-0.147	2	2	270.000	11.111	-0.8	0.183	0.000	D	F	1931.7	270.502	0.196	0.007	1274.380	1307.060	0.025	-	-0.049	0.299	-	-	-	-	-	-	-	PAVEMENT_GENERAL	Urban	F	1011101000011101	0000000000010000	-	car	658.671	45.495	0.000	0.000	180.000	696.000	987.000	-0.000	Terminate	
"student29mode1"	"Tanvi_6"	"Feb 16, 2017 10:40:23 AM"	Unknown	92.98519	01/16/0117 10:42.00	00005579	16.919	Inter616t1-3	-0.034	2	2	270.000	11.111	-2.1	0.183	0.000	D	F	1953.0	270.191	0.195	0.016	1257.606	1307.173	0.025	-	-0.122	0.284	-	-	-	-	-	-	-	PAVEMENT_GENERAL	Urban	F	1011101000011101	0000000000010000	-	car	644.101	43.905	0.000	0.000	180.000	696.000	987.000	-0.000	Terminate	
"student29mode1"	"Tanvi_6"	"Feb 16, 2017 10:40:23 AM"	Unknown	93.98521	01/16/0117 10:42.01	00005639	17.199	Inter616t1-3	-0.046	2	2	270.000	11.111	-2.7	0.183	0.000	D	F	1974.3	269.645	0.195	0.021	1240.546	1307.161	0.025	-	-0.169	0.278	-	-	-	-	-	-	-	PAVEMENT_GENERAL	Urban	F	1011101000011101	0000000000010000	-	car	629.331	42.294	0.000	0.000	180.000	696.000	987.000	-0.000	Terminate	
"student29mode1"	"Tanvi_6"	"Feb 16, 2017 10:40:23 AM"	Unknown	94.98523	01/16/0117 10:42.02	00005699	17.467	Inter616t1-3	-0.210	2	2	270.000	11.111	-0.3	0.183	0.000	D	F	1991.4	269.288	0.194	0.005	1223.213	1306.997	0.025	-	-0.046	0.260	-	-	-	-	-	-	-	PAVEMENT_GENERAL	Urban	F	1011101000011101	0000000000010000	-	car	614.367	40.841	0.000	0.000	180.000	696.000	987.000	-0.000	Terminate	
"student29mode1"	"Tanvi_6"	"Feb 16, 2017 10:40:23 AM"	Unknown	95.98525	01/16/0117 10:42.03	00005759	17.723	Inter616t1-3	-0.445	2	2	270.000	11.111	-0.8	0.183	0.000	D	F	2009.9	269.142	0.194	0.006	1205.619	1306.761	0.025	-	-0.051	0.252	-	-	-	-	-	-	-	PAVEMENT_GENERAL	Urban	F	1011101000011101	0000000000010000	-	car	599.271	39.551	0.000	0.000	180.000	696.000	987.000	-0.000	Terminate	
"student29mode1"	"Tanvi_6"	"Feb 16, 2017 10:40:23 AM"	Unknown	96.98528	01/16/0117 10:42.04	00005819	17.971	Inter617t1-3	-0.686	2	2	270.000	11.111	5.5	0.183	0.000	D	F	2027.5	269.595	0.193	-0.045	1187.773	1306.521	0.025	-	0.323	0.245	-	-	-	-	-	-	-	PAVEMENT_GENERAL	Urban	F	1011101000011101	0000000000010000	-	car	584.100	38.585	0.000	0.000	180.000	696.000	987.000	-0.000	Terminate	
"student29mode1"	"Tanvi_6"	"Feb 16, 2017 10:40:23 AM"	Unknown	97.98529	01/16/0117 10:42.05	00005879	18.208	Inter617t1-3	-0.696	2	2	270.000	11.111	2.6	0.182	0.000	D	F	2043.1	270.321	0.193	-0.022	1169.683	1306.510	0.026	-	0.158	0.233	-	-	-	-	-	-	-	PAVEMENT_GENERAL	Urban	F	1011101000011101	0000000000010000	-	car	569.009	37.838	0.000	0.000	180.000	696.000	987.000	-0.000	Terminate	
"student29mode1"	"Tanvi_6"	"Feb 16, 2017 10:40:23 AM"	Unknown	98.98531	01/16/0117 10:42.06	00005939	18.434	Inter617t1-3	-0.564	2	2	270.000	11.111	-3.1	0.182	0.000	D	F	2057.7	270.306	0.193	0.024	1151.361	1306.642	0.026	-	-0.173	0.223	-	-	-	-	-	-	-	PAVEMENT_GENERAL	Urban	F	1111101000011101	0000000000010000	-	car	553.990	36.856	0.000	0.000	180.000	696.000	987.000	-0.000	Terminate	
"student29mode1"	"Tanvi_6"	"Feb 16, 2017 10:40:23 AM"	Unknown	99.98534	01/16/0117 10:42.07	00005999	18.650	Inter617t1-3	-0.532	2	2	270.000	11.111	1.4	0.183	0.000	D	F	2072.1	269.988	0.192	-0.009	1132.818	1306.675	0.026	-	0.038	0.213	-	-	-	-	-	-	-	PAVEMENT_GENERAL	Urban	F	1011101000011101	0000000000010000	-	car	538.937	35.803	0.000	0.000	180.000	696.000	987.000	-0.000	Terminate	
"student29mode1"	"Tanvi_6"	"Feb 16, 2017 10:40:23 AM"	Unknown	100.98535	01/16/0117 10:42.08	00006059	18.855	Inter617t1-3	-0.498	2	2	270.000	11.111	0.1	0.180	0.000	D	F	2085.4	270.182	0.191	-0.002	1114.064	1306.708	0.026	-	0.014	0.198	-	-	-	-	-	-	-	PAVEMENT_GENERAL	Urban	F	1011101000011101	0000000000010000	-	car	523.940	35.067	0.000	0.000	180.000	696.000	987.000	-0.000	Terminate	
"student29mode1"	"Tanvi_6"	"Feb 16, 2017 10:40:23 AM"	Unknown	101.98537	01/16/0117 10:42.09	00006119	18.807	Inter617t1-3	-0.433	2	2	270.000	11.111	1.3	0.115	0.134	D	F	1967.9	270.297	0.136	-0.011	1095.137	1306.773	0.027	-	0.081	-1.509	-	-	-	-	-	-	-	PAVEMENT_GENERAL	Urban	F	1011101000011101	0000000000010000	-	car	509.075	34.830	0.000	0.000	180.000	696.000	987.000	-0.000	Terminate	
"student29mode1"	"Tanvi_6"	"Feb 16, 2017 10:40:23 AM"	Unknown	102.98539	01/16/0117 10:42.10	00006179	15.874	Inter617t1-3	-0.315	2	2	270.000	11.111	-2.2	0.097	0.245	D	F	1681.4	270.449	0.143	0.010	1077.710	1306.891	0.034	-	-0.055	-3.139	-	-	-	-	-	-	-	PAVEMENT_GENERAL	Urban	F	1011101000011101	0000000000010000	-	car	495.670	41.011	0.000	0.000	180.000	696.000	987.000	-0.000	Terminate	
"student29mode1"	"Tanvi_6"	"Feb 16, 2017 10:40:23 AM"	Unknown	103.98541	01/16/0117 10:42.11	00006239	12.823	Inter617t1-3	-0.277	2	2	270.000	11.111	-3.2	0.102	0.212	D	F	1507.3	269.664	0.152	0.026	1063.384	1306.930	0.033	-	-0.197	-2.691	-	-	-	-	-	-	-	PAVEMENT_GENERAL	Urban	F	1011101000011101	0000000000010000	-	car	484.802	49.881	0.000	0.000	180.000	696.000	987.000	-0.000	Terminate	
"student29mode1"	"Tanvi_6"	"Feb 16, 2017 10:40:23 AM"	Unknown	104.98544	01/16/0117 10:42.12	00006299	10.881	Inter617t1-3	-0.373	2	2	270.000	11.111	2.4	0.108	0.113	D	F	1454.4	269.560	0.186	-0.011	1051.628	1306.834	0.029	-	0.078	-1.160	-	-	-	-	-	-	-	PAVEMENT_GENERAL	Urban	F	1011101000011101	0000000000010000	-	car	475.935	58.426	0.000	0.000	180.000	696.000	987.000	-0.000	Terminate	
"student29mode1"	"Tanvi_6"	"Feb 16, 2017 10:40:23 AM"	Unknown	105.98545	01/16/0117 10:42.13	00006359	10.611	Inter617t1-3	-0.405	2	2	270.000	11.111	0.6	0.118	0.000	D	F	1480.9	270.014	0.201	-0.000	1041.029	1306.802	0.025	-	0.026	0.317	-	-	-	-	-	-	-	PAVEMENT_GENERAL	Urban	F	1011101000011101	0000000000010000	-	car	468.085	60.161	0.000	0.000	180.000	696.000	987.000	-0.000	Terminate	
"student29mode1"	"Tanvi_6"	"Feb 16, 2017 10:40:23 AM"	Unknown	106.98547	01/16/0117 10:42.14	00006419	10.916	Inter617t1-3	-0.391	2	2	270.000	11.111	0.8	0.120	0.000	D	F	1493.0	270.131	0.202	-0.003	1030.264	1306.816	0.025	-	0.027	0.294	-	-	-	-	-	-	-	PAVEMENT_GENERAL	Urban	F	1011101000011101	0000000000010000	-	car	460.258	58.482	0.000	0.000	180.000	696.000	987.000	-0.000	Terminate	
"student29mode1"	"Tanvi_6"	"Feb 16, 2017 10:40:23 AM"	Unknown	107.98550	01/16/0117 10:42.15	00006479	10.440	Inter617t1-3	-0.360	2	2	270.000	11.111	0.9	0.120	0.170	D	F	1464.2	270.152	0.155	-0.004	1019.412	1306.847	0.028	-	0.017	-1.679	-	-	-	-	-	-	-	PAVEMENT_GENERAL	Urban	F	1011101000011101	0000000000010000	-	car	452.500	61.118	0.000	0.000	180.000	696.000	987.000	-0.000	Terminate	
"student29mode1"	"Tanvi_6"	"Feb 16, 2017 10:40:23 AM"	Unknown	108.98551	01/16/0117 10:42.16	00006539	9.803	Inter617t1-3	-0.323	2	2	270.000	11.111	3.0	0.123	0.000	D	F	1459.5	270.337	0.204	-0.010	1009.570	1306.884	0.024	-	0.082	0.387	-	-	-	-	-	-	-	PAVEMENT_GENERAL	Urban	F	1011101000011101	0000000000010000	-	car	445.583	65.326	0.000	0.000	180.000	696.000	987.000	-0.000	Terminate	
"student29mode1"	"Tanvi_6"	"Feb 16, 2017 10:40:23 AM"	Unknown	109.98553	01/16/0117 10:42.17	00006599	8.899	Inter617t1-3	-0.220	2	2	270.000	11.111	6.5	0.125	0.000	D	F	1442.5	270.919	0.230	-0.022	1000.241	1306.986	0.025	-	0.166	0.488	-	-	-	31	1.382	12.301	14.215	PAVEMENT_GENERAL	Urban	F	1011101000011101	0000000000010000	-	car	439.176	72.862	0.000	0.000	180.000	696.000	987.000	-0.000	Terminate	
"student29mode1"	"Tanvi_6"	"Feb 16, 2017 10:40:23 AM"	Unknown	110.98555	01/16/0117 10:42.18	00006659	7.806	Inter618t1-1	-0.695	2	2	269.978	24.444	-3.4	0.120	0.215	D	F	1389.9	271.735	0.252	-0.036	991.631	1307.205	0.035	-	-0.065	-2.151	-	-	-	31	1.919	14.977	-	FREEWAY_SMOOTH	Urban	F	1011101000011101	0000000000010000	-	car	433.448	84.677	0.000	0.000	180.000	696.000	987.000	-0.000	Terminate	
"student29mode1"	"Tanvi_6"	"Feb 16, 2017 10:40:23 AM"	Unknown	111.98557	01/16/0117 10:42.19	00006719	6.002	Inter618t1-1	-0.555	2	2	269.890	24.444	-9.0	0.125	0.185	D	F	1408.3	270.646	0.290	-0.130	984.791	1307.338	0.046	-	-0.117	-1.449	-	-	-	31	3.184	19.113	-	FREEWAY_SMOOTH	Urban	F	1011101000011101	0000000000010000	-	car	428.937	108.080	0.000	0.000	180.000	696.000	987.000	-0.000	Terminate	
"student29mode1"	"Tanvi_6"	"Feb 16, 2017 10:40:23 AM"	Unknown	112.98560	01/16/0117 10:42.20	00006779	5.066	Inter618t1-1	-0.527	2	2	269.743	24.444	-2.4	0.129	0.146	D	F	1405.9	270.029	0.286	-0.225	979.332	1307.350	0.053	-	-0.014	-0.684	-	-	-	31	5.248	26.587	-	FREEWAY_SMOOTH	Urban	F	1011101000011101	0000000000010000	-	car	425.310	126.781	0.000	0.000	180.000	696.000	987.000	-0.000	Terminate	
"student29mode1"	"Tanvi_6"	"Feb 16, 2017 10:40:23 AM"	Unknown	113.98561	01/16/0117 10:42.21	00006839	4.363	Inter618t1-1	-0.508	2	2	269.569	24.444	0.6	0.120	0.188	D	F	1368.3	269.911	0.273	-0.293	974.605	1307.342	0.061	-	0.014	-1.070	-	-	-	31	8.420	36.739	-	FREEWAY_SMOOTH	Urban	F	1011101000011101	0000000000010000	-	car	422.187	147.184	0.000	0.000	180.000	696.000	987.000	-0.000	Terminate	
"student29mode1"	"Tanvi_6"	"Feb 16, 2017 10:40:23 AM"	Unknown	114.98563	01/16/0117 10:42.22	00006899	4.328	Inter618t1-1	-0.472	2	2	269.387	24.444	4.4	0.157	0.000	D	F	1443.4	270.086	0.325	-0.348	970.590	1307.343	0.063	-	0.035	1.479	-	-	-	31	11.322	48.998	-	FREEWAY_SMOOTH	Urban	F	1011101000011101	0000000000010000	-	car	419.563	149.221	0.000	0.000	180.000	696.000	987.000	-0.000	Terminate	
"student29mode1"	"Tanvi_6"	"Feb 16, 2017 10:40:23 AM"	Unknown	115.98566	01/16/0117 10:42.23	00006959	5.837	Inter618t1-1	-0.373	2	2	269.113	24.444	2.6	0.180	0.000	D	F	1593.3	270.482	0.328	-0.411	965.507	1307.376	0.072	-	0.020	1.470	-	-	-	31	10.370	60.525	-	FREEWAY_SMOOTH	Urban	F	1011101000011101	0000000000010000	-	car	416.299	111.918	0.000	0.000	180.000	696.000	987.000	-0.000	Terminate	
"student29mode1"	"Tanvi_6"	"Feb 16, 2017 10:40:23 AM"	Unknown	116.98567	01/16/0117 10:42.24	00007019	7.314	Inter618t1-1	-0.219	2	2	268.689	24.444	-8.8	0.201	0.000	D	F	1736.2	269.998	0.328	-0.485	958.931	1307.407	0.085	-	-0.165	1.453	-	-	-	31	9.746	71.282	-	FREEWAY_SMOOTH	Urban	F	1011101000011101	0000000000010000	-	car	412.120	88.817	0.000	0.000	180.000	696.000	987.000	-0.000	Terminate	
"student29mode1"	"Tanvi_6"	"Feb 16, 2017 10:40:23 AM"	Unknown	117.98569	01/16/0117 10:42.25	00007079	8.729	Inter618t1-1	-0.083	2	2	268.048	24.444	-1.3	0.215	0.000	D	F	1860.2	269.294	0.333	-0.604	950.901	1307.318	0.102	-	-0.054	1.354	-	-	-	31	9.252	80.764	-	FREEWAY_SMOOTH	Urban	F	1011101000011101	0000000000010000	-	car	407.004	73.741	0.000	0.000	180.000	696.000	987.000	-0.000	Terminate	
"student29mode1"	"Tanvi_6"	"Feb 16, 2017 10:40:23 AM"	Unknown	118.98571	01/16/0117 10:42.26	00007139	9.993	Inter618t1-1	0.168	2	2	267.140	24.444	-6.8	0.217	0.000	D	F	1959.9	269.102	0.344	-0.718	941.528	1307.183	0.123	-	-0.196	1.192	-	-	-	31	8.894	88.877	-	FREEWAY_SMOOTH	Urban	F	1011101000011101	0000000000010000	-	car	401.127	64.653	0.000	0.000	180.000	696.000	987.000	-0.000	Terminate	
"student29mode1"	"Tanvi_6"	"Feb 16, 2017 10:40:23 AM"	Unknown	119.98573	01/16/0117 10:42.27	00007199	11.110	Inter618t1-1	0.439	2	2	265.927	24.444	-12.9	0.220	0.000	D	F	2046.1	267.212	0.341	-0.829	930.971	1306.825	0.148	-	-0.472	1.050	-	-	-	31	8.635	95.934	-	FREEWAY_SMOOTH	Urban	F	1011101000011101	0000000000010000	-	car	394.502	56.312	0.000	0.000	180.000	696.000	987.000	-0.000	Terminate	
"student29mode1"	"Tanvi_6"	"Feb 16, 2017 10:40:23 AM"	Unknown	120.98576	01/16/0117 10:42.28	00007259	12.112	Inter618t1-1	0.551	2	2	264.345	24.444	-12.2	0.222	0.000	D	F	2157.1	264.635	0.321	-0.985	919.385	1305.963	0.173	-	-0.530	0.964	-	-	-	31	8.377	101.461	-	FREEWAY_SMOOTH	Urban	F	1011101000011101	0000000000010000	-	car	387.048	49.335	0.000	0.000	180.000	696.000	987.000	-0.000	Terminate	
"student29mode1"	"Tanvi_6"	"Feb 16, 2017 10:40:23 AM"	Unknown	121.98577	01/16/0117 10:42.29	00007319	13.042	Inter618t1-1	0.521	2	2	262.325	24.444	-9.4	0.219	0.000	D	F	2259.5	262.272	0.313	-1.166	906.890	1304.492	0.198	-	-0.486	0.900	-	-	-	31	8.161	106.438	-	FREEWAY_SMOOTH	Urban	F	1011101000011101	0000000000010000	-	car	378.791	43.986	0.000	0.000	180.000	696.000	987.000	-0.000	Terminate	
"student29mode1"	"Tanvi_6"	"Feb 16, 2017 10:40:23 AM"	Unknown	122.98579	01/16/0117 10:42.30	00007379	13.922	Inter618t1-1	0.491	2	2	259.867	24.444	-17.6	0.220	0.000	D	F	2379.5	259.950	0.318	-1.297	893.569	1302.400	0.224	-	-0.812	0.853	-	-	-	31	7.955	110.751	-	FREEWAY_SMOOTH	Urban	F	1011101000011101	0000000000010000	-	car	369.810	39.612	0.000	0.000	180.000	696.000	987.000	-0.000	Terminate	
"student29mode1"	"Tanvi_6"	"Feb 16, 2017 10:40:23 AM"	Unknown	123.98581	01/16/0117 10:42.31	00007439	14.622	Inter618t1-1	0.318	2	2	256.906	24.444	-16.6	0.210	0.000	D	F	1902.2	255.744	0.261	-1.476	879.591	1299.379	0.249	-	-1.025	0.588	-	-	-	31	7.821	114.358	-	FREEWAY_SMOOTH	Urban	F	1011101000011101	0000000000010000	-	car	359.975	35.000	0.000	0.000	180.000	696.000	987.000	-0.000	Terminate	
"student29mode1"	"Tanvi_6"	"Feb 16, 2017 10:40:23 AM"	Unknown	124.98583	01/16/0117 10:42.32	00007499	15.193	Inter618t1-1	0.063	2	2	253.404	24.444	-15.1	0.205	0.000	D	F	1909.1	253.193	0.166	-1.654	865.236	1295.340	0.264	-	-0.766	0.523	-	-	-	31	7.721	117.308	-	FREEWAY_SMOOTH	Urban	F	1011101000011101	0000000000010000	-	car	349.372	32.203	0.000	0.000	180.000	696.000	987.000	-0.000	Terminate	
"student29mode1"	"Tanvi_6"	"Feb 16, 2017 10:40:23 AM"	Unknown	125.98586	01/16/0117 10:42.33	00007559	15.667	Inter618t1-1	-0.091	2	2	249.679	24.444	-19.7	0.199	0.000	D	F	1916.0	248.806	0.168	-1.592	850.638	1290.333	0.259	-	-1.264	0.448	-	-	-	31	7.611	119.247	-	FREEWAY_SMOOTH	Urban	F	1011101000011101	0000000000010000	-	car	338.117	28.948	0.000	0.000	180.000	696.000	987.000	-0.000	Terminate	
"student29mode1"	"Tanvi_6"	"Feb 16, 2017 10:40:23 AM"	Unknown	126.98587	01/16/0117 10:42.34	00007619	16.100	Inter618t1-1	-0.439	2	2	245.876	24.444	-6.0	0.201	0.000	D	F	1940.7	244.593	0.149	-1.673	836.061	1284.029	0.249	-	-0.741	0.433	-	-	-	31	7.539	121.383	-	FREEWAY_SMOOTH	Urban	F	1011101000011101	0000000000010000	-	car	326.036	26.187	0.000	0.000	180.000	696.000	987.000	-0.000	Terminate	
"student29mode1"	"Tanvi_6"	"Feb 16, 2017 10:40:23 AM"	Unknown	127.98589	01/16/0117 10:42.35	00007679	16.516	Inter618t1-1	-0.550	2	2	241.925	24.444	-8.5	0.199	0.000	D	F	1960.5	242.584	0.210	-1.677	821.452	1276.775	0.245	-	-0.618	0.404	-	-	-	31	7.444	122.938	-	FREEWAY_SMOOTH	Urban	F	1011101000011101	0000000000010000	-	car	313.406	24.479	0.000	0.000	180.000	696.000	987.000	-0.000	Terminate	
"student29mode1"	"Tanvi_6"	"Feb 16, 2017 10:40:23 AM"	Unknown	128.98592	01/16/0117 10:42.36	00007739	16.898	Inter618t1-1	-0.181	2	2	237.895	24.444	-25.2	0.201	0.000	D	F	1979.8	239.524	0.237	-1.552	806.802	1268.743	0.257	-	-1.457	0.361	-	-	-	31	7.350	124.193	-	FREEWAY_SMOOTH	Urban	F	1011101000011101	0000000000010000	-	car	300.388	22.576	0.000	0.000	180.000	696.000	987.000	-0.000	Terminate	
"student29mode1"	"Tanvi_6"	"Feb 16, 2017 10:40:23 AM"	Unknown	129.98593	01/16/0117 10:42.37	00007799	17.230	Inter618t1-1	-0.053	2	2	233.788	24.444	-22.2	0.196	0.000	D	F	1996.0	232.751	0.151	-1.518	792.599	1259.293	0.261	-	-1.853	0.333	-	-	-	31	7.259	125.074	-	FREEWAY_SMOOTH	Urban	F	1011101000011101	0000000000010000	-	car	286.561	19.880	0.000	0.000	180.000	696.000	987.000	-0.000	Terminate	
"student29mode1"	"Tanvi_6"	"Feb 16, 2017 10:40:23 AM"	Unknown	130.98595	01/16/0117 10:42.38	00007859	17.555	Inter618t1-1	-0.449	2	2	229.615	24.444	-18.3	0.196	0.000	D	F	2019.4	227.984	0.136	-1.576	779.186	1248.226	0.249	-	-1.392	0.323	-	-	-	31	7.133	125.225	-	FREEWAY_SMOOTH	Urban	F	1011101000011101	0000000000010000	-	car	271.792	17.935	0.000	0.000	180.000	696.000	987.000	-0.000	Terminate	
"student29mode1"	"Tanvi_6"	"Feb 16, 2017 10:40:23 AM"	Unknown	131.98598	01/16/0117 10:42.39	00007919	17.857	Inter618t1-1	-1.028	2	2	225.303	24.444	-17.4	0.192	0.000	D	F	2034.1	222.841	0.111	-1.556	766.521	1235.853	0.232	-	-1.539	0.296	-	-	-	31	7.009	125.158	-	FREEWAY_SMOOTH	Urban	F	1011101000011101	0000000000010000	-	car	256.293	16.111	0.000	0.000	180.000	696.000	987.000	-0.000	Terminate	
"student29mode1"	"Tanvi_6"	"Feb 16, 2017 10:40:23 AM"	Unknown	132.98599	01/16/0117 10:42.40	00007979	18.146	Inter618t1-1	-1.724	2	2	220.941	24.444	-16.4	0.192	0.000	D	F	2056.1	218.934	0.124	-1.589	754.709	1222.272	0.211	-	-1.263	0.287	-	-	-	31	6.893	125.086	471.877	FREEWAY_SMOOTH	Urban	F	1011101000011101	0000000000010000	-	car	240.127	14.592	0.000	0.000	180.000	696.000	987.000	-0.000	Terminate	
"student29mode1"	"Tanvi_6"	"Feb 16, 2017 10:40:23 AM"	Unknown	133.98601	01/16/0117 10:42.41	00008039	18.417	Inter618t1-0	1.325	1	2	216.531	24.444	-13.4	0.190	0.000	D	F	2071.7	215.123	0.142	-1.615	743.682	1207.691	0.194	-	-1.108	0.271	-	-	-	31	6.654	122.547	228.461	FREEWAY_SMOOTH	Urban	F	1011101000011101	0000000000010000	-	car	223.424	13.172	0.000	0.000	180.000	696.000	987.000	-0.000	Terminate	
"student29mode1"	"Tanvi_6"	"Feb 16, 2017 10:40:23 AM"	Unknown	134.98604	01/16/0117 10:42.42	00008099	18.672	Inter618t1-0	1.014	1	2	212.021	24.444	-16.6	0.189	0.000	D	F	2086.7	211.186	0.157	-1.578	733.474	1192.208	0.185	-	-1.382	0.245	-	-	-	31	6.778	126.570	159.950	FREEWAY_SMOOTH	Urban	F	1011101000011101	0000000000010000	-	car	206.242	11.818	0.000	0.000	180.000	696.000	987.000	-0.000	Terminate	
"student29mode1"	"Tanvi_6"	"Feb 16, 2017 10:40:23 AM"	Unknown	135.98605	01/16/0117 10:42.43	00008159	18.913	Inter618t1-0	0.855	1	2	207.432	24.444	-15.4	0.189	0.000	D	F	2106.2	207.128	0.175	-1.586	724.273	1175.825	0.180	-	-1.303	0.243	-	-	-	-	-	-	-	FREEWAY_SMOOTH	Urban	F	1011101000011101	0000000000010000	-	car	188.570	10.521	0.000	0.000	180.000	696.000	987.000	-0.000	Terminate	
"student29mode1"	"Tanvi_6"	"Feb 16, 2017 10:40:23 AM"	Unknown	136.98607	01/16/0117 10:42.44	00008219	19.144	Inter618t1-0	0.905	1	2	202.802	24.444	-15.5	0.187	0.000	D	F	2116.6	203.195	0.198	-1.585	716.126	1158.629	0.182	-	-1.320	0.226	-	-	-	-	-	-	-	FREEWAY_SMOOTH	Urban	F	1011101000011101	0000000000010000	-	car	170.446	9.286	0.000	0.000	180.000	696.000	987.000	-0.000	Terminate	
"student29mode1"	"Tanvi_6"	"Feb 16, 2017 10:40:23 AM"	Unknown	137.98610	01/16/0117 10:42.45	00008279	19.294	Inter618t1-0	1.161	1	2	198.122	24.444	-19.8	0.160	0.000	D	F	2095.7	198.765	0.197	-1.535	709.141	1140.718	0.190	-	-1.671	0.079	-	-	-	31	6.178	119.204	84.341	FREEWAY_SMOOTH	Urban	F	1011101000011101	0000000000010000	-	car	151.919	8.111	0.000	0.000	180.000	696.000	987.000	-0.000	Terminate	
"student29mode1"	"Tanvi_6"	"Feb 16, 2017 10:40:23 AM"	Unknown	138.98611	01/16/0117 10:42.46	00008339	19.033	Inter618t1-0	1.358	1	2	193.509	24.444	-19.0	0.046	0.101	D	F	1467.4	193.455	0.063	-1.411	703.689	1122.255	0.189	-	-1.753	-1.381	-	-	-	-	-	-	-	FREEWAY_SMOOTH	Urban	F	1011101000011101	0000000000010000	-	car	133.114	7.106	0.000	0.000	180.000	696.000	987.000	-0.000	Terminate	
"student29mode1"	"Tanvi_6"	"Feb 16, 2017 10:40:23 AM"	Unknown	139.98613	01/16/0117 10:42.47	00008399	16.321	Inter618t1-0	1.286	1	2	189.761	24.444	-19.9	0.000	0.155	D	F	1093.6	188.654	0.043	-1.205	700.177	1104.891	0.168	-	-1.455	-2.494	-	-	-	-	-	-	-	FREEWAY_SMOOTH	Urban	F	1011101000011101	0000000000010000	-	car	115.606	7.131	0.000	0.000	180.000	696.000	987.000	-0.000	Terminate	
"student29mode1"	"Tanvi_6"	"Feb 16, 2017 10:40:23 AM"	Unknown	140.98616	01/16/0117 10:42.48	00008459	13.999	Inter618t1-0	0.827	1	2	187.078	24.444	2.9	0.000	0.107	D	F	941.1	184.927	0.060	-1.161	698.413	1089.885	0.137	-	-0.287	-1.840	-	-	-	-	-	-	-	FREEWAY_SMOOTH	Urban	F	1011101000011101	0000000000010000	-	car	100.554	7.197	0.000	0.000	180.000	696.000	987.000	-0.000	Terminate	
"student29mode1"	"Tanvi_6"	"Feb 16, 2017 10:40:23 AM"	Unknown	141.98618	01/16/0117 10:42.49	00008519	12.062	Inter618t1-0	0.538	1	2	185.076	24.444	-10.7	0.000	0.122	D	F	1126.6	184.537	0.090	-0.954	697.315	1076.884	0.116	-	-0.364	-2.042	-	-	-	-	-	-	-	FREEWAY_SMOOTH	Urban	F	1011101000011101	0000000000010000	-	car	87.534	7.272	0.000	0.000	180.000	696.000	987.000	-0.000	Terminate	
"student29mode1"	"Tanvi_6"	"Feb 16, 2017 10:40:23 AM"	Unknown	142.98619	01/16/0117 10:42.50	00008579	9.572	Inter618t1-0	0.312	1	2	183.667	24.444	-10.1	0.000	0.149	D	F	921.4	182.050	0.076	-0.806	696.709	1066.052	0.101	-	-0.357	-2.373	-	-	-	-	-	-	-	FREEWAY_SMOOTH	Urban	F	1011101000011101	0000000000010000	-	car	76.695	8.016	0.000	0.000	180.000	696.000	987.000	-0.000	Terminate	
"student29mode1"	"Tanvi_6"	"Feb 16, 2017 10:40:23 AM"	Unknown	143.98621	01/16/0117 10:42.51	00008639	7.437	Inter618t1-0	0.052	1	2	182.724	24.444	2.4	0.019	0.027	D	F	784.8	181.516	0.127	-0.744	696.495	1057.596	0.087	-	0.049	-0.988	-	-	-	-	-	-	-	FREEWAY_SMOOTH	Urban	F	1011101000011101	0000000000010000	-	car	68.238	9.177	0.000	0.000	180.000	696.000	987.000	-0.000	Terminate	
"student29mode1"	"Tanvi_6"	"Feb 16, 2017 10:40:23 AM"	Unknown	144.98624	01/16/0117 10:42.52	00008699	7.881	Inter618t1-0	-0.087	1	2	182.002	24.444	-5.0	0.164	0.000	D	F	1490.8	181.162	0.143	-0.617	696.320	1050.034	0.069	-	-0.108	0.726	-	-	-	-	-	-	-	FREEWAY_SMOOTH	Urban	F	1011101000011101	0000000000010000	-	car	60.676	7.700	0.000	0.000	180.000	696.000	987.000	-0.000	Terminate	
"student29mode1"	"Tanvi_6"	"Feb 16, 2017 10:40:23 AM"	Unknown	145.98625	01/16/0117 10:42.53	00008759	8.584	Inter618t1-0	-0.248	1	2	181.337	24.444	-3.5	0.164	0.000	D	F	1530.9	180.267	0.142	-0.502	696.240	1041.801	0.059	-	-0.096	0.708	-	-	-	-	-	-	-	FREEWAY_SMOOTH	Urban	F	1011101000011101	0000000000010000	-	car	52.442	6.109	0.000	0.000	180.000	696.000	987.000	-0.000	Terminate	
"student29mode1"	"Tanvi_6"	"Feb 16, 2017 10:40:23 AM"	Unknown	146.98627	01/16/0117 10:42.54	00008819	9.261	Inter618t1-0	-0.375	1	2	180.769	24.444	7.8	0.162	0.000	D	F	1552.8	180.568	0.152	-0.418	696.202	1032.874	0.050	-	0.190	0.656	-	-	-	-	-	-	-	FREEWAY_SMOOTH	Urban	F	1011101000011101	0000000000010000	-	car	43.515	4.699	0.000	0.000	180.000	696.000	987.000	-0.000	Terminate	
"student29mode1"	"Tanvi_6"	"Feb 16, 2017 10:40:23 AM"	Unknown	147.98630	01/16/0117 10:42.55	00008879	9.887	Inter618t1-0	-0.302	1	2	180.327	24.444	-9.8	0.157	0.000	D	F	1556.2	180.896	0.152	-0.222	696.038	1023.293	0.042	-	-0.260	0.560	-	-	-	-	-	-	-	FREEWAY_SMOOTH	Urban	F	1011101000011101	0000000000010000	-	car	34.062	3.722	0.733	2.000	179.701	696.001	986.872	-0.000	Terminate	
"student29mode1"	"Tanvi_6"	"Feb 16, 2017 10:40:23 AM"	Unknown	148.98631	01/16/0117 10:42.56	00008939	10.426	Inter618t1-0	-0.313	1	2	180.041	24.444	-2.0	0.150	0.000	D	F	1562.8	179.779	0.150	-0.104	696.016	1013.130	0.032	-	-0.074	0.508	-	-	-	-	-	-	-	FREEWAY_SMOOTH	Urban	F	1011101000011101	0000000000010000	-	car	25.613	3.328	2.733	2.000	176.582	696.102	985.158	-0.000	Terminate	
"student29mode1"	"Tanvi_6"	"Feb 16, 2017 10:40:23 AM"	Unknown	149.98633	01/16/0117 10:42.57	00008999	10.470	Inter618t1-0	-0.383	1	2	180.000	24.444	-0.4	0.042	0.116	D	F	1166.9	179.553	0.155	0.004	696.083	1002.545	0.027	-	-0.023	-1.476	-	-	-	-	-	-	-	FREEWAY_SMOOTH	Urban	F	1111101000011101	0000000000010000	-	car	18.741	3.265	4.733	2.000	177.468	696.287	981.446	-0.000	Terminate	
"student29mode1"	"Tanvi_6"	"Feb 16, 2017 10:40:23 AM"	Unknown	150.98636	01/16/0117 10:42.58	00009059	7.246	Inter686t1-0	0.248	1	1	180.000	11.111	3.0	0.048	0.200	D	F	1035.1	179.672	0.176	-0.008	696.148	993.600	0.034	-	0.057	-2.629	-	-	-	car	1.815	13.152	25.680	PAVEMENT_GENERAL	Urban	F	1011101000011101	0000000000010000	-	car	15.513	30.300	6.733	2.000	179.480	696.390	975.730	-0.000	Terminate	
"student29mode1"	"Tanvi_6"	"Feb 16, 2017 10:40:23 AM"	Unknown	151.98637	01/16/0117 10:42.59	00009119	6.007	Inter686t1-0	0.237	1	1	180.000	11.111	3.6	0.104	0.000	D	F	1271.0	180.020	0.205	-0.006	696.159	987.298	0.025	-	0.048	0.422	-	-	-	car	2.425	14.567	-	PAVEMENT_GENERAL	Urban	F	1011101000011101	0000000000010000	-	car	16.928	-6.208	8.733	2.000	180.024	696.399	968.013	-0.000	Terminate	
"student29mode1"	"Tanvi_6"	"Feb 16, 2017 10:40:23 AM"	Unknown	152.98639	01/16/0117 10:43.00	00009179	7.039	Inter686t1-0	0.275	1	1	180.000	11.111	-0.1	0.183	0.000	D	F	1670.9	180.439	0.216	0.001	696.121	980.841	0.020	-	-0.005	1.307	-	-	-	car	2.532	17.826	-	PAVEMENT_GENERAL	Urban	F	1011101000011101	0000000000010000	-	car	20.187	-5.464	10.734	2.000	180.003	696.397	958.296	-0.000	Terminate	
"student29mode1"	"Tanvi_6"	"Feb 16, 2017 10:40:23 AM"	Unknown	153.98642	01/16/0117 10:43.01	00009239	8.340	Inter686t1-0	0.316	1	1	180.000	11.111	-1.9	0.201	0.000	D	F	1801.7	180.190	0.214	0.006	696.080	973.147	0.020	-	-0.044	1.288	-	-	-	car	2.620	21.849	-	PAVEMENT_GENERAL	Urban	F	1011101000011101	0000000000010000	-	car	24.211	-5.510	12.734	2.000	180.003	696.397	946.579	-0.000	Terminate	
