"Name"	"Project"	"Time"	ZoneName	Time	SystemTime	Frame	Velocity	LaneName	LanePos	LaneIndex	LaneCount	LaneHeading	SpeedLimit	Steer	Accel	Brake	Gear	Horn	SubjectEngineRPM	SubjectHeading	SubjectPitch	SubjectRoll	SubjectX	SubjectY	SubjectZ	Signal	LatAccel	LongAccel	Collision	CollisionAngle	CollisionVelocity	VehAhead	HeadwayTime	HeadwayDist	TTC	TerrainType	CultureType	Slip	DigitalInputs	DigitalInputs2	ActiveTrigger	EntityName	DistToEntity	TimeToEntity	EntityVelocity	EntityAccel	EntityHeading	EntityX	EntityY	EntityZ	GrabData	
"Student27Mode3"	"Tanvi_6"	"Feb 16, 2017 10:20:59 AM"	Unknown	0.98335	01/16/0117 10:21.03	00000059	0.002	Inter625t13-0	-0.088	1	2	0.000	11.111	7.8	0.000	0.000	D	F	0.0	0.003	0.153	-0.003	1503.500	523.206	0.019	-	-0.000	0.000	-	-	-	-	-	-	-	PAVEMENT_GENERAL	Urban	F	1011101000011101	0000000000010000	-	car	928.855	774649.125	0.000	0.000	180.000	696.000	987.000	-0.000	Terminate	
"Student27Mode3"	"Tanvi_6"	"Feb 16, 2017 10:20:59 AM"	Unknown	1.98337	01/16/0117 10:21.04	00000119	0.000	Inter625t13-0	-0.088	1	2	0.000	11.111	6.5	0.000	0.000	D	F	0.0	0.001	0.197	-0.000	1503.500	523.208	0.026	-	0.000	-0.001	-	-	-	-	-	-	-	PAVEMENT_GENERAL	Urban	F	1011101000011101	0000000000010000	-	car	928.855	4212183.000	0.000	0.000	180.000	696.000	987.000	-0.000	Terminate	
"Student27Mode3"	"Tanvi_6"	"Feb 16, 2017 10:20:59 AM"	Unknown	2.98339	01/16/0117 10:21.05	00000179	-0.000	Inter625t13-0	-0.088	1	2	0.000	11.111	6.1	0.000	0.000	D	F	0.0	0.001	0.207	-0.000	1503.500	523.208	0.028	-	0.000	-0.000	-	-	-	-	-	-	-	PAVEMENT_GENERAL	Urban	F	1111101000011101	0000000000010000	-	car	928.854	-116550424.000	0.000	0.000	180.000	696.000	987.000	-0.000	Terminate	
"Student27Mode3"	"Tanvi_6"	"Feb 16, 2017 10:20:59 AM"	Unknown	3.98341	01/16/0117 10:21.06	00000239	-0.000	Inter625t13-0	-0.088	1	2	0.000	11.111	6.0	0.000	0.000	D	F	0.0	0.001	0.210	-0.000	1503.500	523.208	0.028	-	0.000	-0.000	-	-	-	-	-	-	-	PAVEMENT_GENERAL	Urban	F	1011101000011101	0000000000010000	-	car	928.854	-22316580.000	0.000	0.000	180.000	696.000	987.000	-0.000	Terminate	
"Student27Mode3"	"Tanvi_6"	"Feb 16, 2017 10:20:59 AM"	Unknown	4.98343	01/16/0117 10:21.07	00000299	-0.000	Inter625t13-0	-0.088	1	2	0.000	11.111	5.8	0.000	0.000	D	F	0.0	0.001	0.210	-0.000	1503.500	523.208	0.028	-	0.000	0.000	-	-	-	-	-	-	-	PAVEMENT_GENERAL	Urban	F	1011101000011101	0000000000010000	-	car	928.854	-24867334.000	0.000	0.000	180.000	696.000	987.000	-0.000	Terminate	
"Student27Mode3"	"Tanvi_6"	"Feb 16, 2017 10:20:59 AM"	Unknown	5.98345	01/16/0117 10:21.08	00000359	-0.000	Inter625t13-0	-0.088	1	2	0.000	11.111	5.8	0.000	0.000	D	F	0.0	0.001	0.209	-0.000	1503.500	523.208	0.028	-	0.000	0.000	-	-	-	-	-	-	-	PAVEMENT_GENERAL	Urban	F	1011101000011101	0000000000010000	-	car	928.855	-34395620.000	0.000	0.000	180.000	696.000	987.000	-0.000	Terminate	
"Student27Mode3"	"Tanvi_6"	"Feb 16, 2017 10:20:59 AM"	Unknown	6.98347	01/16/0117 10:21.09	00000419	-0.000	Inter625t13-0	-0.088	1	2	0.000	11.111	2.0	0.000	0.000	D	F	27.8	0.001	0.209	-0.000	1503.500	523.208	0.028	-	0.000	0.000	-	-	-	-	-	-	-	PAVEMENT_GENERAL	Urban	F	1011101000011111	0000000000010000	-	car	928.855	-57345076.000	0.000	0.000	180.000	696.000	987.000	-0.000	Terminate	
"Student27Mode3"	"Tanvi_6"	"Feb 16, 2017 10:20:59 AM"	Unknown	7.98349	01/16/0117 10:21.10	00000479	0.001	Inter625t13-0	-0.088	1	2	0.000	11.111	0.1	0.000	0.000	D	F	361.1	0.001	0.209	0.000	1503.500	523.208	0.028	-	0.000	0.004	-	-	-	-	-	-	-	PAVEMENT_GENERAL	Urban	F	1111101000011101	0000000000010000	-	car	928.854	2249082.750	0.000	0.000	180.000	696.000	987.000	-0.000	Terminate	
"Student27Mode3"	"Tanvi_6"	"Feb 16, 2017 10:20:59 AM"	Unknown	8.98351	01/16/0117 10:21.11	00000539	0.025	Inter625t13-0	-0.088	1	2	0.000	11.111	-4.1	0.048	0.000	D	F	745.7	0.001	0.200	-0.000	1503.500	523.216	0.024	-	-0.001	0.113	-	-	-	-	-	-	-	PAVEMENT_GENERAL	Urban	F	1011101000011101	0000000000010000	-	car	928.850	73268.031	0.000	0.000	180.000	696.000	987.000	-0.000	Terminate	
"Student27Mode3"	"Tanvi_6"	"Feb 16, 2017 10:20:59 AM"	Unknown	9.98353	01/16/0117 10:21.12	00000599	0.800	Inter625t13-0	-0.088	1	2	0.000	11.111	-0.6	0.023	0.000	D	F	502.1	0.000	0.174	-0.000	1503.500	523.661	0.022	-	0.000	-0.041	-	-	-	-	-	-	-	PAVEMENT_GENERAL	Urban	F	1011101000011101	0000000000010000	-	car	928.629	2332.403	0.000	0.000	180.000	696.000	987.000	-0.000	Terminate	
"Student27Mode3"	"Tanvi_6"	"Feb 16, 2017 10:20:59 AM"	Unknown	10.98355	01/16/0117 10:21.13	00000659	1.415	Inter625t13-0	-0.087	1	2	0.000	11.111	3.8	0.069	0.000	D	F	1048.9	0.028	0.227	-0.001	1503.501	524.761	0.023	-	0.005	1.104	-	-	-	-	-	-	-	PAVEMENT_GENERAL	Urban	F	1011101000011101	0000000000010000	-	car	928.083	1321.575	0.000	0.000	180.000	696.000	987.000	-0.000	Terminate	
"Student27Mode3"	"Tanvi_6"	"Feb 16, 2017 10:20:59 AM"	Unknown	11.98357	01/16/0117 10:21.14	00000719	2.953	Inter625t13-0	-0.077	1	2	0.000	11.111	2.9	0.090	0.000	D	F	1289.5	0.227	0.216	0.000	1503.511	526.951	0.019	-	0.002	1.480	-	-	-	-	-	-	-	PAVEMENT_GENERAL	Urban	F	1011101000011101	0000000000010000	-	car	927.005	638.629	0.000	0.000	180.000	696.000	987.000	-0.000	Terminate	
"Student27Mode3"	"Tanvi_6"	"Feb 16, 2017 10:20:59 AM"	Unknown	12.98359	01/16/0117 10:21.15	00000779	4.624	Inter625t13-0	-0.047	1	2	0.000	11.111	3.5	0.173	0.000	D	F	1691.0	0.497	0.219	-0.004	1503.541	530.709	0.018	-	0.026	1.734	-	-	-	-	-	-	-	PAVEMENT_GENERAL	Urban	F	1011101000011101	0000000000010000	-	car	925.177	413.031	0.000	0.000	180.000	696.000	987.000	-0.000	Terminate	
"Student27Mode3"	"Tanvi_6"	"Feb 16, 2017 10:20:59 AM"	Unknown	13.98361	01/16/0117 10:21.16	00000839	6.132	Inter625t49-0	0.026	1	1	0.005	11.111	2.8	0.198	0.000	D	F	1702.2	0.866	0.222	-0.004	1503.614	536.126	0.019	-	0.035	1.629	-	-	-	-	-	-	-	PAVEMENT_GENERAL	Urban	F	1011101000011101	0000000000010000	-	car	922.588	317.294	0.000	0.000	180.000	696.000	987.000	-0.000	Terminate	
"Student27Mode3"	"Tanvi_6"	"Feb 16, 2017 10:20:59 AM"	Unknown	14.98363	01/16/0117 10:21.17	00000899	7.769	Inter625t49-0	0.138	1	1	0.007	11.111	-2.8	0.231	0.000	D	F	1825.0	0.840	0.217	0.006	1503.726	543.088	0.019	-	-0.053	1.596	-	-	-	-	-	-	-	PAVEMENT_GENERAL	Urban	F	1011101000011101	0000000000010000	-	car	919.313	252.450	0.000	0.000	180.000	696.000	987.000	-0.000	Terminate	
"Student27Mode3"	"Tanvi_6"	"Feb 16, 2017 10:20:59 AM"	Unknown	15.98365	01/16/0117 10:21.18	00000959	9.295	Inter625t49-0	0.232	1	1	0.008	11.111	-0.3	0.263	0.000	D	F	1954.6	0.561	0.215	0.000	1503.821	551.633	0.019	-	-0.010	1.456	-	-	-	-	-	-	-	PAVEMENT_GENERAL	Urban	F	1011101000011101	0000000000010000	-	car	915.311	211.411	0.000	0.000	180.000	696.000	987.000	-0.000	Terminate	
"Student27Mode3"	"Tanvi_6"	"Feb 16, 2017 10:20:59 AM"	Unknown	16.98367	01/16/0117 10:21.19	00001019	10.656	Inter625t49-0	0.323	1	1	0.006	11.111	-0.2	0.265	0.000	D	F	2060.9	0.508	0.211	0.001	1503.914	561.624	0.020	-	-0.007	1.283	-	-	-	-	-	-	-	PAVEMENT_GENERAL	Urban	F	1011101000011101	0000000000010000	-	car	910.695	186.588	0.000	0.000	180.000	696.000	987.000	-0.000	Terminate	
"Student27Mode3"	"Tanvi_6"	"Feb 16, 2017 10:20:59 AM"	Unknown	17.98369	01/16/0117 10:21.20	00001079	11.873	Inter625t49-0	0.418	1	1	0.005	11.111	-0.2	0.272	0.000	D	F	2172.5	0.473	0.209	0.001	1504.010	572.898	0.021	-	-0.009	1.165	-	-	-	-	-	-	-	PAVEMENT_GENERAL	Urban	F	1011101000011101	0000000000010000	-	car	905.584	169.970	0.000	0.000	180.000	696.000	987.000	-0.000	Terminate	
"Student27Mode3"	"Tanvi_6"	"Feb 16, 2017 10:20:59 AM"	Unknown	18.98371	01/16/0117 10:21.21	00001139	13.019	Inter625t15-0	0.515	1	2	0.000	11.111	-0.2	0.277	0.000	D	F	2316.6	0.434	0.208	0.001	1504.109	585.347	0.021	-	-0.009	1.132	-	-	-	-	-	-	-	PAVEMENT_GENERAL	Urban	F	1011101000011101	0000000000010000	-	car	900.062	157.741	0.000	0.000	180.000	696.000	987.000	-0.000	Terminate	
"Student27Mode3"	"Tanvi_6"	"Feb 16, 2017 10:20:59 AM"	Unknown	19.98373	01/16/0117 10:21.22	00001199	14.100	Inter625t15-0	0.608	1	2	0.000	11.111	-0.5	0.275	0.000	D	F	2442.5	0.339	0.206	0.003	1504.202	598.912	0.021	-	-0.026	1.071	-	-	-	-	-	-	-	PAVEMENT_GENERAL	Urban	F	1011101000011101	0000000000010000	-	car	894.190	148.341	0.000	0.000	180.000	696.000	987.000	-0.000	Terminate	
"Student27Mode3"	"Tanvi_6"	"Feb 16, 2017 10:20:59 AM"	Unknown	20.98375	01/16/0117 10:21.23	00001259	15.120	Inter614t1-0	0.683	1	2	0.000	11.111	-0.3	0.116	0.000	D	F	2144.0	0.238	0.197	0.003	1504.276	613.540	0.022	-	-0.022	0.573	-	-	-	-	-	-	-	PAVEMENT_GENERAL	Urban	F	1011101000011101	0000000000010000	-	car	888.024	141.300	0.000	0.000	180.000	696.000	987.000	-0.000	Terminate	
"Student27Mode3"	"Tanvi_6"	"Feb 16, 2017 10:20:59 AM"	Unknown	21.98377	01/16/0117 10:21.24	00001319	15.303	Inter614t1-0	0.739	1	2	0.000	11.111	-0.3	0.180	0.000	D	F	1852.4	0.180	0.199	0.002	1504.333	628.737	0.025	-	-0.016	0.320	-	-	-	-	-	-	-	PAVEMENT_GENERAL	Urban	F	1011101000011101	0000000000010000	-	car	881.809	143.223	0.000	0.000	180.000	696.000	987.000	-0.000	Terminate	
"Student27Mode3"	"Tanvi_6"	"Feb 16, 2017 10:20:59 AM"	Unknown	22.98379	01/16/0117 10:21.25	00001379	15.764	Inter614t1-0	0.781	1	2	0.000	11.111	-0.2	0.212	0.000	D	F	1944.8	0.119	0.199	0.002	1504.374	644.262	0.024	-	-0.015	0.491	-	-	-	-	-	-	-	PAVEMENT_GENERAL	Urban	F	1011101000011101	0000000000010000	-	car	875.671	143.008	0.000	0.000	180.000	696.000	987.000	-0.000	Terminate	
"Student27Mode3"	"Tanvi_6"	"Feb 16, 2017 10:20:59 AM"	Unknown	23.98381	01/16/0117 10:21.26	00001439	16.258	Inter614t1-0	0.808	1	2	0.000	11.111	-0.5	0.219	0.000	D	F	1993.6	0.057	0.198	0.004	1504.401	660.270	0.024	-	-0.027	0.514	-	-	-	-	-	-	-	PAVEMENT_GENERAL	Urban	F	1011101000011101	0000000000010000	-	car	869.572	143.091	0.000	0.000	180.000	696.000	987.000	-0.000	Terminate	
"Student27Mode3"	"Tanvi_6"	"Feb 16, 2017 10:20:59 AM"	Unknown	24.98383	01/16/0117 10:21.27	00001499	16.750	Inter614t1-0	0.801	1	2	0.000	11.111	-0.6	0.141	0.000	D	F	1874.9	359.874	0.188	0.005	1504.394	676.789	0.025	-	-0.043	0.232	-	-	-	-	-	-	-	PAVEMENT_GENERAL	Urban	F	1011101000011101	0000000000010000	-	car	863.511	143.077	0.000	0.000	180.000	696.000	987.000	-0.000	Terminate	
"Student27Mode3"	"Tanvi_6"	"Feb 16, 2017 10:20:59 AM"	Unknown	25.98385	01/16/0117 10:21.28	00001559	16.683	Inter614t1-0	0.750	1	2	0.000	11.111	-0.5	0.139	0.000	D	F	1853.5	359.765	0.193	0.004	1504.343	693.484	0.026	-	-0.030	0.086	-	-	-	-	-	-	-	PAVEMENT_GENERAL	Urban	F	1011101000011101	0000000000010000	-	car	857.623	148.934	0.000	0.000	180.000	696.000	987.000	-0.000	Terminate	
"Student27Mode3"	"Tanvi_6"	"Feb 16, 2017 10:20:59 AM"	Unknown	26.98387	01/16/0117 10:21.29	00001619	16.892	Inter614t1-0	0.669	1	2	0.000	11.111	0.0	0.183	0.000	D	F	1955.2	359.683	0.195	0.001	1504.263	710.255	0.025	-	-0.010	0.293	-	-	-	-	-	-	-	PAVEMENT_GENERAL	Urban	F	1011101000011101	0000000000010000	-	car	851.968	153.223	0.000	0.000	180.000	696.000	987.000	-0.000	Terminate	
"Student27Mode3"	"Tanvi_6"	"Feb 16, 2017 10:20:59 AM"	Unknown	27.98389	01/16/0117 10:21.30	00001679	16.973	Inter614t1-0	0.589	1	2	0.000	11.111	0.4	0.076	0.000	D	F	1785.8	359.800	0.190	-0.003	1504.182	727.242	0.027	-	0.031	-0.175	-	-	-	-	-	-	-	PAVEMENT_GENERAL	Urban	F	1011101000011101	0000000000010000	-	car	846.541	161.244	0.000	0.000	180.000	696.000	987.000	-0.000	Terminate	
"Student27Mode3"	"Tanvi_6"	"Feb 16, 2017 10:20:59 AM"	Unknown	28.98391	01/16/0117 10:21.31	00001739	16.725	Inter614t1-0	0.539	1	2	0.000	11.111	-0.3	0.069	0.000	D	F	1741.5	359.850	0.191	0.002	1504.132	744.093	0.028	-	-0.008	-0.244	-	-	-	-	-	-	-	PAVEMENT_GENERAL	Urban	F	1011101000011101	0000000000010000	-	car	841.490	173.277	0.000	0.000	180.000	696.000	987.000	-0.000	Terminate	
"Student27Mode3"	"Tanvi_6"	"Feb 16, 2017 10:20:59 AM"	Unknown	29.98393	01/16/0117 10:21.32	00001799	16.292	Inter614t1-0	0.478	1	2	0.000	11.111	0.5	0.102	0.030	D	F	1763.5	359.756	0.186	-0.003	1504.071	760.633	0.028	-	0.014	-0.442	-	-	-	-	-	-	-	PAVEMENT_GENERAL	Urban	F	1011101000011101	0000000000010000	-	car	836.819	187.568	0.000	0.000	180.000	696.000	987.000	-0.000	Terminate	
"Student27Mode3"	"Tanvi_6"	"Feb 16, 2017 10:20:59 AM"	Unknown	30.98395	01/16/0117 10:21.33	00001859	16.153	Inter614t1-0	0.429	1	2	0.000	11.111	0.7	0.138	0.000	D	F	1816.8	359.918	0.195	-0.006	1504.022	776.824	0.026	-	0.048	0.090	-	-	-	-	-	-	-	PAVEMENT_GENERAL	Urban	F	1011101000011101	0000000000010000	-	car	832.550	203.624	0.000	0.000	180.000	696.000	987.000	-0.000	Terminate	
"Student27Mode3"	"Tanvi_6"	"Feb 16, 2017 10:20:59 AM"	Unknown	31.98397	01/16/0117 10:21.34	00001919	16.266	Inter614t1-0	0.422	1	2	0.000	11.111	0.6	0.169	0.000	D	F	1877.0	0.050	0.195	-0.005	1504.015	793.030	0.026	-	0.035	0.185	-	-	-	-	-	-	-	PAVEMENT_GENERAL	Urban	F	1011101000011101	0000000000010000	-	car	828.612	219.026	0.000	0.000	180.000	696.000	987.000	-0.000	Terminate	
"Student27Mode3"	"Tanvi_6"	"Feb 16, 2017 10:20:59 AM"	Unknown	32.98399	01/16/0117 10:21.35	00001979	16.025	Inter612t1-0	0.449	1	2	0.000	11.111	0.5	0.048	0.113	D	F	1622.9	0.151	0.160	-0.004	1504.043	809.292	0.029	-	0.027	-1.413	-	-	-	-	-	-	-	PAVEMENT_GENERAL	Urban	F	1011101000011101	0000000000010000	-	car	824.994	242.591	0.000	0.000	180.000	696.000	987.000	-0.000	Terminate	
"Student27Mode3"	"Tanvi_6"	"Feb 16, 2017 10:20:59 AM"	Unknown	33.98401	01/16/0117 10:21.36	00002039	14.368	Inter612t1-0	0.502	1	2	0.000	11.111	0.5	0.069	0.027	D	F	1549.2	0.272	0.186	-0.005	1504.095	824.366	0.028	-	0.033	-0.603	-	-	-	-	-	-	-	PAVEMENT_GENERAL	Urban	F	1011101000011101	0000000000010000	-	car	821.939	296.958	0.000	0.000	180.000	696.000	987.000	-0.000	Terminate	
"Student27Mode3"	"Tanvi_6"	"Feb 16, 2017 10:20:59 AM"	Unknown	34.98403	01/16/0117 10:21.37	00002099	14.265	Inter612t1-0	0.582	1	2	0.000	11.111	0.5	0.131	0.000	D	F	1665.2	0.377	0.196	-0.003	1504.175	838.638	0.026	-	0.023	0.125	-	-	-	-	-	-	-	PAVEMENT_GENERAL	Urban	F	1011101000011101	0000000000010000	-	car	819.321	329.927	0.000	0.000	180.000	696.000	987.000	-0.000	Terminate	
"Student27Mode3"	"Tanvi_6"	"Feb 16, 2017 10:20:59 AM"	Unknown	35.98405	01/16/0117 10:21.38	00002159	14.515	Inter612t1-0	0.678	1	2	0.000	11.111	-0.8	0.160	0.000	D	F	1762.0	0.293	0.200	0.007	1504.272	853.024	0.025	-	-0.060	0.287	-	-	-	-	-	-	-	PAVEMENT_GENERAL	Urban	F	1011101000011101	0000000000010000	-	car	816.940	355.144	0.000	0.000	180.000	696.000	987.000	-0.000	Terminate	
"Student27Mode3"	"Tanvi_6"	"Feb 16, 2017 10:20:59 AM"	Unknown	36.98407	01/16/0117 10:21.39	00002219	14.762	Inter612t1-0	0.735	1	2	0.000	11.111	0.3	0.160	0.000	D	F	1781.9	0.177	0.202	0.001	1504.328	867.671	0.025	-	0.002	0.318	-	-	-	-	-	-	-	PAVEMENT_GENERAL	Urban	F	1011101000011101	0000000000010000	-	car	814.729	385.979	0.000	0.000	180.000	696.000	987.000	-0.000	Terminate	
"Student27Mode3"	"Tanvi_6"	"Feb 16, 2017 10:20:59 AM"	Unknown	37.98409	01/16/0117 10:21.40	00002279	14.973	Inter612t1-0	0.805	1	2	0.000	11.111	1.6	0.162	0.000	D	F	1784.6	0.381	0.197	-0.006	1504.398	882.540	0.025	-	0.067	0.247	-	-	-	-	-	-	-	PAVEMENT_GENERAL	Urban	F	1011101000011101	0000000000010000	-	car	812.759	446.578	0.000	0.000	180.000	696.000	987.000	-0.000	Terminate	
"Student27Mode3"	"Tanvi_6"	"Feb 16, 2017 10:20:59 AM"	Unknown	38.98411	01/16/0117 10:21.41	00002339	15.309	Inter612t1-0	0.918	1	2	0.000	11.111	-1.6	0.180	0.000	D	F	1857.6	0.356	0.198	0.010	1504.511	897.671	0.025	-	-0.080	0.372	-	-	-	-	-	-	-	PAVEMENT_GENERAL	Urban	F	1011101000011101	0000000000010000	-	car	811.072	511.166	0.000	0.000	180.000	696.000	987.000	-0.000	Terminate	
"Student27Mode3"	"Tanvi_6"	"Feb 16, 2017 10:20:59 AM"	Unknown	39.98413	01/16/0117 10:21.42	00002399	15.687	Inter612t1-0	0.981	1	2	0.000	11.111	-3.7	0.185	0.000	D	F	1882.1	0.117	0.197	0.014	1504.574	913.168	0.025	-	-0.122	0.374	-	-	-	-	-	-	-	PAVEMENT_GENERAL	Urban	F	1011101000011101	0000000000010000	-	car	809.579	580.566	0.000	0.000	180.000	696.000	987.000	-0.000	Terminate	
"Student27Mode3"	"Tanvi_6"	"Feb 16, 2017 10:20:59 AM"	Unknown	40.98415	01/16/0117 10:21.43	00002459	16.054	Inter612t1-0	0.937	1	2	0.000	11.111	-1.0	0.189	0.000	D	F	1908.5	359.568	0.197	0.008	1504.530	929.037	0.025	-	-0.089	0.365	-	-	-	-	-	-	-	PAVEMENT_GENERAL	Urban	F	1011101000011101	0000000000010000	-	car	808.245	637.007	0.000	0.000	180.000	696.000	987.000	-0.000	Terminate	
"Student27Mode3"	"Tanvi_6"	"Feb 16, 2017 10:20:59 AM"	Unknown	41.98417	01/16/0117 10:21.44	00002519	16.411	Inter612t1-0	0.801	1	2	0.000	11.111	5.1	0.189	0.000	D	F	1930.4	359.699	0.197	-0.034	1504.395	945.270	0.025	-	0.242	0.350	-	-	-	-	-	-	-	PAVEMENT_GENERAL	Urban	F	1011101000011101	0000000000010000	-	car	807.111	865.856	0.000	0.000	180.000	696.000	987.000	-0.000	Terminate	
"Student27Mode3"	"Tanvi_6"	"Feb 16, 2017 10:20:59 AM"	Unknown	42.98419	01/16/0117 10:21.45	00002579	16.752	Inter612t1-0	0.797	1	2	0.000	11.111	-5.2	0.190	0.000	D	F	1955.8	359.828	0.197	0.035	1504.390	961.854	0.025	-	-0.287	0.334	-	-	-	-	-	-	-	PAVEMENT_GENERAL	Urban	F	1011101000011101	0000000000010000	-	car	806.422	1411.784	0.000	0.000	180.000	696.000	987.000	-0.000	Terminate	
"Student27Mode3"	"Tanvi_6"	"Feb 16, 2017 10:20:59 AM"	Unknown	43.98421	01/16/0117 10:21.46	00002639	17.097	Inter612t1-0	0.622	1	2	0.000	11.111	-3.4	0.196	0.000	D	F	1988.3	358.958	0.195	0.028	1504.215	978.776	0.025	-	-0.214	0.344	-	-	-	-	-	-	-	PAVEMENT_GENERAL	Urban	F	1011101000011101	0000000000010000	-	car	805.897	1662.723	0.000	0.000	180.000	696.000	987.000	-0.000	Terminate	
"Student27Mode3"	"Tanvi_6"	"Feb 16, 2017 10:20:59 AM"	Unknown	44.98423	01/16/0117 10:21.47	00002699	17.442	Inter612t1-0	0.260	1	2	0.000	11.111	7.5	0.201	0.000	D	F	2024.6	358.941	0.196	-0.051	1503.853	996.040	0.025	-	0.340	0.362	-	-	-	-	-	-	-	PAVEMENT_GENERAL	Urban	F	1011101000011101	0000000000010000	-	car	805.544	6329.212	0.000	0.000	180.000	696.000	987.000	-0.000	Terminate	
"Student27Mode3"	"Tanvi_6"	"Feb 16, 2017 10:20:59 AM"	Unknown	45.98425	01/16/0117 10:21.48	00002759	17.809	Inter613t1-0	0.137	1	2	0.000	11.111	3.3	0.206	0.000	D	F	2059.8	0.224	0.194	-0.035	1503.730	1013.662	0.025	-	0.250	0.364	-	-	-	-	-	-	-	PAVEMENT_GENERAL	Urban	F	1011101000011101	0000000000010000	-	car	805.811	-1226.190	0.000	0.000	180.000	696.000	987.000	-0.000	Terminate	
"Student27Mode3"	"Tanvi_6"	"Feb 16, 2017 10:20:59 AM"	Unknown	46.98427	01/16/0117 10:21.49	00002819	18.180	Inter613t1-0	0.302	1	2	0.000	11.111	4.1	0.217	0.000	D	F	2098.3	0.989	0.194	-0.036	1503.895	1031.655	0.025	-	0.269	0.378	-	-	-	-	-	-	-	PAVEMENT_GENERAL	Urban	F	1011101000011101	0000000000010000	-	car	806.769	-612.833	0.000	0.000	180.000	696.000	987.000	-0.000	Terminate	
"Student27Mode3"	"Tanvi_6"	"Feb 16, 2017 10:20:59 AM"	Unknown	47.98429	01/16/0117 10:21.50	00002879	18.585	Inter613t1-0	0.654	1	2	0.000	11.111	-2.1	0.224	0.000	D	F	2139.9	1.056	0.194	0.013	1504.247	1050.031	0.025	-	-0.090	0.412	-	-	-	-	-	-	-	PAVEMENT_GENERAL	Urban	F	1011101000011101	0000000000010000	-	car	808.341	-452.569	0.000	0.000	180.000	696.000	987.000	-0.000	Terminate	
"Student27Mode3"	"Tanvi_6"	"Feb 16, 2017 10:20:59 AM"	Unknown	48.98431	01/16/0117 10:21.51	00002939	19.003	Inter613t1-0	0.936	1	2	0.000	11.111	-1.7	0.231	0.000	D	F	2181.1	0.617	0.193	0.015	1504.529	1068.821	0.025	-	-0.123	0.426	-	-	-	-	-	-	-	PAVEMENT_GENERAL	Urban	F	1011101000011101	0000000000010000	-	car	810.299	-382.787	0.000	0.000	180.000	696.000	987.000	-0.000	Terminate	
"Student27Mode3"	"Tanvi_6"	"Feb 16, 2017 10:20:59 AM"	Unknown	49.98433	01/16/0117 10:21.52	00002999	19.405	Inter613t1-0	1.080	1	2	0.000	11.111	-2.4	0.235	0.000	D	F	2211.5	0.132	0.192	0.022	1504.673	1088.024	0.025	-	-0.169	0.407	-	-	-	14	2.433	47.214	-	PAVEMENT_GENERAL	Urban	F	1011101000011101	0000000000010000	-	car	812.599	-331.678	0.000	0.000	180.000	696.000	987.000	-0.000	Terminate	
"Student27Mode3"	"Tanvi_6"	"Feb 16, 2017 10:20:59 AM"	Unknown	50.98435	01/16/0117 10:21.53	00003059	19.793	Inter613t1-0	1.062	1	2	0.000	11.111	-1.1	0.226	0.000	D	F	2232.9	359.713	0.191	0.011	1504.655	1107.627	0.025	-	-0.098	0.376	-	-	-	14	2.411	47.724	-	PAVEMENT_GENERAL	Urban	F	1011101000011101	0000000000010000	-	car	815.243	-288.875	0.000	0.000	180.000	696.000	987.000	-0.000	Terminate	
"Student27Mode3"	"Tanvi_6"	"Feb 16, 2017 10:20:59 AM"	Unknown	51.98437	01/16/0117 10:21.54	00003119	19.585	Inter613t1-0	0.934	1	2	0.000	11.111	-1.1	0.011	0.000	D	F	1368.0	359.502	0.180	0.011	1504.527	1127.416	0.029	-	-0.080	-0.548	-	-	-	-	-	-	-	PAVEMENT_GENERAL	Urban	F	1011101000011101	0000000000010000	-	car	818.270	-257.055	0.000	0.000	180.000	696.000	987.000	-0.000	Terminate	
"Student27Mode3"	"Tanvi_6"	"Feb 16, 2017 10:20:59 AM"	Unknown	52.98439	01/16/0117 10:21.55	00003179	19.106	Inter613t1-0	0.728	1	2	0.000	11.111	-1.3	0.025	0.000	D	F	1329.4	359.218	0.184	0.012	1504.321	1146.756	0.029	-	-0.097	-0.466	-	-	-	-	-	-	-	PAVEMENT_GENERAL	Urban	F	1011101000011101	0000000000010000	-	car	821.598	-238.269	0.000	0.000	180.000	696.000	987.000	-0.000	Terminate	
"Student27Mode3"	"Tanvi_6"	"Feb 16, 2017 10:20:59 AM"	Unknown	53.98441	01/16/0117 10:21.56	00003239	18.703	Inter613t1-0	0.445	1	2	0.000	11.111	3.0	0.048	0.000	D	F	1391.9	359.207	0.186	-0.028	1504.038	1165.650	0.028	-	0.169	-0.366	-	-	-	-	-	-	-	PAVEMENT_GENERAL	Urban	F	1011101000011101	0000000000010000	-	car	825.192	-218.052	0.000	0.000	180.000	696.000	987.000	-0.000	Terminate	
"Student27Mode3"	"Tanvi_6"	"Feb 16, 2017 10:20:59 AM"	Unknown	54.98443	01/16/0117 10:21.57	00003299	17.791	Inter613t1-0	0.250	1	2	0.000	11.111	-0.6	0.000	0.101	D	F	1193.3	359.538	0.150	-0.000	1503.844	1184.045	0.031	-	0.009	-1.835	-	-	-	-	-	-	-	PAVEMENT_GENERAL	Urban	F	1011101000011101	0000000000010000	-	car	829.168	-203.411	0.000	0.000	180.000	696.000	987.000	-0.000	Terminate	
"Student27Mode3"	"Tanvi_6"	"Feb 16, 2017 10:20:59 AM"	Unknown	55.98445	01/16/0117 10:21.58	00003359	16.575	Inter615t9-0	0.065	1	2	0.000	11.111	-5.0	0.030	0.021	D	F	1216.8	358.955	0.185	0.044	1503.659	1201.106	0.029	-	-0.341	-0.642	-	-	-	-	-	-	-	PAVEMENT_GENERAL	Urban	F	1011101000011101	0000000000010000	-	car	833.197	-210.708	0.000	0.000	180.000	696.000	987.000	-0.000	Terminate	
"Student27Mode3"	"Tanvi_6"	"Feb 16, 2017 10:20:59 AM"	Unknown	56.98447	01/16/0117 10:21.59	00003419	16.334	Inter615t31-0	-0.310	1	1	356.791	11.111	1.1	0.122	0.000	D	F	1529.2	358.300	0.194	-0.000	1503.245	1217.498	0.027	-	-0.003	0.018	-	-	-	22	3.495	57.086	3.495	PAVEMENT_GENERAL	Urban	F	1011101000011101	0000000000010000	-	car	837.148	-208.416	0.000	0.000	180.000	696.000	987.000	-0.000	Terminate	
"Student27Mode3"	"Tanvi_6"	"Feb 16, 2017 10:20:59 AM"	Unknown	57.98449	01/16/0117 10:22.00	00003479	16.346	Inter615t33-0	-0.684	1	1	0.112	11.111	12.5	0.042	0.000	D	F	1274.7	0.420	0.186	-0.143	1502.927	1233.829	0.026	-	1.010	-0.132	-	-	-	22	2.494	40.770	2.494	PAVEMENT_GENERAL	Urban	F	1011101000011101	0000000000010000	-	car	841.474	-171.875	0.000	0.000	180.000	696.000	987.000	-0.000	Terminate	
"Student27Mode3"	"Tanvi_6"	"Feb 16, 2017 10:20:59 AM"	Unknown	58.98451	01/16/0117 10:22.01	00003539	16.142	Inter615t33-0	-0.341	1	1	0.063	11.111	-0.9	0.109	0.000	D	F	1476.2	1.892	0.194	-0.007	1503.302	1250.026	0.027	-	0.039	-0.027	-	-	-	22	1.672	26.990	1.672	PAVEMENT_GENERAL	Urban	F	1011101000011101	0000000000010000	-	car	846.710	-153.829	0.000	0.000	180.000	696.000	987.000	-0.000	Terminate	
"Student27Mode3"	"Tanvi_6"	"Feb 16, 2017 10:20:59 AM"	Unknown	59.98453	01/16/0117 10:22.02	00003599	16.122	Inter615t33-0	0.124	1	1	0.061	11.111	-4.2	0.113	0.000	D	F	1487.9	1.414	0.193	0.035	1503.785	1266.152	0.027	-	-0.222	-0.022	-	-	-	-	-	-	-	PAVEMENT_GENERAL	Urban	F	1011101000011101	0000000000010000	-	car	852.300	-151.109	0.000	0.000	180.000	696.000	987.000	-0.000	Terminate	
"Student27Mode3"	"Tanvi_6"	"Feb 16, 2017 10:20:59 AM"	Unknown	60.98455	01/16/0117 10:22.03	00003659	16.130	Inter615t67-0	0.435	1	1	359.884	11.111	-2.8	0.138	0.000	D	F	1543.8	0.790	0.194	0.021	1504.097	1282.272	0.026	-	-0.157	0.040	-	-	-	-	-	-	-	PAVEMENT_GENERAL	Urban	F	1011101000011101	0000000000010000	-	car	857.993	-149.370	0.000	0.000	180.000	696.000	987.000	-0.000	Terminate	
"Student27Mode3"	"Tanvi_6"	"Feb 16, 2017 10:20:59 AM"	Unknown	61.98457	01/16/0117 10:22.04	00003719	16.205	Inter615t67-0	0.622	1	1	359.884	11.111	-1.5	0.146	0.000	D	F	1573.2	0.282	0.195	0.006	1504.250	1298.434	0.026	-	-0.096	0.108	-	-	-	-	-	-	-	PAVEMENT_GENERAL	Urban	F	1011101000011101	0000000000010000	-	car	863.816	-146.391	0.000	0.000	180.000	696.000	987.000	-0.000	Terminate	
"Student27Mode3"	"Tanvi_6"	"Feb 16, 2017 10:20:59 AM"	Unknown	62.98459	01/16/0117 10:22.05	00003779	16.305	Inter615t67-0	0.659	1	1	359.884	11.111	-3.0	0.143	0.000	D	F	1572.8	359.651	0.194	0.022	1504.255	1314.691	0.026	-	-0.179	0.095	-	-	-	-	-	-	-	PAVEMENT_GENERAL	Urban	F	1011101000011101	0000000000010000	-	car	869.797	-144.153	0.000	0.000	180.000	696.000	987.000	-0.000	Terminate	
"Student27Mode3"	"Tanvi_6"	"Feb 16, 2017 10:20:59 AM"	Unknown	63.98461	01/16/0117 10:22.06	00003839	16.404	Inter615t13-0	0.489	1	2	0.000	11.111	-2.8	0.148	0.000	D	F	1588.9	359.050	0.194	0.021	1504.077	1331.043	0.026	-	-0.161	0.108	-	-	-	-	-	-	-	PAVEMENT_GENERAL	Urban	F	1011101000011101	0000000000010000	-	car	875.908	-141.849	0.000	0.000	180.000	696.000	987.000	-0.000	Terminate	
"Student27Mode3"	"Tanvi_6"	"Feb 16, 2017 10:20:59 AM"	Unknown	64.98463	01/16/0117 10:22.07	00003899	16.521	Inter615t49-0	0.169	1	1	0.008	11.111	8.9	0.153	0.000	D	F	1605.1	358.975	0.194	-0.055	1503.758	1347.501	0.026	-	0.347	0.127	-	-	-	-	-	-	-	PAVEMENT_GENERAL	Urban	F	1011101000011101	0000000000010000	-	car	882.193	-136.519	0.000	0.000	180.000	696.000	987.000	-0.000	Terminate	
"Student27Mode3"	"Tanvi_6"	"Feb 16, 2017 10:20:59 AM"	Unknown	65.98465	01/16/0117 10:22.08	00003959	16.372	Inter615t49-0	0.121	1	1	0.005	11.111	-1.0	0.000	0.191	D	F	1089.6	0.472	0.160	-0.001	1503.712	1364.055	0.029	-	0.046	-1.946	-	-	-	-	-	-	-	PAVEMENT_GENERAL	Urban	F	1011101000011101	0000000000010000	-	car	889.027	-126.149	0.000	0.000	180.000	696.000	987.000	-0.000	Terminate	
"Student27Mode3"	"Tanvi_6"	"Feb 16, 2017 10:20:59 AM"	Unknown	66.98467	01/16/0117 10:22.09	00004019	11.973	Inter615t49-0	0.214	1	1	0.005	11.111	-0.3	0.004	0.236	D	F	1068.5	0.308	0.153	0.003	1503.807	1378.173	0.037	-	-0.023	-3.510	-	-	-	-	-	-	-	PAVEMENT_GENERAL	Urban	F	1011101000011101	0000000000010000	-	car	895.175	-169.674	0.000	0.000	180.000	696.000	987.000	-0.000	Terminate	
"Student27Mode3"	"Tanvi_6"	"Feb 16, 2017 10:20:59 AM"	Unknown	67.98470	01/16/0117 10:22.10	00004079	8.629	Inter615t15-0	0.262	1	2	0.000	11.111	-0.5	0.028	0.233	D	F	970.0	0.232	0.151	0.002	1503.855	1388.453	0.034	-	-0.013	-3.204	-	-	-	-	-	-	-	PAVEMENT_GENERAL	Urban	F	1011101000011101	0000000000010000	-	car	899.746	-232.411	0.000	0.000	180.000	696.000	987.000	-0.000	Terminate	
"Student27Mode3"	"Tanvi_6"	"Feb 16, 2017 10:20:59 AM"	Unknown	68.98471	01/16/0117 10:22.11	00004139	5.685	Inter615t15-0	0.286	1	2	0.000	11.111	-0.5	0.065	0.212	D	F	1073.6	0.164	0.165	0.001	1503.879	1395.552	0.032	-	-0.006	-2.509	-	-	-	-	-	-	-	PAVEMENT_GENERAL	Urban	F	1011101000011101	0000000000010000	-	car	902.949	-349.983	0.000	0.000	180.000	696.000	987.000	-0.000	Terminate	
"Student27Mode3"	"Tanvi_6"	"Feb 16, 2017 10:20:59 AM"	Unknown	69.98473	01/16/0117 10:22.12	00004199	3.905	-	-	-	0	-	-	-0.4	0.085	0.164	D	F	1198.3	0.113	0.181	0.000	1503.889	1400.237	0.027	-	-0.001	-1.251	-	-	-	-	-	-	-	-	-	F	1011101000011101	0000000000010000	-	car	905.082	-506.951	0.000	0.000	180.000	696.000	987.000	-0.000	Terminate	
"Student27Mode3"	"Tanvi_6"	"Feb 16, 2017 10:20:59 AM"	Unknown	70.98476	01/16/0117 10:22.13	00004259	4.231	-	-	-	0	-	-	-0.3	0.104	0.000	D	F	1307.0	0.080	0.214	-0.000	1503.895	1404.082	0.021	-	-0.001	1.049	-	-	-	-	-	-	-	-	-	F	1011101000011101	0000000000010000	-	car	906.844	-465.941	0.000	0.000	180.000	696.000	987.000	-0.000	Terminate	
"Student27Mode3"	"Tanvi_6"	"Feb 16, 2017 10:20:59 AM"	Unknown	71.98477	01/16/0117 10:22.14	00004319	4.960	-	-	-	0	-	-	-0.3	0.018	0.000	D	F	834.3	0.060	0.190	0.001	1503.900	1408.795	0.025	-	-0.004	-0.223	-	-	-	-	-	-	-	-	-	F	1011101000011101	0000000000010000	-	car	909.020	-395.200	0.000	0.000	180.000	696.000	987.000	-0.000	Terminate	
"Student27Mode3"	"Tanvi_6"	"Feb 16, 2017 10:20:59 AM"	Unknown	72.98479	01/16/0117 10:22.15	00004379	5.000	-	-	-	0	-	-	-0.6	0.042	0.000	D	F	1042.7	0.025	0.201	0.001	1503.903	1413.721	0.025	-	-0.007	0.165	-	-	-	-	-	-	-	-	-	F	1011101000011101	0000000000010000	-	car	911.313	-389.906	0.000	0.000	180.000	696.000	987.000	-0.000	Terminate	
"Student27Mode3"	"Tanvi_6"	"Feb 16, 2017 10:20:59 AM"	Unknown	73.98481	01/16/0117 10:22.16	00004439	4.857	-	-	-	0	-	-	-3.3	0.009	0.000	D	F	767.4	359.894	0.198	0.003	1503.898	1418.690	0.027	-	-0.032	-0.362	-	-	-	-	-	-	-	-	-	F	1011101000011101	0000000000010000	-	car	913.640	-400.507	0.000	0.000	180.000	696.000	987.000	-0.000	Terminate	
"Student27Mode3"	"Tanvi_6"	"Feb 16, 2017 10:20:59 AM"	Unknown	74.98483	01/16/0117 10:22.17	00004499	4.379	-	-	-	0	-	-	-3.4	0.000	0.078	D	F	655.9	359.631	0.177	0.005	1503.873	1423.347	0.028	-	-0.023	-1.362	-	-	-	-	-	-	-	-	-	F	1011101000011101	0000000000010000	-	car	915.822	-445.373	0.000	0.000	180.000	696.000	987.000	-0.000	Terminate	
"Student27Mode3"	"Tanvi_6"	"Feb 16, 2017 10:20:59 AM"	Unknown	75.98486	01/16/0117 10:22.18	00004559	3.142	-	-	-	0	-	-	-2.6	0.000	0.319	D	F	477.5	359.414	0.095	0.001	1503.834	1427.367	0.032	-	-0.006	-4.032	-	-	-	-	-	-	-	-	-	F	1011101000011101	0000000000010000	-	car	917.705	-621.925	0.000	0.000	180.000	696.000	987.000	-0.000	Terminate	
"Student27Mode3"	"Tanvi_6"	"Feb 16, 2017 10:20:59 AM"	Unknown	76.98487	01/16/0117 10:22.19	00004619	0.278	-	-	-	0	-	-	-2.3	0.000	0.131	N	F	477.5	359.340	0.214	-0.000	1503.817	1428.763	0.033	-	0.002	-1.229	-	-	-	-	-	-	-	-	-	F	1011101000011101	0000000000010000	-	car	918.359	-7032.076	0.000	0.000	180.000	696.000	987.000	-0.000	Terminate	
"Student27Mode3"	"Tanvi_6"	"Feb 16, 2017 10:20:59 AM"	Unknown	77.98489	01/16/0117 10:22.20	00004679	-0.000	-	-	-	0	-	-	-2.3	0.004	0.122	N	F	485.1	359.338	0.225	0.000	1503.817	1428.816	0.030	-	0.000	-0.002	-	-	-	-	-	-	-	-	-	F	1011101000011101	0000000000010000	-	car	918.384	4267812.500	0.000	0.000	180.000	696.000	987.000	-0.000	Terminate	
"Student27Mode3"	"Tanvi_6"	"Feb 16, 2017 10:20:59 AM"	Unknown	78.98492	01/16/0117 10:22.21	00004739	-0.000	-	-	-	0	-	-	-2.2	0.028	0.030	N	F	1597.0	359.338	0.213	0.000	1503.817	1428.815	0.028	-	-0.000	0.000	-	-	-	-	-	-	-	-	-	F	1011101000011101	0000000000010000	-	car	918.384	7557447.500	0.000	0.000	180.000	696.000	987.000	-0.000	Terminate	
"Student27Mode3"	"Tanvi_6"	"Feb 16, 2017 10:20:59 AM"	Unknown	79.98493	01/16/0117 10:22.22	00004799	-0.000	-	-	-	0	-	-	-3.4	0.039	0.009	N	F	2445.7	359.338	0.210	0.000	1503.817	1428.815	0.028	-	-0.000	0.000	-	-	-	-	-	-	-	-	-	F	1011101000011101	0000000000010000	-	car	918.384	21033794.000	0.000	0.000	180.000	696.000	987.000	-0.000	Terminate	
"Student27Mode3"	"Tanvi_6"	"Feb 16, 2017 10:20:59 AM"	Unknown	80.98495	01/16/0117 10:22.23	00004859	0.010	-	-	-	0	-	-	-3.6	0.058	0.006	P	F	1080.3	359.338	0.212	0.000	1503.817	1428.816	0.027	-	-0.000	0.077	-	-	-	-	-	-	-	-	-	F	1011101000011101	0000000000010000	-	car	918.384	-200823.500	0.000	0.000	180.000	696.000	987.000	-0.000	Terminate	
"Student27Mode3"	"Tanvi_6"	"Feb 16, 2017 10:20:59 AM"	Unknown	81.98497	01/16/0117 10:22.24	00004919	0.000	-	-	-	0	-	-	-3.0	0.056	0.000	R	F	727.3	359.338	0.208	-0.000	1503.817	1428.816	0.027	-	0.000	0.002	-	-	-	-	-	-	-	-	-	F	1011101000011101	0000000000010000	-	car	918.384	-89671408.000	0.000	0.000	180.000	696.000	987.000	-0.000	Terminate	
"Student27Mode3"	"Tanvi_6"	"Feb 16, 2017 10:20:59 AM"	Unknown	82.98499	01/16/0117 10:22.25	00004979	-0.018	-	-	-	0	-	-	-1.5	0.009	0.093	R	F	493.1	359.340	0.227	0.001	1503.817	1428.801	0.032	-	-0.001	0.051	-	-	-	-	-	-	-	-	-	F	1011101000011101	0000000000010000	-	car	918.377	109523.531	0.000	0.000	180.000	696.000	987.000	-0.000	Terminate	
"Student27Mode3"	"Tanvi_6"	"Feb 16, 2017 10:20:59 AM"	Unknown	83.98502	01/16/0117 10:22.26	00005039	-1.233	-	-	-	0	-	-	-0.3	0.173	0.000	R	F	1383.8	359.342	0.157	0.000	1503.820	1428.505	0.038	-	0.001	-2.909	-	-	-	-	-	-	-	-	-	F	1011101000011101	0000000000010000	-	car	918.238	1586.611	0.000	0.000	180.000	696.000	987.000	-0.000	Terminate	
"Student27Mode3"	"Tanvi_6"	"Feb 16, 2017 10:20:59 AM"	Unknown	84.98503	01/16/0117 10:22.27	00005099	-4.415	-	-	-	0	-	-	-0.6	0.229	0.000	R	F	1748.4	359.369	0.108	-0.001	1503.853	1425.660	0.041	-	0.000	-2.860	-	-	-	-	-	-	-	-	-	F	1011101000011101	0000000000010000	-	car	916.906	444.255	0.000	0.000	180.000	696.000	987.000	-0.000	Terminate	
"Student27Mode3"	"Tanvi_6"	"Feb 16, 2017 10:20:59 AM"	Unknown	85.98505	01/16/0117 10:22.28	00005159	-6.792	-	-	-	0	-	-	0.5	0.226	0.000	R	F	1970.3	359.363	0.209	0.001	1503.915	1419.988	0.039	-	0.001	-2.014	-	-	-	-	-	-	-	-	-	F	1011101000011101	0000000000010000	-	car	914.267	291.009	0.000	0.000	180.000	696.000	987.000	-0.000	Terminate	
"Student27Mode3"	"Tanvi_6"	"Feb 16, 2017 10:20:59 AM"	Unknown	86.98507	01/16/0117 10:22.29	00005219	-8.815	-	-	-	0	-	-	0.5	0.310	0.000	R	F	2348.8	359.287	0.197	-0.002	1504.003	1412.212	0.039	-	0.011	-2.112	-	-	-	-	-	-	-	-	-	F	1011101000011101	0000000000010000	-	car	910.698	227.247	0.000	0.000	180.000	696.000	987.000	-0.000	Terminate	
"Student27Mode3"	"Tanvi_6"	"Feb 16, 2017 10:20:59 AM"	Unknown	87.98509	01/16/0117 10:22.30	00005279	-10.861	-	-	-	0	-	-	0.5	0.321	0.000	R	F	2755.5	359.181	0.204	-0.003	1504.130	1402.368	0.039	-	0.019	-2.022	-	-	-	-	-	-	-	-	-	F	1011101000011101	0000000000010000	-	car	906.268	187.777	0.000	0.000	180.000	696.000	987.000	-0.000	Terminate	
"Student27Mode3"	"Tanvi_6"	"Feb 16, 2017 10:20:59 AM"	Unknown	88.98512	01/16/0117 10:22.31	00005339	-12.778	Inter615t15-0	0.712	1	2	0.000	11.111	0.5	0.326	0.000	R	F	3155.8	359.053	0.201	-0.004	1504.305	1390.539	0.039	-	0.028	-1.932	-	-	-	-	-	-	-	PAVEMENT_GENERAL	Urban	F	1011101000011101	0000000000010000	-	car	901.079	163.307	0.000	0.000	180.000	696.000	987.000	-0.000	Terminate	
"Student27Mode3"	"Tanvi_6"	"Feb 16, 2017 10:20:59 AM"	Unknown	89.98513	01/16/0117 10:22.32	00005399	-14.086	Inter615t49-0	0.945	1	1	0.005	11.111	-0.1	0.099	0.000	R	F	3136.5	358.927	0.232	-0.004	1504.538	1376.962	0.034	-	0.037	0.059	-	-	-	-	-	-	-	PAVEMENT_GENERAL	Urban	F	1011101000011101	0000000000010000	-	car	895.306	152.246	0.000	0.000	180.000	696.000	987.000	-0.000	Terminate	
"Student27Mode3"	"Tanvi_6"	"Feb 16, 2017 10:20:59 AM"	Unknown	90.98515	01/16/0117 10:22.33	00005459	-14.020	Inter615t49-0	1.206	1	1	0.005	11.111	2.5	0.178	0.000	R	F	3169.3	358.912	0.197	0.008	1504.797	1363.005	0.031	-	-0.041	-0.470	-	-	-	-	-	-	-	PAVEMENT_GENERAL	Urban	F	1011101000011101	0000000000010000	-	car	889.567	156.947	0.000	0.000	180.000	696.000	987.000	-0.000	Terminate	
"Student27Mode3"	"Tanvi_6"	"Feb 16, 2017 10:20:59 AM"	Unknown	91.98518	01/16/0117 10:22.34	00005519	-13.852	Inter615t49-0	1.523	1	1	0.008	11.111	1.1	0.000	0.000	R	F	3053.6	358.223	0.226	-0.023	1505.112	1348.994	0.028	-	0.150	0.874	-	-	-	-	-	-	-	PAVEMENT_GENERAL	Urban	F	1011101000011101	0000000000010000	-	car	884.039	168.005	0.000	0.000	180.000	696.000	987.000	-0.000	Terminate	
"Student27Mode3"	"Tanvi_6"	"Feb 16, 2017 10:20:59 AM"	Unknown	92.98519	01/16/0117 10:22.35	00005579	-12.066	Inter615t47-0	-1.639	1	1	0.005	11.111	1.1	0.078	0.418	R	F	2501.5	357.796	0.266	-0.017	1505.549	1335.740	0.020	-	0.087	4.357	-	-	-	-	-	-	-	PAVEMENT_GENERAL	Urban	F	1011101000011101	0000000000010000	-	car	879.111	202.368	0.000	0.000	180.000	696.000	987.000	-0.000	Terminate	
"Student27Mode3"	"Tanvi_6"	"Feb 16, 2017 10:20:59 AM"	Unknown	93.98521	01/16/0117 10:22.36	00005639	-7.029	Inter615t13-1	-1.269	2	2	0.000	11.111	-2.0	0.115	0.394	R	F	1707.7	357.739	0.238	0.005	1505.919	1326.405	0.019	-	-0.023	3.761	-	-	-	-	-	-	-	PAVEMENT_GENERAL	Urban	F	1011101000011101	0000000000010000	-	car	875.800	356.176	0.000	0.000	180.000	696.000	987.000	-0.000	Terminate	
"Student27Mode3"	"Tanvi_6"	"Feb 16, 2017 10:20:59 AM"	Unknown	94.98523	01/16/0117 10:22.37	00005699	-6.744	Inter615t13-1	-1.024	2	2	0.000	11.111	-2.2	0.189	0.000	R	F	1880.3	358.049	0.195	0.003	1506.164	1320.055	0.035	-	-0.034	-1.526	-	-	-	-	-	-	-	PAVEMENT_GENERAL	Urban	F	1011101000011101	0000000000010000	-	car	873.592	371.668	0.000	0.000	180.000	696.000	987.000	-0.000	Terminate	
"Student27Mode3"	"Tanvi_6"	"Feb 16, 2017 10:20:59 AM"	Unknown	95.98525	01/16/0117 10:22.38	00005759	-8.340	Inter615t69-0	-0.788	1	1	359.884	11.111	-3.7	0.217	0.000	R	F	2169.6	358.455	0.209	0.008	1506.412	1312.514	0.037	-	-0.054	-1.541	Static29	52.3	0.226	-	-	-	-	PAVEMENT_GENERAL	Urban	F	1011101000011101	0000000000010000	-	car	870.983	300.480	0.000	0.000	180.000	696.000	987.000	-0.000	Terminate	
"Student27Mode3"	"Tanvi_6"	"Feb 16, 2017 10:20:59 AM"	Unknown	96.98528	01/16/0117 10:22.39	00005819	-9.746	Inter615t69-0	-0.616	1	1	359.884	11.111	-8.4	0.132	0.000	R	F	2282.4	0.875	0.226	0.108	1506.603	1303.425	0.035	-	-0.709	-0.687	-	-	-	-	-	-	-	PAVEMENT_GENERAL	Urban	F	1011101000011101	0000000000010000	-	car	867.813	235.683	0.000	0.000	180.000	696.000	987.000	-0.000	Terminate	
"Student27Mode3"	"Tanvi_6"	"Feb 16, 2017 10:20:59 AM"	Unknown	97.98529	01/16/0117 10:22.40	00005879	-7.384	Inter615t69-0	-0.828	1	1	359.884	11.111	-1.6	0.062	0.552	R	F	1567.2	1.857	0.286	0.016	1506.409	1294.252	0.013	-	-0.108	6.119	-	-	-	-	-	-	-	PAVEMENT_GENERAL	Urban	F	1011101000011101	0000000000010000	-	car	864.339	304.361	0.000	0.000	180.000	696.000	987.000	-0.000	Terminate	
"Student27Mode3"	"Tanvi_6"	"Feb 16, 2017 10:20:59 AM"	Unknown	98.98531	01/16/0117 10:22.41	00005939	-0.644	Inter615t69-0	-0.967	1	1	359.884	11.111	-3.1	0.000	0.946	R	F	477.5	2.086	0.288	0.004	1506.278	1290.204	0.010	-	-0.016	6.439	-	-	-	-	-	-	-	PAVEMENT_GENERAL	Urban	F	1011101000011101	0000000000010000	-	car	862.790	3485.790	0.000	0.000	180.000	696.000	987.000	-0.000	Terminate	
"Student27Mode3"	"Tanvi_6"	"Feb 16, 2017 10:20:59 AM"	Unknown	99.98534	01/16/0117 10:22.42	00005999	0.000	Inter615t69-0	-0.968	1	1	359.884	11.111	-41.5	0.120	0.066	R	F	1226.1	2.085	0.127	-0.003	1506.277	1290.171	0.018	-	0.000	-0.051	-	-	-	-	-	-	-	PAVEMENT_GENERAL	Urban	F	1011101000011101	0000000000010000	-	car	862.777	-20257038.000	0.000	0.000	180.000	696.000	987.000	-0.000	Terminate	
"Student27Mode3"	"Tanvi_6"	"Feb 16, 2017 10:20:59 AM"	Unknown	100.98535	01/16/0117 10:22.43	00006059	-1.637	Inter615t69-0	-0.962	1	1	359.884	11.111	-102.7	0.189	0.000	R	F	1442.6	3.119	0.152	-0.020	1506.284	1289.680	0.040	-	0.119	-3.073	-	-	-	-	-	-	-	PAVEMENT_GENERAL	Urban	F	1011101000011101	0000000000010000	-	car	862.612	1316.497	0.000	0.000	180.000	696.000	987.000	-0.000	Terminate	
"Student27Mode3"	"Tanvi_6"	"Feb 16, 2017 10:20:59 AM"	Unknown	101.98537	01/16/0117 10:22.44	00006119	-3.481	Inter615t69-0	-1.129	1	1	359.884	11.111	-74.5	0.000	0.254	R	F	758.1	10.127	0.290	0.132	1506.124	1286.589	0.030	-	-0.901	3.217	-	-	-	-	-	-	-	PAVEMENT_GENERAL	Urban	F	1011101000011101	0000000000010000	-	car	861.385	488.656	0.000	0.000	180.000	696.000	987.000	-0.000	Terminate	
"Student27Mode3"	"Tanvi_6"	"Feb 16, 2017 10:20:59 AM"	Unknown	102.98539	01/16/0117 10:22.45	00006179	0.001	Inter615t69-0	-1.337	1	1	359.884	11.111	4.1	0.000	0.967	R	F	477.5	11.227	0.128	-0.003	1505.918	1285.345	0.017	-	0.009	0.159	-	-	-	-	-	-	-	PAVEMENT_GENERAL	Urban	F	1011101000011101	0000000000010000	-	car	860.761	-1792659.625	0.000	0.000	180.000	696.000	987.000	-0.000	Terminate	
"Student27Mode3"	"Tanvi_6"	"Feb 16, 2017 10:20:59 AM"	Unknown	103.98541	01/16/0117 10:22.46	00006239	0.001	Inter615t69-0	-1.336	1	1	359.884	11.111	7.2	0.000	0.854	R	F	477.5	11.226	0.171	0.001	1505.919	1285.348	0.023	-	-0.000	-0.002	-	-	-	-	-	-	-	PAVEMENT_GENERAL	Urban	F	1011101000011101	0000000000010000	-	car	860.763	-1459473.250	0.000	0.000	180.000	696.000	987.000	-0.000	Terminate	
"Student27Mode3"	"Tanvi_6"	"Feb 16, 2017 10:20:59 AM"	Unknown	104.98544	01/16/0117 10:22.47	00006299	0.001	Inter615t69-0	-1.336	1	1	359.884	11.111	-4.6	0.019	0.594	N	F	589.8	11.226	0.196	0.000	1505.919	1285.349	0.026	-	-0.000	-0.001	-	-	-	-	-	-	-	PAVEMENT_GENERAL	Urban	F	1011101000011101	0000000000010000	-	car	860.763	-3222644.500	0.000	0.000	180.000	696.000	987.000	-0.000	Terminate	
"Student27Mode3"	"Tanvi_6"	"Feb 16, 2017 10:20:59 AM"	Unknown	105.98545	01/16/0117 10:22.48	00006359	0.000	Inter615t69-0	-1.336	1	1	359.884	11.111	-55.7	0.134	0.000	N	F	3508.1	11.226	0.204	-0.000	1505.919	1285.349	0.027	-	-0.000	-0.000	-	-	-	-	-	-	-	PAVEMENT_GENERAL	Urban	F	1011101000011101	0000000000010000	-	car	860.763	-8245064.000	0.000	0.000	180.000	696.000	987.000	-0.000	Terminate	
"Student27Mode3"	"Tanvi_6"	"Feb 16, 2017 10:20:59 AM"	Unknown	106.98547	01/16/0117 10:22.49	00006419	0.000	Inter615t69-0	-1.336	1	1	359.884	11.111	-121.3	0.143	0.000	N	F	4153.5	11.226	0.207	-0.000	1505.919	1285.349	0.027	-	-0.000	-0.000	-	-	-	-	-	-	-	PAVEMENT_GENERAL	Urban	F	1011101000011101	0000000000010000	-	car	860.763	-22349782.000	0.000	0.000	180.000	696.000	987.000	-0.000	Terminate	
"Student27Mode3"	"Tanvi_6"	"Feb 16, 2017 10:20:59 AM"	Unknown	107.98550	01/16/0117 10:22.50	00006479	0.000	Inter615t69-0	-1.336	1	1	359.884	11.111	-168.0	0.044	0.000	N	F	2270.6	11.227	0.208	-0.000	1505.919	1285.349	0.028	-	0.000	-0.000	-	-	-	-	-	-	-	PAVEMENT_GENERAL	Urban	F	1011101000011101	0000000000010000	-	car	860.763	-65728072.000	0.000	0.000	180.000	696.000	987.000	-0.000	Terminate	
"Student27Mode3"	"Tanvi_6"	"Feb 16, 2017 10:20:59 AM"	Unknown	108.98551	01/16/0117 10:22.51	00006539	0.000	Inter615t69-0	-1.336	1	1	359.884	11.111	-193.4	0.079	0.000	N	F	2939.2	11.227	0.208	-0.000	1505.919	1285.349	0.028	-	0.000	-0.000	-	-	-	-	-	-	-	PAVEMENT_GENERAL	Urban	F	1011101000011101	0000000000010000	-	car	860.763	-257904608.000	0.000	0.000	180.000	696.000	987.000	-0.000	Terminate	
"Student27Mode3"	"Tanvi_6"	"Feb 16, 2017 10:20:59 AM"	Unknown	109.98553	01/16/0117 10:22.52	00006599	0.524	Inter615t69-0	-1.336	1	1	359.884	11.111	-228.9	0.120	0.000	D	F	1251.0	10.747	0.259	-0.032	1505.919	1285.420	0.015	-	-0.316	2.695	-	-	-	-	-	-	-	PAVEMENT_GENERAL	Urban	F	1011101000011101	0000000000010000	-	car	860.788	-3190.850	0.000	0.000	180.000	696.000	987.000	-0.000	Terminate	
"Student27Mode3"	"Tanvi_6"	"Feb 16, 2017 10:20:59 AM"	Unknown	110.98555	01/16/0117 10:22.53	00006659	3.232	Inter615t69-0	-1.411	1	1	359.884	11.111	-252.2	0.136	0.000	D	F	1477.1	0.518	0.209	0.176	1505.840	1287.389	0.015	-	-1.225	2.027	-	-	-	-	-	-	-	PAVEMENT_GENERAL	Urban	F	1011101000011101	0000000000010000	-	car	861.397	-748.273	0.000	0.000	180.000	696.000	987.000	-0.000	Terminate	
"Student27Mode3"	"Tanvi_6"	"Feb 16, 2017 10:20:59 AM"	Unknown	111.98557	01/16/0117 10:22.54	00006719	4.830	Inter615t67-0	0.918	1	1	359.884	11.111	-253.3	0.090	0.000	D	F	1390.4	338.705	0.178	0.299	1504.561	1291.358	0.021	-	-2.171	0.551	-	-	-	-	-	-	-	PAVEMENT_GENERAL	Urban	F	1011101000011101	0000000000010000	-	car	861.587	15314.098	0.000	0.000	180.000	696.000	987.000	-0.000	Terminate	
"Student27Mode3"	"Tanvi_6"	"Feb 16, 2017 10:20:59 AM"	Unknown	112.98560	01/16/0117 10:22.55	00006779	5.929	-Inter615t59-0	0.961	-1	1	89.733	11.111	-185.7	0.155	0.000	D	F	1522.7	314.674	0.196	0.294	1501.115	1295.460	0.022	-	-2.233	0.962	-	-	-	-	-	-	-	PAVEMENT_GENERAL	Urban	F	1011101000011101	0000000000010000	-	car	859.823	351.543	0.000	0.000	180.000	696.000	987.000	-0.000	Terminate	
"Student27Mode3"	"Tanvi_6"	"Feb 16, 2017 10:20:59 AM"	Unknown	113.98561	01/16/0117 10:22.56	00006839	7.088	-Inter615t83-0	0.904	-1	1	179.883	11.111	-71.6	0.168	0.000	D	F	1624.5	296.183	0.203	0.131	1495.524	1298.784	0.022	-	-1.055	1.068	-	-	-	-	-	-	-	PAVEMENT_GENERAL	Urban	F	1011101000011101	0000000000010000	-	car	855.806	178.678	0.000	0.000	180.000	696.000	987.000	-0.000	Terminate	
"Student27Mode3"	"Tanvi_6"	"Feb 16, 2017 10:20:59 AM"	Unknown	114.98563	01/16/0117 10:22.57	00006899	8.159	Inter615t65-0	-0.079	1	1	299.295	11.111	-62.4	0.178	0.000	D	F	1721.9	287.516	0.208	0.176	1488.379	1301.443	0.022	-	-1.325	1.028	-	-	-	-	-	-	-	PAVEMENT_GENERAL	Urban	F	1011101000011101	0000000000010000	-	car	850.130	134.385	0.000	0.000	180.000	696.000	987.000	-0.000	Terminate	
"Student27Mode3"	"Tanvi_6"	"Feb 16, 2017 10:20:59 AM"	Unknown	115.98566	01/16/0117 10:22.58	00006959	9.173	Inter615t3-3	-0.352	1	2	270.000	11.111	-64.7	0.182	0.000	D	F	1799.2	277.725	0.203	0.220	1479.885	1303.179	0.022	-	-1.677	0.900	-	-	-	-	-	-	-	PAVEMENT_GENERAL	Urban	F	1011101000011101	0000000000010000	-	car	842.889	105.771	0.000	0.000	180.000	696.000	987.000	-0.000	Terminate	
"Student27Mode3"	"Tanvi_6"	"Feb 16, 2017 10:20:59 AM"	Unknown	116.98567	01/16/0117 10:22.59	00007019	10.082	Inter615t3-3	-0.049	1	2	270.000	11.111	1.1	0.192	0.000	D	F	1890.0	268.736	0.204	0.013	1470.269	1303.481	0.022	-	-0.162	0.884	-	-	-	-	-	-	-	PAVEMENT_GENERAL	Urban	F	1011101000011101	0000000000010000	-	car	834.093	88.601	0.000	0.000	180.000	696.000	987.000	-0.000	Terminate	
"Student27Mode3"	"Tanvi_6"	"Feb 16, 2017 10:20:59 AM"	Unknown	117.98569	01/16/0117 10:23.00	00007079	10.712	Inter615t19-0	-0.081	1	1	270.085	11.111	11.2	0.051	0.000	D	F	1356.1	271.134	0.187	-0.049	1459.773	1303.458	0.026	-	0.415	-0.064	-	-	-	-	-	-	-	PAVEMENT_GENERAL	Urban	F	1011101000011101	0000000000010000	-	car	824.378	84.009	0.000	0.000	180.000	696.000	987.000	-0.000	Terminate	
"Student27Mode3"	"Tanvi_6"	"Feb 16, 2017 10:20:59 AM"	Unknown	118.98571	01/16/0117 10:23.01	00007139	10.695	Inter615t19-0	0.222	1	1	270.109	11.111	-1.7	0.104	0.000	D	F	1426.4	271.786	0.204	0.005	1449.096	1303.774	0.027	-	-0.042	0.122	-	-	-	-	-	-	-	PAVEMENT_GENERAL	Urban	F	1011101000011101	0000000000010000	-	car	814.647	83.775	0.000	0.000	180.000	696.000	987.000	-0.000	Terminate	
"Student27Mode3"	"Tanvi_6"	"Feb 16, 2017 10:20:59 AM"	Unknown	119.98573	01/16/0117 10:23.02	00007199	11.243	Inter615t19-0	0.497	1	1	270.075	11.111	-2.7	0.194	0.000	D	F	1731.3	271.332	0.208	0.011	1438.185	1304.070	0.023	-	-0.096	0.805	-	-	-	-	-	-	-	PAVEMENT_GENERAL	Urban	F	1011101000011101	0000000000010000	-	car	804.717	78.635	0.000	0.000	180.000	696.000	987.000	-0.000	Terminate	
"Student27Mode3"	"Tanvi_6"	"Feb 16, 2017 10:20:59 AM"	Unknown	120.98576	01/16/0117 10:23.03	00007259	11.983	Inter615t19-0	0.702	1	1	270.061	11.111	-2.3	0.224	0.000	D	F	1816.0	270.898	0.207	0.012	1426.591	1304.292	0.023	-	-0.089	0.842	-	-	-	-	-	-	-	PAVEMENT_GENERAL	Urban	F	1111101000011101	0000000000010000	-	car	794.156	72.759	0.000	0.000	180.000	696.000	987.000	-0.000	Terminate	
"Student27Mode3"	"Tanvi_6"	"Feb 16, 2017 10:20:59 AM"	Unknown	121.98577	01/16/0117 10:23.04	00007319	12.828	Inter615t1-2	0.836	1	2	270.000	11.111	-2.4	0.249	0.000	D	F	1864.4	270.443	0.206	0.013	1414.185	1304.436	0.023	-	-0.102	0.837	-	-	-	-	-	-	-	PAVEMENT_GENERAL	Urban	F	1011101000011101	0000000000010000	-	car	782.851	66.953	0.000	0.000	180.000	696.000	987.000	-0.000	Terminate	
"Student27Mode3"	"Tanvi_6"	"Feb 16, 2017 10:20:59 AM"	Unknown	122.98579	01/16/0117 10:23.05	00007379	13.649	Inter615t1-2	0.886	1	2	270.000	11.111	-3.2	0.250	0.000	D	F	1903.6	270.004	0.203	0.009	1400.944	1304.486	0.023	-	-0.118	0.789	-	-	-	-	-	-	-	PAVEMENT_GENERAL	Urban	F	1011101000011101	0000000000010000	-	car	770.779	61.936	0.000	0.000	180.000	696.000	987.000	-0.000	Terminate	
"Student27Mode3"	"Tanvi_6"	"Feb 16, 2017 10:20:59 AM"	Unknown	123.98581	01/16/0117 10:23.06	00007439	14.420	Inter616t1-2	0.831	1	2	270.000	11.111	-2.0	0.265	0.000	D	F	1952.2	269.567	0.203	0.015	1386.907	1304.438	0.023	-	-0.109	0.754	-	-	-	-	-	-	-	PAVEMENT_GENERAL	Urban	F	1011101000011101	0000000000010000	-	car	757.982	57.649	0.000	0.000	180.000	696.000	987.000	-0.000	Terminate	
"Student27Mode3"	"Tanvi_6"	"Feb 16, 2017 10:20:59 AM"	Unknown	124.98583	01/16/0117 10:23.07	00007499	15.150	Inter616t1-2	0.679	1	2	270.000	11.111	-1.1	0.220	0.000	D	F	1955.1	269.253	0.201	0.009	1372.117	1304.286	0.023	-	-0.069	0.682	-	-	-	-	-	-	-	PAVEMENT_GENERAL	Urban	F	1011101000011101	0000000000010000	-	car	744.504	53.959	0.000	0.000	180.000	696.000	987.000	-0.000	Terminate	
"Student27Mode3"	"Tanvi_6"	"Feb 16, 2017 10:20:59 AM"	Unknown	125.98586	01/16/0117 10:23.08	00007559	15.790	Inter616t1-2	0.483	1	2	270.000	11.111	4.8	0.257	0.000	D	F	2012.2	269.523	0.201	-0.033	1356.652	1304.090	0.024	-	0.243	0.646	-	-	-	-	-	-	-	PAVEMENT_GENERAL	Urban	F	1011101000011101	0000000000010000	-	car	730.448	51.110	0.000	0.000	180.000	696.000	987.000	-0.000	Terminate	
"Student27Mode3"	"Tanvi_6"	"Feb 16, 2017 10:20:59 AM"	Unknown	126.98587	01/16/0117 10:23.09	00007619	16.423	Inter616t1-2	0.462	1	2	270.000	11.111	2.4	0.263	0.000	D	F	2047.8	270.305	0.199	-0.020	1340.543	1304.069	0.024	-	0.155	0.618	-	-	-	-	-	-	-	PAVEMENT_GENERAL	Urban	F	1011101000011101	0000000000010000	-	car	715.950	48.712	0.000	0.000	180.000	696.000	987.000	-0.000	Terminate	
"Student27Mode3"	"Tanvi_6"	"Feb 16, 2017 10:20:59 AM"	Unknown	127.98589	01/16/0117 10:23.10	00007679	16.986	Inter616t1-2	0.564	1	2	270.000	11.111	-5.9	0.233	0.000	D	F	2046.5	270.083	0.200	0.042	1323.824	1304.171	0.024	-	-0.319	0.517	-	-	-	-	-	-	-	PAVEMENT_GENERAL	Urban	F	1011101000011101	0000000000010000	-	car	701.032	46.272	0.000	0.000	180.000	696.000	987.000	-0.000	Terminate	
"Student27Mode3"	"Tanvi_6"	"Feb 16, 2017 10:20:59 AM"	Unknown	128.98592	01/16/0117 10:23.11	00007739	17.528	Inter616t1-2	0.500	1	2	270.000	11.111	4.9	0.266	0.000	D	F	2109.1	269.946	0.198	-0.035	1306.572	1304.106	0.024	-	0.292	0.566	-	-	-	-	-	-	-	PAVEMENT_GENERAL	Urban	F	1011101000011101	0000000000010000	-	car	685.648	44.056	0.000	0.000	180.000	696.000	987.000	-0.000	Terminate	
"Student27Mode3"	"Tanvi_6"	"Feb 16, 2017 10:20:59 AM"	Unknown	129.98593	01/16/0117 10:23.12	00007799	18.091	Inter616t1-2	0.629	1	2	270.000	11.111	3.1	0.275	0.000	D	F	2149.7	270.956	0.196	-0.031	1288.762	1304.235	0.024	-	0.243	0.558	-	-	-	-	-	-	-	PAVEMENT_GENERAL	Urban	F	1011101000011101	0000000000010000	-	car	669.954	42.387	0.000	0.000	180.000	696.000	987.000	-0.000	Terminate	
"Student27Mode3"	"Tanvi_6"	"Feb 16, 2017 10:20:59 AM"	Unknown	130.98595	01/16/0117 10:23.13	00007859	18.636	Inter616t1-2	0.948	1	2	270.000	11.111	-7.4	0.277	0.000	D	F	2185.6	270.535	0.196	0.060	1270.399	1304.554	0.024	-	-0.479	0.537	-	-	-	-	-	-	-	PAVEMENT_GENERAL	Urban	F	1011101000011101	0000000000010000	-	car	653.975	40.307	0.000	0.000	180.000	696.000	987.000	-0.000	Terminate	
"Student27Mode3"	"Tanvi_6"	"Feb 16, 2017 10:20:59 AM"	Unknown	131.98598	01/16/0117 10:23.14	00007919	19.165	Inter616t1-2	0.976	1	2	270.000	11.111	-1.2	0.275	0.000	D	F	2230.3	269.814	0.194	0.010	1251.498	1304.582	0.024	-	-0.064	0.524	-	-	-	-	-	-	-	PAVEMENT_GENERAL	Urban	F	1011101000011101	0000000000010000	-	car	637.513	38.247	0.000	0.000	180.000	696.000	987.000	-0.000	Terminate	
"Student27Mode3"	"Tanvi_6"	"Feb 16, 2017 10:20:59 AM"	Unknown	132.98599	01/16/0117 10:23.15	00007979	19.684	Inter616t1-2	0.884	1	2	270.000	11.111	-0.8	0.282	0.000	D	F	2275.6	269.616	0.193	0.008	1232.073	1304.491	0.024	-	-0.060	0.518	-	-	-	-	-	-	-	PAVEMENT_GENERAL	Urban	F	1011101000011101	0000000000010000	-	car	620.677	36.503	0.000	0.000	180.000	696.000	987.000	-0.000	Terminate	
"Student27Mode3"	"Tanvi_6"	"Feb 16, 2017 10:20:59 AM"	Unknown	133.98601	01/16/0117 10:23.16	00008039	20.206	Inter616t1-2	0.739	1	2	270.000	11.111	0.1	0.287	0.000	D	F	2318.9	269.567	0.192	-0.001	1212.128	1304.345	0.024	-	0.005	0.521	-	-	-	-	-	-	-	PAVEMENT_GENERAL	Urban	F	1011101000011101	0000000000010000	-	car	603.525	34.901	0.000	0.000	180.000	696.000	987.000	-0.000	Terminate	
"Student27Mode3"	"Tanvi_6"	"Feb 16, 2017 10:20:59 AM"	Unknown	134.98604	01/16/0117 10:23.17	00008099	20.724	Inter617t1-2	0.637	1	2	270.000	11.111	1.9	0.291	0.000	D	F	2362.4	270.001	0.191	-0.021	1191.663	1304.244	0.024	-	0.164	0.514	-	-	-	-	-	-	-	PAVEMENT_GENERAL	Urban	F	1011101000011101	0000000000010000	-	car	586.135	33.580	0.000	0.000	180.000	696.000	987.000	-0.000	Terminate	
"Student27Mode3"	"Tanvi_6"	"Feb 16, 2017 10:20:59 AM"	Unknown	135.98605	01/16/0117 10:23.18	00008159	21.247	Inter617t1-2	0.637	1	2	270.000	11.111	-0.9	0.284	0.000	D	F	2397.1	269.906	0.190	0.010	1170.679	1304.244	0.024	-	-0.078	0.520	-	-	-	-	-	-	-	PAVEMENT_GENERAL	Urban	F	1011101000011101	0000000000010000	-	car	568.573	32.151	0.000	0.000	180.000	696.000	987.000	-0.000	Terminate	
"Student27Mode3"	"Tanvi_6"	"Feb 16, 2017 10:20:59 AM"	Unknown	136.98607	01/16/0117 10:23.19	00008219	21.610	Inter617t1-2	0.580	1	2	270.000	11.111	-0.7	0.074	0.000	D	F	1960.5	269.752	0.175	0.007	1149.222	1304.187	0.025	-	-0.055	-0.123	-	-	-	-	-	-	-	PAVEMENT_GENERAL	Urban	F	1111101000011101	0000000000010000	-	car	550.829	31.018	0.000	0.000	180.000	696.000	987.000	-0.000	Terminate	
"Student27Mode3"	"Tanvi_6"	"Feb 16, 2017 10:20:59 AM"	Unknown	137.98610	01/16/0117 10:23.20	00008279	21.205	Inter617t1-2	0.461	1	2	270.000	11.111	-1.3	0.051	0.000	D	F	1546.9	269.571	0.181	0.011	1127.803	1304.068	0.029	-	-0.075	-0.414	-	-	-	-	-	-	-	PAVEMENT_GENERAL	Urban	F	1011101000011101	0000000000010000	-	car	533.351	31.034	0.000	0.000	180.000	696.000	987.000	-0.000	Terminate	
"Student27Mode3"	"Tanvi_6"	"Feb 16, 2017 10:20:59 AM"	Unknown	138.98611	01/16/0117 10:23.21	00008339	17.175	Inter617t1-2	0.283	1	2	270.000	11.111	-0.5	0.035	0.376	D	F	1160.2	269.293	0.054	0.011	1108.245	1303.890	0.040	-	-0.077	-5.012	-	-	-	-	-	-	-	PAVEMENT_GENERAL	Urban	F	1011101000011101	0000000000010000	-	car	517.607	37.657	0.000	0.000	180.000	696.000	987.000	-0.000	Terminate	
"Student27Mode3"	"Tanvi_6"	"Feb 16, 2017 10:20:59 AM"	Unknown	139.98613	01/16/0117 10:23.22	00008399	12.364	Inter617t1-2	0.094	1	2	270.000	11.111	-0.0	0.079	0.307	D	F	1349.7	269.217	0.134	0.001	1093.484	1303.700	0.038	-	-0.006	-3.899	-	-	-	-	-	-	-	PAVEMENT_GENERAL	Urban	F	1011101000011101	0000000000010000	-	car	505.866	51.755	0.000	0.000	180.000	696.000	987.000	-0.000	Terminate	
"Student27Mode3"	"Tanvi_6"	"Feb 16, 2017 10:20:59 AM"	Unknown	140.98616	01/16/0117 10:23.23	00008459	12.023	Inter617t1-2	-0.067	1	2	270.000	11.111	0.8	0.203	0.000	D	F	1765.1	269.224	0.206	-0.002	1081.652	1303.539	0.023	-	0.018	0.719	-	-	-	-	-	-	-	PAVEMENT_GENERAL	Urban	F	1011101000011101	0000000000010000	-	car	496.564	52.847	0.000	0.000	180.000	696.000	987.000	-0.000	Terminate	
"Student27Mode3"	"Tanvi_6"	"Feb 16, 2017 10:20:59 AM"	Unknown	141.98618	01/16/0117 10:23.24	00008519	12.816	Inter617t1-2	-0.177	1	2	270.000	11.111	3.7	0.247	0.000	D	F	1863.2	269.849	0.206	-0.022	1069.246	1303.430	0.023	-	0.164	0.837	-	-	-	-	-	-	-	PAVEMENT_GENERAL	Urban	F	1011101000011101	0000000000010000	-	car	486.967	49.704	0.000	0.000	180.000	696.000	987.000	-0.000	Terminate	
"Student27Mode3"	"Tanvi_6"	"Feb 16, 2017 10:20:59 AM"	Unknown	142.98619	01/16/0117 10:23.25	00008579	13.624	Inter617t1-2	-0.158	1	2	270.000	11.111	0.8	0.242	0.000	D	F	1899.3	270.234	0.204	-0.005	1056.022	1303.449	0.023	-	0.044	0.782	-	-	-	-	-	-	-	PAVEMENT_GENERAL	Urban	F	1011101000011101	0000000000010000	-	car	476.969	46.780	0.000	0.000	180.000	696.000	987.000	-0.000	Terminate	
"Student27Mode3"	"Tanvi_6"	"Feb 16, 2017 10:20:59 AM"	Unknown	143.98621	01/16/0117 10:23.26	00008639	14.347	Inter617t1-2	-0.160	1	2	270.000	11.111	-1.5	0.169	0.000	D	F	1760.1	269.299	0.197	0.025	1042.023	1303.446	0.023	-	-0.250	0.442	-	-	-	-	-	-	-	PAVEMENT_GENERAL	Urban	F	1011101000011101	0000000000010000	-	car	466.544	43.583	0.000	0.000	180.000	696.000	987.000	-0.000	Terminate	
"Student27Mode3"	"Tanvi_6"	"Feb 16, 2017 10:20:59 AM"	Unknown	144.98624	01/16/0117 10:23.27	00008699	13.295	Inter617t1-2	-0.283	1	2	270.000	11.111	-5.0	0.000	0.579	D	F	1196.2	269.573	-0.001	0.020	1027.651	1303.324	0.038	-	-0.129	-6.588	-	-	-	-	-	-	-	PAVEMENT_GENERAL	Urban	F	1011101000011101	0000000000010000	-	car	455.956	47.061	0.000	0.000	180.000	696.000	987.000	-0.000	Terminate	
"Student27Mode3"	"Tanvi_6"	"Feb 16, 2017 10:20:59 AM"	Unknown	145.98625	01/16/0117 10:23.28	00008759	6.746	Inter617t1-2	-0.414	1	2	270.000	11.111	-2.7	0.076	0.585	D	F	1113.0	268.906	-0.078	0.009	1017.670	1303.193	0.041	-	-0.055	-6.380	-	-	-	-	-	-	-	PAVEMENT_GENERAL	Urban	F	1011101000011101	0000000000010000	-	car	448.694	91.570	0.000	0.000	180.000	696.000	987.000	-0.000	Terminate	
"Student27Mode3"	"Tanvi_6"	"Feb 16, 2017 10:20:59 AM"	Unknown	146.98627	01/16/0117 10:23.29	00008819	1.557	Inter617t1-2	-0.489	1	2	270.000	11.111	-0.1	0.101	0.433	D	F	1226.6	268.902	0.169	0.005	1013.847	1303.118	0.035	-	-0.010	-2.704	-	-	-	-	-	-	-	PAVEMENT_GENERAL	Urban	F	1011101000011101	0000000000010000	-	car	445.923	396.541	0.000	0.000	180.000	696.000	987.000	-0.000	Terminate	
"Student27Mode3"	"Tanvi_6"	"Feb 16, 2017 10:20:59 AM"	Unknown	147.98630	01/16/0117 10:23.30	00008879	3.152	Inter617t1-2	-0.522	1	2	270.000	11.111	0.8	0.201	0.000	D	F	1644.6	268.927	0.209	-0.000	1012.084	1303.085	0.012	-	0.004	3.356	-	-	-	-	-	-	-	PAVEMENT_GENERAL	Urban	F	1011101000011101	0000000000010000	-	car	444.651	195.890	0.000	0.000	180.000	696.000	987.000	-0.000	Terminate	
"Student27Mode3"	"Tanvi_6"	"Feb 16, 2017 10:20:59 AM"	Unknown	148.98631	01/16/0117 10:23.31	00008939	5.267	Inter617t1-2	-0.602	1	2	270.000	11.111	0.7	0.205	0.304	D	F	1870.2	268.994	0.112	-0.001	1007.594	1303.005	0.018	-	0.006	-0.880	-	-	-	-	-	-	-	PAVEMENT_GENERAL	Urban	F	1011101000011101	0000000000010000	-	car	441.431	117.293	0.000	0.000	180.000	696.000	987.000	-0.000	Terminate	
"Student27Mode3"	"Tanvi_6"	"Feb 16, 2017 10:20:59 AM"	Unknown	149.98633	01/16/0117 10:23.32	00008999	4.072	Inter617t1-2	-0.673	1	2	270.000	11.111	1.2	0.261	0.134	D	F	1821.4	269.095	0.217	-0.001	1003.188	1302.934	0.018	-	0.011	1.377	13	8.7	-11.356	-	-	-	-	PAVEMENT_GENERAL	Urban	F	1011101000011101	0000000000010000	-	car	438.298	151.966	0.000	0.000	180.000	696.000	987.000	-0.000	Terminate	
"Student27Mode3"	"Tanvi_6"	"Feb 16, 2017 10:20:59 AM"	Unknown	150.98636	01/16/0117 10:23.33	00009059	6.786	Inter618t1-0	-1.421	1	2	270.000	24.444	7.8	0.286	0.000	D	F	2255.2	269.627	0.223	-0.017	997.719	1302.879	0.015	-	0.125	2.464	13	165.2	8.387	-	-	-	-	FREEWAY_SMOOTH	Urban	F	1011101000011101	0000000000010000	-	car	434.463	92.061	0.000	0.000	180.000	696.000	987.000	-0.000	Terminate	
"Student27Mode3"	"Tanvi_6"	"Feb 16, 2017 10:20:59 AM"	Unknown	151.98637	01/16/0117 10:23.34	00009119	9.154	Inter618t1-0	-1.351	1	2	269.966	24.444	-1.4	0.277	0.000	D	F	2147.0	270.974	0.242	-0.066	989.708	1302.948	0.019	-	-0.025	1.811	-	-	-	32	5.561	50.907	-	FREEWAY_SMOOTH	Urban	F	1011101000011101	0000000000010000	-	car	429.019	70.128	0.000	0.000	180.000	696.000	987.000	-0.000	Terminate	
"Student27Mode3"	"Tanvi_6"	"Feb 16, 2017 10:20:59 AM"	Unknown	152.98639	01/16/0117 10:23.35	00009179	10.671	Inter618t1-0	-1.252	1	2	269.756	24.444	-11.1	0.286	0.000	D	F	2087.7	269.767	0.254	-0.167	979.763	1303.027	0.031	-	-0.370	1.378	-	-	-	32	5.411	57.741	-	FREEWAY_SMOOTH	Urban	F	1011101000011101	0000000000010000	-	car	422.369	58.975	0.000	0.000	180.000	696.000	987.000	-0.000	Terminate	
"Student27Mode3"	"Tanvi_6"	"Feb 16, 2017 10:20:59 AM"	Unknown	153.98642	01/16/0117 10:23.36	00009239	11.986	Inter618t1-0	-1.217	1	2	269.273	24.444	14.7	0.293	0.000	D	F	2202.1	270.616	0.260	-0.445	968.425	1302.972	0.040	-	0.539	1.255	-	-	-	32	5.404	64.770	-	FREEWAY_SMOOTH	Urban	F	1011101000011101	0000000000010000	-	car	414.838	53.674	0.000	0.000	180.000	696.000	987.000	-0.000	Terminate	
"Student27Mode3"	"Tanvi_6"	"Feb 16, 2017 10:20:59 AM"	Unknown	154.98643	01/16/0117 10:23.37	00009299	13.173	Inter618t1-0	-0.647	1	2	268.439	24.444	-16.5	0.270	0.000	D	F	2327.4	271.513	0.287	-0.466	955.838	1303.302	0.055	-	-0.567	1.128	-	-	-	32	5.398	71.115	-	FREEWAY_SMOOTH	Urban	F	1011101000011101	0000000000010000	-	car	406.984	50.305	0.000	0.000	180.000	696.000	987.000	-0.000	Terminate	
"Student27Mode3"	"Tanvi_6"	"Feb 16, 2017 10:20:59 AM"	Unknown	155.98645	01/16/0117 10:23.38	00009359	14.248	Inter618t1-0	-0.259	1	2	267.185	24.444	-9.1	0.277	0.000	D	F	2464.5	267.574	0.264	-0.660	942.129	1303.180	0.072	-	-0.685	1.087	-	-	-	32	5.407	77.038	-	FREEWAY_SMOOTH	Urban	F	1011101000011101	0000000000010000	-	car	398.327	43.203	0.000	0.000	180.000	696.000	987.000	-0.000	Terminate	
"Student27Mode3"	"Tanvi_6"	"Feb 16, 2017 10:20:59 AM"	Unknown	156.98647	01/16/0117 10:23.39	00009419	15.333	Inter618t1-0	-0.195	1	2	265.421	24.444	-8.2	0.282	0.000	D	F	2626.2	265.729	0.264	-0.884	927.364	1302.308	0.088	-	-0.493	1.071	-	-	-	32	5.361	82.201	-	FREEWAY_SMOOTH	Urban	F	1011101000011101	0000000000010000	-	car	388.727	39.003	0.000	0.000	180.000	696.000	987.000	-0.000	Terminate	
"Student27Mode3"	"Tanvi_6"	"Feb 16, 2017 10:20:59 AM"	Unknown	157.98650	01/16/0117 10:23.40	00009479	16.371	Inter618t1-0	-0.090	1	2	263.053	24.444	-11.3	0.268	0.000	D	F	2336.8	263.610	0.270	-1.084	911.571	1300.843	0.105	-	-0.680	0.918	-	-	-	32	5.274	86.341	-	FREEWAY_SMOOTH	Urban	F	1011101000011101	0000000000010000	-	car	378.387	35.320	0.000	0.000	180.000	696.000	987.000	-0.000	Terminate	
