"Name"	"Project"	"Time"	ZoneName	Time	SystemTime	Frame	Velocity	LaneName	LanePos	LaneIndex	LaneCount	LaneHeading	SpeedLimit	Steer	Accel	Brake	Gear	Horn	SubjectEngineRPM	SubjectHeading	SubjectPitch	SubjectRoll	SubjectX	SubjectY	SubjectZ	Signal	LatAccel	LongAccel	Collision	CollisionAngle	CollisionVelocity	VehAhead	HeadwayTime	HeadwayDist	TTC	TerrainType	CultureType	Slip	DigitalInputs	DigitalInputs2	ActiveTrigger	EntityName	DistToEntity	TimeToEntity	EntityVelocity	EntityAccel	EntityHeading	EntityX	EntityY	EntityZ	GrabData	
"Student3mode1"	"Seema_Shokoufeh_Track2"	"Nov 22, 2016 08:21:21 AM"	Unknown	0.98335	10/22/0116 08:21.25	00000059	0.003	Inter625t13-0	-0.088	1	2	0.000	11.111	12.2	0.000	0.072	N	F	0.0	0.004	0.154	-0.004	1503.500	523.206	0.019	-	-0.000	0.006	-	-	-	-	-	-	-	PAVEMENT_GENERAL	Urban	F	1011101000000001	0000000000000000	-	-	-	-	-	-	-	-	-	-	Terminate	
"Student3mode1"	"Seema_Shokoufeh_Track2"	"Nov 22, 2016 08:21:21 AM"	Unknown	1.98337	10/22/0116 08:21.26	00000119	0.001	Inter625t13-0	-0.088	1	2	0.000	11.111	10.2	0.000	0.651	P	F	0.0	0.004	0.191	0.000	1503.500	523.208	0.025	-	0.000	-0.001	-	-	-	-	-	-	-	PAVEMENT_GENERAL	Urban	F	1011101000000001	0000000000000000	-	-	-	-	-	-	-	-	-	-	Terminate	
"Student3mode1"	"Seema_Shokoufeh_Track2"	"Nov 22, 2016 08:21:21 AM"	Unknown	2.98339	10/22/0116 08:21.27	00000179	0.000	Inter625t13-0	-0.088	1	2	0.000	11.111	14.5	0.000	0.887	P	F	116.7	0.004	0.202	0.000	1503.500	523.209	0.026	-	-0.000	-0.000	-	-	-	-	-	-	-	PAVEMENT_GENERAL	Urban	F	1011101000000011	0000000000000000	-	-	-	-	-	-	-	-	-	-	Terminate	
"Student3mode1"	"Seema_Shokoufeh_Track2"	"Nov 22, 2016 08:21:21 AM"	Unknown	3.98341	10/22/0116 08:21.28	00000239	0.000	Inter625t13-0	-0.088	1	2	0.000	11.111	13.9	0.000	0.749	P	F	450.0	0.004	0.206	0.000	1503.500	523.209	0.027	-	-0.000	-0.000	-	-	-	-	-	-	-	PAVEMENT_GENERAL	Urban	F	1111101000000001	0000000000000000	-	-	-	-	-	-	-	-	-	-	Terminate	
"Student3mode1"	"Seema_Shokoufeh_Track2"	"Nov 22, 2016 08:21:21 AM"	Unknown	4.98343	10/22/0116 08:21.29	00000299	0.000	Inter625t13-0	-0.088	1	2	0.000	11.111	13.3	0.000	0.773	P	F	477.5	0.004	0.208	0.000	1503.500	523.209	0.027	-	-0.000	-0.000	-	-	-	-	-	-	-	PAVEMENT_GENERAL	Urban	F	1011101000000001	0000000000000000	-	-	-	-	-	-	-	-	-	-	Terminate	
"Student3mode1"	"Seema_Shokoufeh_Track2"	"Nov 22, 2016 08:21:21 AM"	Unknown	5.98345	10/22/0116 08:21.30	00000359	0.000	Inter625t13-0	-0.088	1	2	0.000	11.111	13.3	0.000	0.603	D	F	477.5	0.004	0.208	0.000	1503.500	523.209	0.028	-	-0.000	-0.000	-	-	-	-	-	-	-	PAVEMENT_GENERAL	Urban	F	1111101000000001	0000000000000000	-	-	-	-	-	-	-	-	-	-	Terminate	
"Student3mode1"	"Seema_Shokoufeh_Track2"	"Nov 22, 2016 08:21:21 AM"	Unknown	6.98347	10/22/0116 08:21.31	00000419	0.189	Inter625t13-0	-0.086	1	2	0.000	11.111	31.8	0.093	0.000	D	F	1160.6	0.063	0.184	-0.027	1503.502	523.231	0.014	-	-0.052	0.582	-	-	-	-	-	-	-	PAVEMENT_GENERAL	Urban	F	1011101000000001	0000000000000000	-	-	-	-	-	-	-	-	-	-	Terminate	
"Student3mode1"	"Seema_Shokoufeh_Track2"	"Nov 22, 2016 08:21:21 AM"	Unknown	7.98349	10/22/0116 08:21.32	00000479	2.698	Inter625t13-0	-0.053	1	2	0.000	11.111	30.0	0.270	0.000	D	F	1690.0	0.935	0.194	-0.012	1503.535	524.385	0.007	-	0.099	4.257	-	-	-	-	-	-	-	PAVEMENT_GENERAL	Urban	F	1011101000000001	0000000000000000	-	-	-	-	-	-	-	-	-	-	Terminate	
"Student3mode1"	"Seema_Shokoufeh_Track2"	"Nov 22, 2016 08:21:21 AM"	Unknown	8.98351	10/22/0116 08:21.33	00000539	6.221	Inter625t13-0	0.107	1	2	0.000	11.111	-0.7	0.392	0.000	D	F	2224.3	1.976	0.228	0.003	1503.695	528.922	0.011	-	-0.026	3.099	-	-	-	-	-	-	-	PAVEMENT_GENERAL	Urban	F	1011101000000001	0000000000000000	-	-	-	-	-	-	-	-	-	-	Terminate	
"Student3mode1"	"Seema_Shokoufeh_Track2"	"Nov 22, 2016 08:21:21 AM"	Unknown	9.98353	10/22/0116 08:21.34	00000599	9.098	Inter625t49-0	0.355	1	1	0.006	11.111	-9.4	0.444	0.000	D	F	2902.4	1.638	0.230	0.030	1503.943	536.598	0.013	-	-0.223	2.840	-	-	-	-	-	-	-	PAVEMENT_GENERAL	Urban	F	1011101000000001	0000000000000000	-	-	-	-	-	-	-	-	-	-	Terminate	
"Student3mode1"	"Seema_Shokoufeh_Track2"	"Nov 22, 2016 08:21:21 AM"	Unknown	10.98355	10/22/0116 08:21.35	00000659	11.868	Inter625t49-0	0.511	1	1	0.008	11.111	-0.5	0.455	0.000	D	F	2607.2	0.429	0.195	0.001	1504.100	547.104	0.013	-	-0.069	2.127	-	-	-	-	-	-	-	PAVEMENT_GENERAL	Urban	F	1111101000000001	0000000000000000	-	-	-	-	-	-	-	-	-	-	Terminate	
"Student3mode1"	"Seema_Shokoufeh_Track2"	"Nov 22, 2016 08:21:21 AM"	Unknown	11.98357	10/22/0116 08:21.36	00000719	13.498	Inter625t49-0	0.574	1	1	0.006	11.111	-9.9	0.473	0.000	D	F	2463.7	359.855	0.211	0.056	1504.165	559.826	0.019	-	-0.403	1.488	-	-	-	-	-	-	-	PAVEMENT_GENERAL	Urban	F	1011101000000001	0000000000000000	-	-	-	-	-	-	-	-	-	-	Terminate	
"Student3mode1"	"Seema_Shokoufeh_Track2"	"Nov 22, 2016 08:21:21 AM"	Unknown	12.98359	10/22/0116 08:21.37	00000779	14.958	Inter625t49-0	0.402	1	1	0.005	11.111	2.6	0.474	0.000	D	F	2638.6	359.108	0.209	-0.014	1503.995	574.057	0.020	-	0.063	1.441	-	-	-	-	-	-	-	PAVEMENT_GENERAL	Urban	F	1011101000000001	0000000000000000	-	-	-	-	-	-	-	-	-	-	Terminate	
"Student3mode1"	"Seema_Shokoufeh_Track2"	"Nov 22, 2016 08:21:21 AM"	Unknown	13.98361	10/22/0116 08:21.38	00000839	16.207	Inter625t15-0	0.223	1	2	0.000	11.111	0.3	0.166	0.000	D	F	2158.5	359.509	0.177	-0.005	1503.816	589.710	0.022	-	0.036	0.424	-	-	-	-	-	-	-	PAVEMENT_GENERAL	Urban	F	1011101000000001	0000000000000000	-	-	-	-	-	-	-	-	-	-	Terminate	
"Student3mode1"	"Seema_Shokoufeh_Track2"	"Nov 22, 2016 08:21:21 AM"	Unknown	14.98363	10/22/0116 08:21.39	00000899	16.307	Inter614t1-0	0.074	1	2	0.000	11.111	1.1	0.060	0.000	D	F	1696.2	359.491	0.188	-0.006	1503.667	605.996	0.026	-	0.045	-0.129	-	-	-	-	-	-	-	PAVEMENT_GENERAL	Urban	F	1111101000000001	0000000000000000	-	-	-	-	-	-	-	-	-	-	Terminate	
"Student3mode1"	"Seema_Shokoufeh_Track2"	"Nov 22, 2016 08:21:21 AM"	Unknown	15.98365	10/22/0116 08:21.40	00000959	15.793	Inter614t1-0	-0.049	1	2	0.000	11.111	3.3	0.000	0.000	D	F	1551.0	359.721	0.187	-0.026	1503.544	622.070	0.029	-	0.174	-0.589	-	-	-	-	-	-	-	PAVEMENT_GENERAL	Urban	F	1011101000000001	0000000000000000	-	-	-	-	-	-	-	-	-	-	Terminate	
"Student3mode1"	"Seema_Shokoufeh_Track2"	"Nov 22, 2016 08:21:21 AM"	Unknown	16.98367	10/22/0116 08:21.41	00001019	15.710	Inter614t1-0	-0.074	1	2	0.000	11.111	0.4	0.162	0.000	D	F	1830.1	0.000	0.198	-0.004	1503.519	637.744	0.026	-	0.005	0.207	-	-	-	-	-	-	-	PAVEMENT_GENERAL	Urban	F	1011101000000001	0000000000000000	-	-	-	-	-	-	-	-	-	-	Terminate	
"Student3mode1"	"Seema_Shokoufeh_Track2"	"Nov 22, 2016 08:21:21 AM"	Unknown	17.98369	10/22/0116 08:21.42	00001079	15.360	Inter614t1-0	-0.084	1	2	0.000	11.111	-0.7	0.120	0.000	D	F	1742.9	359.925	0.199	0.006	1503.510	653.318	0.028	-	-0.043	-0.054	-	-	-	-	-	-	-	PAVEMENT_GENERAL	Urban	F	1111101000000001	0000000000000000	-	-	-	-	-	-	-	-	-	-	Terminate	
"Student3mode1"	"Seema_Shokoufeh_Track2"	"Nov 22, 2016 08:21:21 AM"	Unknown	18.98371	10/22/0116 08:21.43	00001139	15.427	Inter614t1-0	-0.104	1	2	0.000	11.111	0.4	0.132	0.000	D	F	1753.9	0.000	0.196	-0.003	1503.489	668.706	0.026	-	0.024	0.100	-	-	-	-	-	-	-	PAVEMENT_GENERAL	Urban	F	1011101000000001	0000000000000000	-	-	-	-	-	-	-	-	-	-	Terminate	
"Student3mode1"	"Seema_Shokoufeh_Track2"	"Nov 22, 2016 08:21:21 AM"	Unknown	19.98373	10/22/0116 08:21.44	00001199	15.519	Inter614t1-0	-0.107	1	2	0.000	11.111	-0.1	0.000	0.000	D	F	1496.0	0.004	0.180	0.000	1503.486	684.203	0.026	-	-0.001	-0.449	-	-	-	-	-	-	-	PAVEMENT_GENERAL	Urban	F	1011101000000001	0000000000000000	-	-	-	-	-	-	-	-	-	-	Terminate	
"Student3mode1"	"Seema_Shokoufeh_Track2"	"Nov 22, 2016 08:21:21 AM"	Unknown	20.98375	10/22/0116 08:21.45	00001259	15.080	Inter614t1-0	-0.102	1	2	0.000	11.111	-0.1	0.118	0.000	D	F	1697.4	0.029	0.202	0.002	1503.491	699.447	0.027	-	-0.005	0.071	-	-	-	-	-	-	-	PAVEMENT_GENERAL	Urban	F	1011101000000001	0000000000000000	-	-	-	-	-	-	-	-	-	-	Terminate	
"Student3mode1"	"Seema_Shokoufeh_Track2"	"Nov 22, 2016 08:21:21 AM"	Unknown	21.98377	10/22/0116 08:21.46	00001319	14.822	Inter614t1-0	-0.099	1	2	0.000	11.111	-1.3	0.099	0.000	D	F	1632.0	0.000	0.195	0.007	1503.494	714.401	0.026	-	-0.055	-0.069	-	-	-	-	-	-	-	PAVEMENT_GENERAL	Urban	F	1111101000000001	0000000000000000	-	-	-	-	-	-	-	-	-	-	Terminate	
"Student3mode1"	"Seema_Shokoufeh_Track2"	"Nov 22, 2016 08:21:21 AM"	Unknown	22.98379	10/22/0116 08:21.47	00001379	14.924	Inter614t1-0	-0.150	1	2	0.000	11.111	-0.5	0.132	0.000	D	F	1721.8	359.642	0.196	0.006	1503.444	729.265	0.026	-	-0.048	0.132	-	-	-	-	-	-	-	PAVEMENT_GENERAL	Urban	F	1011101000000001	0000000000000000	-	-	-	-	-	-	-	-	-	-	Terminate	
"Student3mode1"	"Seema_Shokoufeh_Track2"	"Nov 22, 2016 08:21:21 AM"	Unknown	23.98381	10/22/0116 08:21.48	00001439	14.683	Inter614t1-0	-0.231	1	2	0.000	11.111	2.8	0.030	0.000	D	F	1455.7	359.891	0.187	-0.021	1503.362	744.154	0.029	-	0.160	-0.511	-	-	-	-	-	-	-	PAVEMENT_GENERAL	Urban	F	1111101000000001	0000000000000000	-	-	-	-	-	-	-	-	-	-	Terminate	
"Student3mode1"	"Seema_Shokoufeh_Track2"	"Nov 22, 2016 08:21:21 AM"	Unknown	24.98383	10/22/0116 08:21.49	00001499	14.559	Inter614t1-0	-0.206	1	2	0.000	11.111	-0.1	0.122	0.000	D	F	1682.6	0.227	0.199	-0.003	1503.387	758.742	0.027	-	0.018	0.062	-	-	-	12	5.521	80.377	-	PAVEMENT_GENERAL	Urban	F	1111101000000001	0000000000000000	-	-	-	-	-	-	-	-	-	-	Terminate	
"Student3mode1"	"Seema_Shokoufeh_Track2"	"Nov 22, 2016 08:21:21 AM"	Unknown	25.98385	10/22/0116 08:21.50	00001559	14.786	Inter614t1-0	-0.161	1	2	0.000	11.111	-1.2	0.159	0.000	D	F	1768.3	0.087	0.198	0.006	1503.433	773.398	0.025	-	-0.058	0.293	-	-	-	12	5.707	84.387	-	PAVEMENT_GENERAL	Urban	F	1111101000000001	0000000000000000	-	-	-	-	-	-	-	-	-	-	Terminate	
"Student3mode1"	"Seema_Shokoufeh_Track2"	"Nov 22, 2016 08:21:21 AM"	Unknown	26.98387	10/22/0116 08:21.51	00001619	15.139	Inter614t1-0	-0.174	1	2	0.000	11.111	-1.0	0.178	0.000	D	F	1838.2	359.777	0.198	0.009	1503.420	788.352	0.025	-	-0.069	0.358	-	-	-	12	5.943	89.974	-	PAVEMENT_GENERAL	Urban	F	1011101000000001	0000000000000000	-	-	-	-	-	-	-	-	-	-	Terminate	
"Student3mode1"	"Seema_Shokoufeh_Track2"	"Nov 22, 2016 08:21:21 AM"	Unknown	27.98389	10/22/0116 08:21.52	00001679	15.302	Inter612t1-0	-0.258	1	2	0.000	11.111	0.6	0.000	0.000	D	F	1502.0	359.627	0.167	-0.004	1503.335	803.651	0.028	-	0.015	-0.586	-	-	-	12	6.282	96.133	-	PAVEMENT_GENERAL	Urban	F	1011101000000001	0000000000000000	-	-	-	-	-	-	-	-	-	-	Terminate	
"Student3mode1"	"Seema_Shokoufeh_Track2"	"Nov 22, 2016 08:21:21 AM"	Unknown	28.98391	10/22/0116 08:21.53	00001739	14.863	Inter612t1-0	-0.332	1	2	0.000	11.111	0.5	0.092	0.000	D	F	1632.1	359.822	0.197	-0.004	1503.262	818.690	0.027	-	0.036	-0.087	-	-	-	12	6.935	103.072	-	PAVEMENT_GENERAL	Urban	F	1011101000000001	0000000000000000	-	-	-	-	-	-	-	-	-	-	Terminate	
"Student3mode1"	"Seema_Shokoufeh_Track2"	"Nov 22, 2016 08:21:21 AM"	Unknown	29.98393	10/22/0116 08:21.54	00001799	15.099	Inter612t1-0	-0.364	1	2	0.000	11.111	1.4	0.199	0.000	D	F	1875.9	0.000	0.199	-0.007	1503.229	833.633	0.025	-	0.059	0.392	-	-	-	12	7.316	110.466	-	PAVEMENT_GENERAL	Urban	F	1011101000000001	0000000000000000	-	-	-	-	-	-	-	-	-	-	Terminate	
"Student3mode1"	"Seema_Shokoufeh_Track2"	"Nov 22, 2016 08:21:21 AM"	Unknown	30.98395	10/22/0116 08:21.55	00001859	15.605	Inter612t1-0	-0.360	1	2	0.000	11.111	-0.9	0.196	0.000	D	F	1906.0	0.000	0.198	0.008	1503.233	848.983	0.024	-	-0.049	0.456	-	-	-	12	7.528	117.469	-	PAVEMENT_GENERAL	Urban	F	1011101000000001	0000000000000000	-	-	-	-	-	-	-	-	-	-	Terminate	
"Student3mode1"	"Seema_Shokoufeh_Track2"	"Nov 22, 2016 08:21:21 AM"	Unknown	31.98397	10/22/0116 08:21.56	00001919	15.695	Inter612t1-0	-0.388	1	2	0.000	11.111	1.5	0.190	0.000	D	F	1929.5	359.863	0.210	-0.008	1503.205	864.701	0.027	-	0.046	0.389	-	-	-	12	7.907	124.105	-	PAVEMENT_GENERAL	Urban	F	1111101000000001	0000000000000000	-	-	-	-	-	-	-	-	-	-	Terminate	
"Student3mode1"	"Seema_Shokoufeh_Track2"	"Nov 22, 2016 08:21:21 AM"	Unknown	32.98399	10/22/0116 08:21.57	00001979	16.136	Inter612t1-0	-0.403	1	2	0.000	11.111	-1.6	0.215	0.000	D	F	1982.3	359.929	0.199	0.008	1503.191	880.599	0.024	-	-0.064	0.506	-	-	-	12	8.091	130.560	-	PAVEMENT_GENERAL	Urban	F	1011101000000001	0000000000000000	-	-	-	-	-	-	-	-	-	-	Terminate	
"Student3mode1"	"Seema_Shokoufeh_Track2"	"Nov 22, 2016 08:21:21 AM"	Unknown	33.98401	10/22/0116 08:21.58	00002039	16.643	Inter612t1-0	-0.454	1	2	0.000	11.111	0.7	0.220	0.000	D	F	2013.5	359.798	0.197	-0.003	1503.139	896.994	0.024	-	0.028	0.491	-	-	-	12	8.203	136.519	-	PAVEMENT_GENERAL	Urban	F	1011101000000001	0000000000000000	-	-	-	-	-	-	-	-	-	-	Terminate	
"Student3mode1"	"Seema_Shokoufeh_Track2"	"Nov 22, 2016 08:21:21 AM"	Unknown	34.98403	10/22/0116 08:21.59	00002099	17.178	Inter612t1-0	-0.489	1	2	0.000	11.111	0.7	0.238	0.000	D	F	2064.2	0.000	0.198	-0.007	1503.104	913.900	0.024	-	0.052	0.546	-	-	-	12	8.265	141.967	-	PAVEMENT_GENERAL	Urban	F	1011101000000001	0000000000000000	-	-	-	-	-	-	-	-	-	-	Terminate	
"Student3mode1"	"Seema_Shokoufeh_Track2"	"Nov 22, 2016 08:21:21 AM"	Unknown	35.98405	10/22/0116 08:22.00	00002159	17.200	Inter612t1-0	-0.497	1	2	0.000	11.111	0.3	0.000	0.000	D	F	1259.9	359.912	0.182	0.004	1503.096	931.218	0.029	-	-0.020	-0.550	-	-	-	12	8.547	147.002	-	PAVEMENT_GENERAL	Urban	F	1011101000000001	0000000000000000	-	-	-	-	-	-	-	-	-	-	Terminate	
"Student3mode1"	"Seema_Shokoufeh_Track2"	"Nov 22, 2016 08:21:21 AM"	Unknown	36.98407	10/22/0116 08:22.01	00002219	16.658	Inter612t1-0	-0.491	1	2	0.000	11.111	0.1	0.028	0.000	D	F	1158.8	0.199	0.188	-0.008	1503.102	948.142	0.029	-	0.059	-0.485	-	-	-	12	9.151	152.431	-	PAVEMENT_GENERAL	Urban	F	1111101000000001	0000000000000000	-	-	-	-	-	-	-	-	-	-	Terminate	
"Student3mode1"	"Seema_Shokoufeh_Track2"	"Nov 22, 2016 08:21:21 AM"	Unknown	37.98409	10/22/0116 08:22.02	00002279	16.463	Inter612t1-0	-0.460	1	2	0.000	11.111	-1.1	0.131	0.000	D	F	1536.2	359.945	0.193	0.011	1503.133	964.666	0.027	-	-0.083	0.001	-	-	-	12	9.613	158.261	-	PAVEMENT_GENERAL	Urban	F	1111101000000001	0000000000000000	-	-	-	-	-	-	-	-	-	-	Terminate	
"Student3mode1"	"Seema_Shokoufeh_Track2"	"Nov 22, 2016 08:21:21 AM"	Unknown	38.98411	10/22/0116 08:22.03	00002339	16.616	Inter612t1-0	-0.481	1	2	0.000	11.111	0.9	0.166	0.000	D	F	1639.7	0.000	0.194	-0.005	1503.112	981.193	0.026	-	0.047	0.178	-	-	-	12	9.875	164.087	-	PAVEMENT_GENERAL	Urban	F	1111101000000001	0000000000000000	-	-	-	-	-	-	-	-	-	-	Terminate	
"Student3mode1"	"Seema_Shokoufeh_Track2"	"Nov 22, 2016 08:21:21 AM"	Unknown	39.98413	10/22/0116 08:22.04	00002399	16.740	Inter612t1-0	-0.474	1	2	0.000	11.111	1.1	0.028	0.000	D	F	1233.4	0.096	0.184	-0.008	1503.119	997.891	0.026	-	0.053	-0.204	-	-	-	12	9.999	167.385	-	PAVEMENT_GENERAL	Urban	F	1111101000000001	0000000000000000	-	-	-	-	-	-	-	-	-	-	Terminate	
"Student3mode1"	"Seema_Shokoufeh_Track2"	"Nov 22, 2016 08:21:21 AM"	Unknown	40.98415	10/22/0116 08:22.05	00002459	16.303	Inter613t1-0	-0.413	1	2	0.000	11.111	1.1	0.079	0.000	D	F	1329.9	0.354	0.192	-0.009	1503.180	1014.394	0.028	-	0.068	-0.252	-	-	-	12	10.771	175.594	-	PAVEMENT_GENERAL	Urban	F	1011101000000001	0000000000000000	-	-	-	-	-	-	-	-	-	-	Terminate	
"Student3mode1"	"Seema_Shokoufeh_Track2"	"Nov 22, 2016 08:21:21 AM"	Unknown	41.98417	10/22/0116 08:22.06	00002519	16.277	Inter613t1-0	-0.285	1	2	0.000	11.111	0.9	0.072	0.000	D	F	1372.7	0.568	0.190	-0.007	1503.308	1030.670	0.026	-	0.055	-0.092	-	-	-	12	11.161	181.671	-	PAVEMENT_GENERAL	Urban	F	1011101000000001	0000000000000000	-	-	-	-	-	-	-	-	-	-	Terminate	
"Student3mode1"	"Seema_Shokoufeh_Track2"	"Nov 22, 2016 08:21:21 AM"	Unknown	42.98419	10/22/0116 08:22.07	00002579	16.152	Inter613t1-0	-0.114	1	2	0.000	11.111	-4.2	0.192	0.000	D	F	1707.6	0.525	0.196	0.024	1503.479	1046.821	0.025	-	-0.166	0.296	-	-	-	12	11.631	187.874	-	PAVEMENT_GENERAL	Urban	F	1011101000000001	0000000000000000	-	-	-	-	-	-	-	-	-	-	Terminate	
"Student3mode1"	"Seema_Shokoufeh_Track2"	"Nov 22, 2016 08:21:21 AM"	Unknown	43.98421	10/22/0116 08:22.08	00002639	16.489	Inter613t1-0	-0.067	1	2	0.000	11.111	-3.4	0.205	0.000	D	F	1891.8	359.753	0.197	0.027	1503.526	1063.133	0.025	-	-0.207	0.372	-	-	-	12	11.761	193.916	-	PAVEMENT_GENERAL	Urban	F	1011101000000001	0000000000000000	-	-	-	-	-	-	-	-	-	-	Terminate	
"Student3mode1"	"Seema_Shokoufeh_Track2"	"Nov 22, 2016 08:21:21 AM"	Unknown	44.98423	10/22/0116 08:22.09	00002699	16.923	Inter613t1-0	-0.192	1	2	0.000	11.111	0.2	0.208	0.000	D	F	2000.9	359.430	0.196	0.004	1503.401	1079.836	0.025	-	-0.026	0.434	-	-	-	12	11.792	199.566	-	PAVEMENT_GENERAL	Urban	F	1011101000000001	0000000000000000	-	-	-	-	-	-	-	-	-	-	Terminate	
"Student3mode1"	"Seema_Shokoufeh_Track2"	"Nov 22, 2016 08:21:21 AM"	Unknown	45.98425	10/22/0116 08:22.10	00002759	17.284	Inter613t1-0	-0.363	1	2	0.000	11.111	3.7	0.196	0.000	D	F	2003.8	359.541	0.195	-0.026	1503.230	1096.946	0.025	-	0.166	0.338	-	-	-	12	11.849	204.810	-	PAVEMENT_GENERAL	Urban	F	1011101000000001	0000000000000000	-	-	-	-	-	-	-	-	-	-	Terminate	
"Student3mode1"	"Seema_Shokoufeh_Track2"	"Nov 22, 2016 08:21:21 AM"	Unknown	46.98427	10/22/0116 08:22.11	00002819	17.200	Inter613t1-0	-0.380	1	2	0.000	11.111	-0.5	0.051	0.000	D	F	1727.7	0.346	0.193	-0.008	1503.213	1114.284	0.029	-	0.080	-0.357	-	-	-	12	12.199	209.825	-	PAVEMENT_GENERAL	Urban	F	1011101000000001	0000000000000000	-	-	-	-	-	-	-	-	-	-	Terminate	
"Student3mode1"	"Seema_Shokoufeh_Track2"	"Nov 22, 2016 08:21:21 AM"	Unknown	47.98429	10/22/0116 08:22.12	00002879	17.125	Inter613t1-0	-0.304	1	2	0.000	11.111	-0.8	0.190	0.000	D	F	1972.3	0.215	0.194	0.002	1503.289	1131.365	0.025	-	-0.024	0.334	-	-	-	12	12.561	215.097	-	PAVEMENT_GENERAL	Urban	F	1011101000000001	0000000000000000	-	-	-	-	-	-	-	-	-	-	Terminate	
"Student3mode1"	"Seema_Shokoufeh_Track2"	"Nov 22, 2016 08:21:21 AM"	Unknown	48.98431	10/22/0116 08:22.13	00002939	17.386	Inter613t1-0	-0.264	1	2	0.000	11.111	0.5	0.185	0.000	D	F	1993.9	0.042	0.195	0.000	1503.330	1148.622	0.025	-	-0.009	0.288	-	-	-	12	12.665	220.194	-	PAVEMENT_GENERAL	Urban	F	1111101000000001	0000000000000000	-	-	-	-	-	-	-	-	-	-	Terminate	
"Student3mode1"	"Seema_Shokoufeh_Track2"	"Nov 22, 2016 08:21:21 AM"	Unknown	49.98433	10/22/0116 08:22.14	00002999	17.688	Inter613t1-0	-0.232	1	2	0.000	11.111	-0.2	0.194	0.000	D	F	2029.8	0.181	0.194	-0.003	1503.361	1166.158	0.025	-	0.022	0.306	-	-	-	12	12.721	225.011	-	PAVEMENT_GENERAL	Urban	F	1011101000000001	0000000000000000	-	-	-	-	-	-	-	-	-	-	Terminate	
"Student3mode1"	"Seema_Shokoufeh_Track2"	"Nov 22, 2016 08:21:21 AM"	Unknown	50.98435	10/22/0116 08:22.15	00003059	18.003	Inter613t1-0	-0.201	1	2	0.000	11.111	-0.3	0.205	0.000	D	F	2062.5	0.019	0.194	0.003	1503.392	1184.005	0.025	-	-0.022	0.307	-	-	-	12	12.693	228.513	-	PAVEMENT_GENERAL	Urban	F	1111101000000001	0000000000000000	-	-	-	-	-	-	-	-	-	-	Terminate	
"Student3mode1"	"Seema_Shokoufeh_Track2"	"Nov 22, 2016 08:21:21 AM"	Unknown	51.98437	10/22/0116 08:22.16	00003119	17.825	Inter746t1-0	-0.195	1	2	0.000	11.111	0.4	0.000	0.000	D	F	1288.6	0.041	0.182	-0.004	1503.398	1202.015	0.029	-	0.027	-0.560	-	-	-	12	12.792	228.022	97.437	PAVEMENT_GENERAL	Urban	F	1011101000000001	0000000000000000	-	-	-	-	-	-	-	-	-	-	Terminate	
"Student3mode1"	"Seema_Shokoufeh_Track2"	"Nov 22, 2016 08:21:21 AM"	Unknown	52.98439	10/22/0116 08:22.17	00003179	17.355	Inter746t1-0	-0.164	1	2	0.000	11.111	0.6	0.056	0.000	D	F	1348.9	0.189	0.189	-0.006	1503.429	1219.575	0.028	-	0.042	-0.267	-	-	-	12	12.909	224.027	42.113	PAVEMENT_GENERAL	Urban	F	1011101000000001	0000000000000000	-	-	-	-	-	-	-	-	-	-	Terminate	
"Student3mode1"	"Seema_Shokoufeh_Track2"	"Nov 22, 2016 08:21:21 AM"	Unknown	53.98441	10/22/0116 08:22.18	00003239	16.851	Inter746t1-0	-0.102	1	2	0.000	11.111	-0.9	0.055	0.000	D	F	1264.9	0.178	0.189	0.008	1503.491	1236.691	0.029	-	-0.048	-0.461	-	-	-	12	12.964	218.466	38.276	PAVEMENT_GENERAL	Urban	F	1011101000000001	0000000000000000	-	-	-	-	-	-	-	-	-	-	Terminate	
"Student3mode1"	"Seema_Shokoufeh_Track2"	"Nov 22, 2016 08:21:21 AM"	Unknown	54.98443	10/22/0116 08:22.19	00003299	16.874	Inter746t1-0	-0.072	1	2	0.000	11.111	-1.6	0.141	0.000	D	F	1583.9	0.000	0.192	0.011	1503.521	1253.536	0.026	-	-0.085	0.061	-	-	-	-	-	-	-	PAVEMENT_GENERAL	Urban	F	1011101000000001	0000000000000000	-	-	-	-	-	-	-	-	-	-	Terminate	
"Student3mode1"	"Seema_Shokoufeh_Track2"	"Nov 22, 2016 08:21:21 AM"	Unknown	55.98445	10/22/0116 08:22.20	00003359	16.956	Inter746t1-0	-0.114	1	2	0.000	11.111	-0.5	0.150	0.000	D	F	1608.3	359.769	0.193	0.004	1503.479	1270.450	0.026	-	-0.030	0.090	-	-	-	-	-	-	-	PAVEMENT_GENERAL	Urban	F	1011101000000001	0000000000000000	-	-	-	-	-	-	-	-	-	-	Terminate	
"Student3mode1"	"Seema_Shokoufeh_Track2"	"Nov 22, 2016 08:21:21 AM"	Unknown	56.98447	10/22/0116 08:22.21	00003419	17.002	Inter746t1-0	-0.196	1	2	0.000	11.111	-0.5	0.150	0.000	D	F	1607.6	359.665	0.193	0.004	1503.397	1287.431	0.026	-	-0.030	0.067	-	-	-	-	-	-	-	PAVEMENT_GENERAL	Urban	F	1111101000000001	0000000000000000	-	-	-	-	-	-	-	-	-	-	Terminate	
"Student3mode1"	"Seema_Shokoufeh_Track2"	"Nov 22, 2016 08:21:21 AM"	Unknown	57.98449	10/22/0116 08:22.22	00003479	17.103	Inter746t1-0	-0.289	1	2	0.000	11.111	1.0	0.153	0.000	D	F	1624.9	359.777	0.193	-0.007	1503.304	1304.483	0.026	-	0.064	0.107	-	-	-	-	-	-	-	PAVEMENT_GENERAL	Urban	F	1011101000000001	0000000000000000	-	-	-	-	-	-	-	-	-	-	Terminate	
"Student3mode1"	"Seema_Shokoufeh_Track2"	"Nov 22, 2016 08:21:21 AM"	Unknown	58.98451	10/22/0116 08:22.23	00003539	17.218	Inter746t1-0	-0.323	1	2	0.000	11.111	-0.1	0.153	0.000	D	F	1634.5	0.000	0.193	0.002	1503.270	1321.642	0.026	-	0.009	0.114	-	-	-	-	-	-	-	PAVEMENT_GENERAL	Urban	F	1111101000000001	0000000000000000	-	-	-	-	-	-	-	-	-	-	Terminate	
"Student3mode1"	"Seema_Shokoufeh_Track2"	"Nov 22, 2016 08:21:21 AM"	Unknown	59.98453	10/22/0116 08:22.24	00003599	17.307	Inter746t1-0	-0.326	1	2	0.000	11.111	0.4	0.141	0.000	D	F	1600.9	0.013	0.192	-0.004	1503.267	1338.909	0.026	-	0.024	0.057	-	-	-	-	-	-	-	PAVEMENT_GENERAL	Urban	F	1011101000000001	0000000000000000	-	-	-	-	-	-	-	-	-	-	Terminate	
"Student3mode1"	"Seema_Shokoufeh_Track2"	"Nov 22, 2016 08:21:21 AM"	Unknown	60.98455	10/22/0116 08:22.25	00003659	17.260	Inter746t1-0	-0.321	1	2	0.000	11.111	-1.7	0.086	0.000	D	F	1429.6	359.912	0.189	0.012	1503.272	1356.216	0.027	L	-0.101	-0.173	-	-	-	-	-	-	-	PAVEMENT_GENERAL	Urban	F	1111101000100001	0000000000000000	-	-	-	-	-	-	-	-	-	-	Terminate	
"Student3mode1"	"Seema_Shokoufeh_Track2"	"Nov 22, 2016 08:21:21 AM"	Unknown	61.98457	10/22/0116 08:22.26	00003719	16.812	Inter746t1-0	-0.442	1	2	0.000	11.111	-7.3	0.000	0.000	D	F	1146.4	358.894	0.186	0.068	1503.151	1373.290	0.029	L	-0.505	-0.557	-	-	-	-	-	-	-	PAVEMENT_GENERAL	Urban	F	1111101000100001	0000000000000000	-	-	-	-	-	-	-	-	-	-	Terminate	
"Student3mode1"	"Seema_Shokoufeh_Track2"	"Nov 22, 2016 08:21:21 AM"	Unknown	62.98459	10/22/0116 08:22.27	00003779	16.258	Inter746t1-0	-0.977	1	2	0.000	11.111	-5.5	0.000	0.000	D	F	1108.7	357.400	0.187	0.049	1502.616	1389.815	0.029	L	-0.356	-0.550	-	-	-	-	-	-	-	PAVEMENT_GENERAL	Urban	F	1011101000100001	0000000000000000	-	-	-	-	-	-	-	-	-	-	Terminate	
"Student3mode1"	"Seema_Shokoufeh_Track2"	"Nov 22, 2016 08:21:21 AM"	Unknown	63.98461	10/22/0116 08:22.28	00003839	15.712	-	-	CL	0	-	-	0.7	0.000	0.000	D	F	1071.6	356.670	0.188	0.001	1501.763	1405.777	0.029	L	-0.005	-0.542	-	-	-	-	-	-	-	PAVEMENT_GENERAL	Urban	F	1111101000100001	0000000000000000	-	-	-	-	-	-	-	-	-	-	Terminate	
"Student3mode1"	"Seema_Shokoufeh_Track2"	"Nov 22, 2016 08:21:21 AM"	Unknown	64.98463	10/22/0116 08:22.29	00003899	12.959	-	-	SH-	1	-	-	1.7	0.000	0.334	D	F	937.8	357.073	0.130	-0.013	1500.947	1420.535	0.038	L	0.097	-4.397	-	-	-	-	-	-	-	PAVEMENT_GENERAL	Urban	F	1011101000100001	0000000000000000	-	-	-	-	-	-	-	-	-	-	Terminate	
"Student3mode1"	"Seema_Shokoufeh_Track2"	"Nov 22, 2016 08:21:21 AM"	Unknown	65.98465	10/22/0116 08:22.30	00003959	10.838	-	-	SH-	1	-	-	5.9	0.000	0.000	D	F	1061.2	357.581	0.197	-0.030	1500.402	1431.957	0.029	L	0.205	-0.510	-	-	-	-	-	-	-	PAVEMENT_GENERAL	Urban	F	1011101000100001	0000000000000000	-	-	-	-	-	-	-	-	-	-	Terminate	
"Student3mode1"	"Seema_Shokoufeh_Track2"	"Nov 22, 2016 08:21:21 AM"	Unknown	66.98467	10/22/0116 08:22.32	00004019	10.330	Inter749t31-0	-1.710	1	1	355.663	11.111	7.5	0.000	0.000	D	F	1015.0	358.778	0.194	-0.034	1500.073	1442.535	0.029	L	0.256	-0.505	-	-	-	-	-	-	-	PAVEMENT_GENERAL	Urban	F	1111101000100001	0000000000000000	-	-	-	-	-	-	-	-	-	-	Terminate	
"Student3mode1"	"Seema_Shokoufeh_Track2"	"Nov 22, 2016 08:21:21 AM"	Unknown	67.98470	10/22/0116 08:22.33	00004079	9.829	Inter749t31-0	-0.890	1	1	356.903	11.111	-0.1	0.000	0.000	D	F	965.8	359.850	0.195	0.004	1499.978	1452.613	0.029	L	0.015	-0.498	-	-	-	-	-	-	-	PAVEMENT_GENERAL	Urban	F	1011101000100001	0000000000000000	-	-	-	-	-	-	-	-	-	-	Terminate	
"Student3mode1"	"Seema_Shokoufeh_Track2"	"Nov 22, 2016 08:21:21 AM"	Unknown	68.98471	10/22/0116 08:22.34	00004139	9.682	Inter749t31-0	-0.389	1	1	356.903	11.111	0.9	0.129	0.000	D	F	1468.9	359.933	0.205	-0.004	1499.958	1462.263	0.024	L	0.026	0.467	-	-	-	-	-	-	-	PAVEMENT_GENERAL	Urban	F	1011101000100001	0000000000000000	-	-	-	-	-	-	-	-	-	-	Terminate	
"Student3mode1"	"Seema_Shokoufeh_Track2"	"Nov 22, 2016 08:21:21 AM"	Unknown	69.98473	10/22/0116 08:22.35	00004199	9.708	Inter749t11-0	-0.107	LT1	2	0.000	11.111	-0.6	0.000	0.000	D	F	953.3	0.004	0.191	0.001	1499.956	1472.058	0.028	L	-0.012	-0.493	-	-	-	-	-	-	-	PAVEMENT_GENERAL	Urban	F	1111101000100001	0000000000000000	-	-	-	-	-	-	-	-	-	-	Terminate	
"Student3mode1"	"Seema_Shokoufeh_Track2"	"Nov 22, 2016 08:21:21 AM"	Unknown	70.98476	10/22/0116 08:22.36	00004259	6.820	Inter749t11-0	-0.126	LT1	2	0.000	11.111	-1.2	0.000	0.379	D	F	635.7	359.761	0.098	0.003	1499.937	1480.827	0.039	L	-0.021	-4.843	-	-	-	-	-	-	-	PAVEMENT_GENERAL	Urban	F	1011101000100001	0000000000000000	-	-	-	-	-	-	-	-	-	-	Terminate	
"Student3mode1"	"Seema_Shokoufeh_Track2"	"Nov 22, 2016 08:21:21 AM"	Unknown	71.98477	10/22/0116 08:22.37	00004319	1.839	Inter749t65-0	0.203	1	1	347.851	11.111	-1.0	0.000	0.361	D	F	477.5	359.676	0.076	-0.000	1499.914	1485.163	0.039	L	0.001	-4.656	-	-	-	-	-	-	-	PAVEMENT_GENERAL	Urban	F	1111101000100001	0000000000000000	-	-	-	-	-	-	-	-	-	-	Terminate	
"Student3mode1"	"Seema_Shokoufeh_Track2"	"Nov 22, 2016 08:21:21 AM"	Unknown	72.98479	10/22/0116 08:22.38	00004379	0.148	Inter749t65-0	0.315	1	1	346.388	11.111	-1.1	0.000	0.057	D	F	477.5	359.664	0.234	-0.000	1499.910	1485.722	0.031	L	0.000	-0.097	-	-	-	-	-	-	-	PAVEMENT_GENERAL	Urban	F	1011101000100001	0000000000000000	-	-	-	-	-	-	-	-	-	-	Terminate	
"Student3mode1"	"Seema_Shokoufeh_Track2"	"Nov 22, 2016 08:21:21 AM"	Unknown	73.98481	10/22/0116 08:22.39	00004439	0.308	Inter749t65-0	0.360	1	1	345.843	11.111	-1.9	0.002	0.000	D	F	477.5	359.656	0.207	0.000	1499.909	1485.932	0.026	L	-0.000	0.181	-	-	-	-	-	-	-	PAVEMENT_GENERAL	Urban	F	1011101000100001	0000000000000000	-	-	-	-	-	-	-	-	-	-	Terminate	
"Student3mode1"	"Seema_Shokoufeh_Track2"	"Nov 22, 2016 08:21:21 AM"	Unknown	74.98483	10/22/0116 08:22.40	00004499	2.481	Inter749t65-0	0.628	1	1	343.110	11.111	-23.3	0.168	0.000	D	F	1475.0	359.381	0.211	0.018	1499.892	1487.065	0.014	L	-0.131	2.902	-	-	-	-	-	-	-	PAVEMENT_GENERAL	Urban	F	1011101000100001	0000000000000000	-	-	-	-	-	-	-	-	-	-	Terminate	
"Student3mode1"	"Seema_Shokoufeh_Track2"	"Nov 22, 2016 08:21:21 AM"	Unknown	75.98486	10/22/0116 08:22.41	00004559	5.026	Inter749t65-0	1.708	1	1	335.096	11.111	-72.5	0.196	0.000	D	F	1846.0	355.571	0.228	0.105	1499.648	1490.865	0.015	L	-0.758	2.335	-	-	-	-	-	-	-	PAVEMENT_GENERAL	Urban	F	1011101000100001	0000000000000000	-	-	-	-	-	-	-	-	-	-	Terminate	
"Student3mode1"	"Seema_Shokoufeh_Track2"	"Nov 22, 2016 08:21:21 AM"	Unknown	76.98487	10/22/0116 08:22.42	00004619	6.306	-Inter749t59-0	-0.087	-1	1	89.733	11.111	-235.3	0.039	0.000	D	F	1263.4	338.310	0.184	0.453	1498.151	1496.495	0.025	L	-3.311	0.063	-	-	-	-	-	-	-	PAVEMENT_GENERAL	Urban	F	1111101000100001	0000000000000000	-	-	-	-	-	-	-	-	-	-	Terminate	
"Student3mode1"	"Seema_Shokoufeh_Track2"	"Nov 22, 2016 08:21:21 AM"	Unknown	77.98489	10/22/0116 08:22.43	00004679	6.804	-Inter749t85-0	-1.113	-1	1	179.883	11.111	-198.5	0.168	0.000	D	F	1596.8	310.177	0.181	0.396	1493.936	1501.266	0.022	L	-3.068	0.889	-	-	-	Ambient275	4.564	31.055	-	PAVEMENT_GENERAL	Urban	F	1111101000100001	0000000000000000	-	-	-	-	-	-	-	-	-	-	Terminate	
"Student3mode1"	"Seema_Shokoufeh_Track2"	"Nov 22, 2016 08:21:21 AM"	Unknown	78.98492	10/22/0116 08:22.44	00004739	7.734	Inter749t65-0	1.771	1	1	291.765	11.111	-133.2	0.152	0.000	D	F	1631.6	284.674	0.182	0.318	1487.270	1504.077	0.023	L	-2.566	0.781	-	-	-	Ambient257	13.690	105.879	-	PAVEMENT_GENERAL	Urban	F	1011101000100001	0000000000000000	-	-	-	-	-	-	-	-	-	-	Terminate	
"Student3mode1"	"Seema_Shokoufeh_Track2"	"Nov 22, 2016 08:21:21 AM"	Unknown	79.98493	10/22/0116 08:22.45	00004799	8.106	Inter749t3-3	1.231	1	2	270.000	11.111	-46.8	0.139	0.000	D	F	1446.0	271.158	0.199	0.122	1479.377	1504.762	0.024	L	-0.973	0.534	-	-	-	Ambient257	13.336	108.107	-	PAVEMENT_GENERAL	Urban	F	1011101000100001	0000000000000000	-	-	-	-	-	-	-	-	-	-	Terminate	
"Student3mode1"	"Seema_Shokoufeh_Track2"	"Nov 22, 2016 08:21:21 AM"	Unknown	80.98495	10/22/0116 08:22.46	00004859	8.988	Inter749t3-3	0.955	1	2	270.000	11.111	0.6	0.196	0.000	D	F	1802.3	267.241	0.211	-0.004	1470.890	1504.486	0.021	-	-0.004	1.094	-	-	-	Ambient257	12.756	114.653	-	PAVEMENT_GENERAL	Urban	F	1011101000000001	0000000000000000	-	-	-	-	-	-	-	-	-	-	Terminate	
"Student3mode1"	"Seema_Shokoufeh_Track2"	"Nov 22, 2016 08:21:21 AM"	Unknown	81.98497	10/22/0116 08:22.47	00004919	10.082	Inter749t19-0	0.565	1	1	270.080	11.111	10.6	0.206	0.000	D	F	1932.1	268.316	0.210	-0.038	1461.361	1504.102	0.021	-	0.307	1.067	-	-	-	-	-	-	-	PAVEMENT_GENERAL	Urban	F	1111101000000001	0000000000000000	-	-	-	-	-	-	-	-	-	-	Terminate	
"Student3mode1"	"Seema_Shokoufeh_Track2"	"Nov 22, 2016 08:21:21 AM"	Unknown	82.98499	10/22/0116 08:22.48	00004979	11.105	Inter749t19-0	0.395	1	1	270.113	11.111	3.7	0.219	0.000	D	F	2052.3	269.667	0.210	-0.019	1450.767	1503.943	0.022	-	0.149	1.053	-	-	-	-	-	-	-	PAVEMENT_GENERAL	Urban	F	1011101000000001	0000000000000000	-	-	-	-	-	-	-	-	-	-	Terminate	
"Student3mode1"	"Seema_Shokoufeh_Track2"	"Nov 22, 2016 08:21:21 AM"	Unknown	83.98502	10/22/0116 08:22.49	00005039	12.131	Inter749t19-0	0.372	1	1	270.078	11.111	1.0	0.229	0.000	D	F	2169.1	270.213	0.208	-0.008	1439.143	1503.943	0.022	-	0.054	0.994	-	-	-	-	-	-	-	PAVEMENT_GENERAL	Urban	F	1111101000000001	0000000000000000	-	-	-	-	-	-	-	-	-	-	Terminate	
"Student3mode1"	"Seema_Shokoufeh_Track2"	"Nov 22, 2016 08:21:21 AM"	Unknown	84.98503	10/22/0116 08:22.50	00005099	13.097	Inter749t19-0	0.394	1	1	270.061	11.111	-2.1	0.233	0.000	D	F	2281.0	270.054	0.207	0.009	1426.524	1503.984	0.022	-	-0.089	0.944	-	-	-	-	-	-	-	PAVEMENT_GENERAL	Urban	F	1111101000000001	0000000000000000	-	-	-	-	-	-	-	-	-	-	Terminate	
"Student3mode1"	"Seema_Shokoufeh_Track2"	"Nov 22, 2016 08:21:21 AM"	Unknown	85.98505	10/22/0116 08:22.51	00005159	14.018	Inter749t1-2	0.371	1	2	270.000	11.111	-2.0	0.226	0.000	D	F	2402.2	269.927	0.205	0.009	1412.961	1503.971	0.022	-	-0.045	0.890	-	-	-	-	-	-	-	PAVEMENT_GENERAL	Urban	F	1011101000000001	0000000000000000	-	-	-	-	-	-	-	-	-	-	Terminate	
"Student3mode1"	"Seema_Shokoufeh_Track2"	"Nov 22, 2016 08:21:21 AM"	Unknown	86.98507	10/22/0116 08:22.52	00005219	14.854	Inter747t1-2	0.294	1	2	270.000	11.111	0.5	0.228	0.000	D	F	1984.8	269.532	0.201	-0.001	1398.505	1503.901	0.023	-	-0.020	0.681	-	-	-	-	-	-	-	PAVEMENT_GENERAL	Urban	F	1011101000000001	0000000000000000	-	-	-	-	-	-	-	-	-	-	Terminate	
"Student3mode1"	"Seema_Shokoufeh_Track2"	"Nov 22, 2016 08:21:21 AM"	Unknown	87.98509	10/22/0116 08:22.53	00005279	15.489	Inter747t1-2	0.182	1	2	270.000	11.111	1.6	0.233	0.000	D	F	1975.9	269.666	0.200	-0.010	1383.329	1503.789	0.024	-	0.075	0.612	-	-	-	-	-	-	-	PAVEMENT_GENERAL	Urban	F	1011101000000001	0000000000000000	-	-	-	-	-	-	-	-	-	-	Terminate	
"Student3mode1"	"Seema_Shokoufeh_Track2"	"Nov 22, 2016 08:21:21 AM"	Unknown	88.98512	10/22/0116 08:22.54	00005339	16.080	Inter747t1-2	0.133	1	2	270.000	11.111	-0.9	0.231	0.000	D	F	2002.4	269.972	0.199	0.003	1367.541	1503.739	0.024	-	0.007	0.572	-	-	-	-	-	-	-	PAVEMENT_GENERAL	Urban	F	1011101000000001	0000000000000000	-	-	-	-	-	-	-	-	-	-	Terminate	
"Student3mode1"	"Seema_Shokoufeh_Track2"	"Nov 22, 2016 08:21:21 AM"	Unknown	89.98513	10/22/0116 08:22.55	00005399	16.631	Inter747t1-2	0.090	1	2	270.000	11.111	0.8	0.228	0.000	D	F	2024.3	269.736	0.198	-0.003	1351.182	1503.697	0.024	-	-0.000	0.530	-	-	-	-	-	-	-	PAVEMENT_GENERAL	Urban	F	1011101000000001	0000000000000000	-	-	-	-	-	-	-	-	-	-	Terminate	
"Student3mode1"	"Seema_Shokoufeh_Track2"	"Nov 22, 2016 08:21:21 AM"	Unknown	90.98515	10/22/0116 08:22.56	00005459	17.139	Inter747t1-2	0.049	1	2	270.000	11.111	2.1	0.228	0.000	D	F	2049.3	270.048	0.197	-0.016	1334.294	1503.656	0.024	-	0.119	0.492	-	-	-	-	-	-	-	PAVEMENT_GENERAL	Urban	F	1011101000000001	0000000000000000	-	-	-	-	-	-	-	-	-	-	Terminate	
"Student3mode1"	"Seema_Shokoufeh_Track2"	"Nov 22, 2016 08:21:21 AM"	Unknown	91.98518	10/22/0116 08:22.57	00005519	17.615	Inter747t1-2	0.126	1	2	270.000	11.111	-0.5	0.226	0.000	D	F	2072.0	270.452	0.196	-0.004	1316.915	1503.733	0.024	-	0.028	0.463	-	-	-	-	-	-	-	PAVEMENT_GENERAL	Urban	F	1011101000000001	0000000000000000	-	-	-	-	-	-	-	-	-	-	Terminate	
"Student3mode1"	"Seema_Shokoufeh_Track2"	"Nov 22, 2016 08:21:21 AM"	Unknown	92.98519	10/22/0116 08:22.58	00005579	18.065	Inter747t1-2	0.239	1	2	270.000	11.111	-1.1	0.224	0.000	D	F	2106.6	270.239	0.195	0.009	1299.073	1503.845	0.025	-	-0.073	0.440	-	-	-	-	-	-	-	PAVEMENT_GENERAL	Urban	F	1111101000000001	0000000000000000	-	-	-	-	-	-	-	-	-	-	Terminate	
"Student3mode1"	"Seema_Shokoufeh_Track2"	"Nov 22, 2016 08:21:21 AM"	Unknown	93.98521	10/22/0116 08:22.59	00005639	18.498	Inter747t1-2	0.268	1	2	270.000	11.111	-2.8	0.224	0.000	D	F	2136.7	269.869	0.194	0.020	1280.790	1503.875	0.025	-	-0.151	0.424	-	-	-	-	-	-	-	PAVEMENT_GENERAL	Urban	F	1011101000000001	0000000000000000	-	-	-	-	-	-	-	-	-	-	Terminate	
"Student3mode1"	"Seema_Shokoufeh_Track2"	"Nov 22, 2016 08:21:21 AM"	Unknown	94.98523	10/22/0116 08:23.00	00005699	18.167	Inter747t1-2	0.183	1	2	270.000	11.111	-0.7	0.000	0.000	D	F	1263.1	269.740	0.183	-0.003	1262.375	1503.790	0.029	-	0.017	-0.571	-	-	-	-	-	-	-	PAVEMENT_GENERAL	Urban	F	1011101000000001	0000000000000000	-	-	-	-	-	-	-	-	-	-	Terminate	
"Student3mode1"	"Seema_Shokoufeh_Track2"	"Nov 22, 2016 08:21:21 AM"	Unknown	95.98525	10/22/0116 08:23.01	00005759	17.661	Inter747t1-2	0.092	1	2	270.000	11.111	1.0	0.058	0.000	D	F	1351.7	269.692	0.188	-0.006	1244.476	1503.699	0.029	-	0.025	-0.365	-	-	-	-	-	-	-	PAVEMENT_GENERAL	Urban	F	1111101000000001	0000000000000000	-	-	-	-	-	-	-	-	-	-	Terminate	
"Student3mode1"	"Seema_Shokoufeh_Track2"	"Nov 22, 2016 08:21:21 AM"	Unknown	96.98528	10/22/0116 08:23.02	00005819	17.516	Inter747t1-2	0.013	1	2	270.000	11.111	-0.2	0.141	0.000	D	F	1607.3	269.736	0.192	0.002	1226.920	1503.620	0.027	-	-0.022	0.037	-	-	-	-	-	-	-	PAVEMENT_GENERAL	Urban	F	1011101000000001	0000000000000000	-	-	-	-	-	-	-	-	-	-	Terminate	
"Student3mode1"	"Seema_Shokoufeh_Track2"	"Nov 22, 2016 08:21:21 AM"	Unknown	97.98529	10/22/0116 08:23.03	00005879	17.555	Inter747t1-2	-0.062	1	2	270.000	11.111	0.9	0.139	0.000	D	F	1595.1	269.831	0.191	-0.007	1209.380	1503.545	0.026	-	0.054	0.021	-	-	-	-	-	-	-	PAVEMENT_GENERAL	Urban	F	1011101000000001	0000000000000000	-	-	-	-	-	-	-	-	-	-	Terminate	
"Student3mode1"	"Seema_Shokoufeh_Track2"	"Nov 22, 2016 08:21:21 AM"	Unknown	98.98531	10/22/0116 08:23.04	00005939	17.580	Inter748t1-2	-0.103	1	2	270.000	11.111	-0.3	0.141	0.000	D	F	1604.5	269.833	0.192	0.006	1191.813	1503.504	0.026	-	-0.035	0.035	-	-	-	-	-	-	-	PAVEMENT_GENERAL	Urban	F	1011101000000001	0000000000000000	-	-	-	-	-	-	-	-	-	-	Terminate	
"Student3mode1"	"Seema_Shokoufeh_Track2"	"Nov 22, 2016 08:21:21 AM"	Unknown	99.98534	10/22/0116 08:23.05	00005999	17.611	Inter748t1-2	-0.154	1	2	270.000	11.111	0.3	0.143	0.000	D	F	1606.6	269.846	0.192	-0.002	1174.219	1503.452	0.026	-	0.017	0.034	-	-	-	-	-	-	-	PAVEMENT_GENERAL	Urban	F	1011101000000001	0000000000000000	-	-	-	-	-	-	-	-	-	-	Terminate	
"Student3mode1"	"Seema_Shokoufeh_Track2"	"Nov 22, 2016 08:21:21 AM"	Unknown	100.98535	10/22/0116 08:23.06	00006059	17.645	Inter748t1-2	-0.197	1	2	270.000	11.111	-0.8	0.141	0.000	D	F	1609.1	269.869	0.191	0.002	1156.591	1503.410	0.026	-	-0.018	0.034	-	-	-	-	-	-	-	PAVEMENT_GENERAL	Urban	F	1111101000000001	0000000000000000	-	-	-	-	-	-	-	-	-	-	Terminate	
"Student3mode1"	"Seema_Shokoufeh_Track2"	"Nov 22, 2016 08:21:21 AM"	Unknown	101.98537	10/22/0116 08:23.07	00006119	17.281	Inter748t1-2	-0.248	1	2	270.000	11.111	0.3	0.000	0.000	D	F	1178.0	269.843	0.185	-0.003	1139.063	1503.359	0.029	-	0.021	-0.554	-	-	-	-	-	-	-	PAVEMENT_GENERAL	Urban	F	1011101000000001	0000000000000000	-	-	-	-	-	-	-	-	-	-	Terminate	
"Student3mode1"	"Seema_Shokoufeh_Track2"	"Nov 22, 2016 08:21:21 AM"	Unknown	102.98539	10/22/0116 08:23.08	00006179	16.917	Inter748t1-2	-0.281	1	2	270.000	11.111	1.0	0.106	0.000	D	F	1487.3	269.953	0.189	-0.008	1122.017	1503.326	0.027	-	0.050	-0.091	-	-	-	-	-	-	-	PAVEMENT_GENERAL	Urban	F	1011101000000001	0000000000000000	-	-	-	-	-	-	-	-	-	-	Terminate	
"Student3mode1"	"Seema_Shokoufeh_Track2"	"Nov 22, 2016 08:21:21 AM"	Unknown	103.98541	10/22/0116 08:23.09	00006239	16.911	Inter748t1-2	-0.277	1	2	270.000	11.111	-0.3	0.127	0.000	D	F	1545.2	270.016	0.192	0.001	1105.106	1503.330	0.027	-	-0.021	-0.001	-	-	-	-	-	-	-	PAVEMENT_GENERAL	Urban	F	1011101000000001	0000000000000000	-	-	-	-	-	-	-	-	-	-	Terminate	
"Student3mode1"	"Seema_Shokoufeh_Track2"	"Nov 22, 2016 08:21:21 AM"	Unknown	104.98544	10/22/0116 08:23.10	00006299	16.918	Inter748t1-2	-0.268	1	2	270.000	11.111	0.5	0.129	0.000	D	F	1552.5	270.080	0.192	-0.005	1088.192	1503.339	0.027	-	0.034	0.009	-	-	-	-	-	-	-	PAVEMENT_GENERAL	Urban	F	1011101000000001	0000000000000000	-	-	-	-	-	-	-	-	-	-	Terminate	
"Student3mode1"	"Seema_Shokoufeh_Track2"	"Nov 22, 2016 08:21:21 AM"	Unknown	105.98545	10/22/0116 08:23.11	00006359	16.871	Inter748t1-2	-0.231	1	2	270.000	11.111	0.4	0.005	0.000	D	F	1123.8	270.188	0.178	-0.004	1071.273	1503.375	0.027	-	0.033	-0.485	-	-	-	-	-	-	-	PAVEMENT_GENERAL	Urban	F	1011101000000001	0000000000000000	-	-	-	-	-	-	-	-	-	-	Terminate	
"Student3mode1"	"Seema_Shokoufeh_Track2"	"Nov 22, 2016 08:21:21 AM"	Unknown	106.98547	10/22/0116 08:23.12	00006419	16.369	Inter748t1-2	-0.167	1	2	270.000	11.111	-0.3	0.030	0.000	D	F	1205.9	270.246	0.189	-0.000	1054.664	1503.439	0.029	-	-0.003	-0.414	-	-	-	-	-	-	-	PAVEMENT_GENERAL	Urban	F	1111101000000001	0000000000000000	-	-	-	-	-	-	-	-	-	-	Terminate	
"Student3mode1"	"Seema_Shokoufeh_Track2"	"Nov 22, 2016 08:21:21 AM"	Unknown	107.98550	10/22/0116 08:23.13	00006479	16.181	Inter748t1-2	-0.116	1	2	270.000	11.111	0.5	0.111	0.000	D	F	1483.0	270.098	0.193	-0.002	1038.431	1503.491	0.027	-	-0.004	-0.032	-	-	-	-	-	-	-	PAVEMENT_GENERAL	Urban	F	1011101000000001	0000000000000000	-	-	-	-	-	-	-	-	-	-	Terminate	
"Student3mode1"	"Seema_Shokoufeh_Track2"	"Nov 22, 2016 08:21:21 AM"	Unknown	108.98551	10/22/0116 08:23.14	00006539	16.134	Inter748t1-2	-0.076	1	2	270.000	11.111	1.8	0.106	0.000	D	F	1474.8	270.216	0.193	-0.010	1022.273	1503.531	0.027	-	0.071	-0.033	-	-	-	-	-	-	-	PAVEMENT_GENERAL	Urban	F	1011101000000001	0000000000000000	-	-	-	-	-	-	-	-	-	-	Terminate	
"Student3mode1"	"Seema_Shokoufeh_Track2"	"Nov 22, 2016 08:21:21 AM"	Unknown	109.98553	10/22/0116 08:23.15	00006599	16.078	Inter748t1-2	0.040	1	2	270.000	11.111	-0.0	0.102	0.000	D	F	1453.5	270.611	0.193	-0.002	1006.167	1503.647	0.027	-	0.038	-0.059	-	-	-	-	-	-	-	PAVEMENT_GENERAL	Urban	F	1111101000000001	0000000000000000	-	-	-	-	-	-	-	-	-	-	Terminate	
"Student3mode1"	"Seema_Shokoufeh_Track2"	"Nov 22, 2016 08:21:21 AM"	Unknown	110.98555	10/22/0116 08:23.16	00006659	16.021	Inter752t1-2	-0.482	1	2	269.953	24.444	-4.3	0.104	0.000	D	F	1451.9	270.410	-0.004	-0.175	990.125	1503.811	0.069	-	-0.215	-0.066	-	-	-	-	-	-	-	FREEWAY_SMOOTH	Urban	F	1011101000000001	0000000000000000	-	-	-	-	-	-	-	-	-	-	Terminate	
"Student3mode1"	"Seema_Shokoufeh_Track2"	"Nov 22, 2016 08:21:21 AM"	Unknown	111.98557	10/22/0116 08:23.17	00006719	16.012	Inter752t1-2	-0.422	1	2	269.483	24.444	-2.7	0.108	0.000	D	F	1474.5	269.539	0.294	-0.580	974.114	1503.802	0.065	-	-0.217	0.022	-	-	-	-	-	-	-	FREEWAY_SMOOTH	Urban	F	1111101000000001	0000000000000000	-	-	-	-	-	-	-	-	-	-	Terminate	
"Student3mode1"	"Seema_Shokoufeh_Track2"	"Nov 22, 2016 08:21:21 AM"	Unknown	112.98560	10/22/0116 08:23.18	00006779	16.056	Inter752t1-2	-0.406	1	2	268.567	24.444	-4.8	0.111	0.000	D	F	1479.0	268.566	0.293	-0.959	958.085	1503.548	0.092	-	-0.351	0.040	-	-	-	-	-	-	-	FREEWAY_SMOOTH	Urban	F	1011101000000001	0000000000000000	-	-	-	-	-	-	-	-	-	-	Terminate	
"Student3mode1"	"Seema_Shokoufeh_Track2"	"Nov 22, 2016 08:21:21 AM"	Unknown	113.98561	10/22/0116 08:23.19	00006839	16.106	Inter752t1-2	-0.398	1	2	267.181	24.444	-6.4	0.122	0.000	D	F	1508.4	267.282	0.289	-1.351	942.018	1502.959	0.119	-	-0.425	0.062	-	-	-	-	-	-	-	FREEWAY_SMOOTH	Urban	F	1011101000000001	0000000000000000	-	-	-	-	-	-	-	-	-	-	Terminate	
"Student3mode1"	"Seema_Shokoufeh_Track2"	"Nov 22, 2016 08:21:21 AM"	Unknown	114.98563	10/22/0116 08:23.20	00006899	16.179	Inter752t1-2	-0.381	1	2	265.334	24.444	-8.8	0.125	0.000	D	F	1522.2	265.280	0.290	-1.727	925.910	1501.914	0.146	-	-0.634	0.077	-	-	-	-	-	-	-	FREEWAY_SMOOTH	Urban	F	1011101000000001	0000000000000000	-	-	-	-	-	-	-	-	-	-	Terminate	
"Student3mode1"	"Seema_Shokoufeh_Track2"	"Nov 22, 2016 08:21:21 AM"	Unknown	115.98566	10/22/0116 08:23.21	00006959	16.255	Inter752t1-2	-0.392	1	2	262.995	24.444	-10.3	0.127	0.000	D	F	1527.5	262.941	0.293	-2.115	909.781	1500.243	0.173	-	-0.739	0.085	-	-	-	-	-	-	-	FREEWAY_SMOOTH	Urban	F	1011101000000001	0000000000000000	-	-	-	-	-	-	-	-	-	-	Terminate	
"Student3mode1"	"Seema_Shokoufeh_Track2"	"Nov 22, 2016 08:21:21 AM"	Unknown	116.98567	10/22/0116 08:23.22	00007019	16.379	Inter752t1-2	-0.414	1	2	260.195	24.444	-12.4	0.141	0.000	D	F	1561.5	260.028	0.287	-2.496	893.647	1497.822	0.199	-	-0.911	0.125	-	-	-	-	-	-	-	FREEWAY_SMOOTH	Urban	F	1111101000000001	0000000000000000	-	-	-	-	-	-	-	-	-	-	Terminate	
"Student3mode1"	"Seema_Shokoufeh_Track2"	"Nov 22, 2016 08:21:21 AM"	Unknown	117.98569	10/22/0116 08:23.23	00007079	16.505	Inter752t1-2	-0.448	1	2	256.887	24.444	-11.5	0.145	0.000	D	F	1579.8	256.848	0.280	-2.904	877.545	1494.502	0.224	-	-0.900	0.137	-	-	-	-	-	-	-	FREEWAY_SMOOTH	Urban	F	1011101000000001	0000000000000000	-	-	-	-	-	-	-	-	-	-	Terminate	
"Student3mode1"	"Seema_Shokoufeh_Track2"	"Nov 22, 2016 08:21:21 AM"	Unknown	118.98571	10/22/0116 08:23.24	00007139	16.637	Inter752t1-2	-0.404	1	2	253.109	24.444	-16.2	0.136	0.000	D	F	1566.8	253.268	0.305	-3.274	861.534	1490.228	0.254	-	-1.197	0.118	-	-	-	-	-	-	-	FREEWAY_SMOOTH	Urban	F	1011101000000001	0000000000000000	-	-	-	-	-	-	-	-	-	-	Terminate	
"Student3mode1"	"Seema_Shokoufeh_Track2"	"Nov 22, 2016 08:21:21 AM"	Unknown	119.98573	10/22/0116 08:23.25	00007199	16.231	Inter752t1-2	-0.394	1	2	249.015	24.444	-15.0	0.026	0.000	D	F	1170.5	248.619	0.167	-3.343	845.961	1484.845	0.265	-	-1.299	-0.465	-	-	-	-	-	-	-	FREEWAY_SMOOTH	Urban	F	1011101000000001	0000000000000000	-	-	-	-	-	-	-	-	-	-	Terminate	
"Student3mode1"	"Seema_Shokoufeh_Track2"	"Nov 22, 2016 08:21:21 AM"	Unknown	120.98576	10/22/0116 08:23.26	00007259	16.097	Inter752t1-2	-0.483	1	2	244.934	24.444	-14.5	0.111	0.000	D	F	1475.3	244.595	0.178	-3.364	831.171	1478.413	0.257	-	-1.112	-0.026	-	-	-	-	-	-	-	FREEWAY_SMOOTH	Urban	F	1011101000000001	0000000000000000	-	-	-	-	-	-	-	-	-	-	Terminate	
"Student3mode1"	"Seema_Shokoufeh_Track2"	"Nov 22, 2016 08:21:21 AM"	Unknown	121.98577	10/22/0116 08:23.27	00007319	16.091	Inter752t1-2	-0.538	1	2	240.902	24.444	-13.7	0.122	0.000	D	F	1505.3	240.862	0.199	-3.380	816.888	1471.003	0.254	-	-1.016	0.012	-	-	-	-	-	-	-	FREEWAY_SMOOTH	Urban	F	1011101000000001	0000000000000000	-	-	-	-	-	-	-	-	-	-	Terminate	
"Student3mode1"	"Seema_Shokoufeh_Track2"	"Nov 22, 2016 08:21:21 AM"	Unknown	122.98579	10/22/0116 08:23.28	00007379	16.071	Inter752t1-2	-0.515	1	2	236.871	24.444	-15.6	0.011	0.000	D	F	1112.1	236.942	0.196	-3.355	803.119	1462.675	0.255	-	-1.186	-0.289	-	-	-	-	-	-	-	FREEWAY_SMOOTH	Urban	F	1011101000000001	0000000000000000	-	-	-	-	-	-	-	-	-	-	Terminate	
"Student3mode1"	"Seema_Shokoufeh_Track2"	"Nov 22, 2016 08:21:21 AM"	Unknown	123.98581	10/22/0116 08:23.29	00007439	15.635	Inter752t1-2	-0.541	1	2	232.909	24.444	-14.2	0.118	0.000	D	F	1493.5	232.652	0.184	-3.371	790.217	1453.525	0.255	-	-1.078	-0.056	-	-	-	-	-	-	-	FREEWAY_SMOOTH	Urban	F	1011101000000001	0000000000000000	-	-	-	-	-	-	-	-	-	-	Terminate	
"Student3mode1"	"Seema_Shokoufeh_Track2"	"Nov 22, 2016 08:21:21 AM"	Unknown	124.98583	10/22/0116 08:23.30	00007499	15.614	Inter752t1-2	-0.591	1	2	229.022	24.444	-14.7	0.108	0.000	D	F	1455.9	228.915	0.193	-3.374	778.138	1443.614	0.251	-	-1.032	-0.023	-	-	-	-	-	-	-	FREEWAY_SMOOTH	Urban	F	1011101000000001	0000000000000000	-	-	-	-	-	-	-	-	-	-	Terminate	
"Student3mode1"	"Seema_Shokoufeh_Track2"	"Nov 22, 2016 08:21:21 AM"	Unknown	125.98586	10/22/0116 08:23.31	00007559	15.669	Inter752t1-2	-0.608	1	2	225.080	24.444	-13.9	0.145	0.000	D	F	1554.0	225.048	0.202	-3.377	766.737	1432.922	0.249	-	-1.031	0.099	-	-	-	-	-	-	-	FREEWAY_SMOOTH	Urban	F	1011101000000001	0000000000000000	-	-	-	-	-	-	-	-	-	-	Terminate	
"Student3mode1"	"Seema_Shokoufeh_Track2"	"Nov 22, 2016 08:21:21 AM"	Unknown	126.98587	10/22/0116 08:23.32	00007619	15.812	Inter752t1-2	-0.583	1	2	221.132	24.444	-14.5	0.155	0.000	D	F	1586.4	221.340	0.219	-3.373	755.991	1421.421	0.250	-	-1.044	0.142	-	-	-	-	-	-	-	FREEWAY_SMOOTH	Urban	F	1011101000000001	0000000000000000	-	-	-	-	-	-	-	-	-	-	Terminate	
"Student3mode1"	"Seema_Shokoufeh_Track2"	"Nov 22, 2016 08:21:21 AM"	Unknown	127.98589	10/22/0116 08:23.33	00007679	15.958	Inter752t1-2	-0.519	1	2	217.150	24.444	-15.9	0.152	0.000	D	F	1586.9	217.332	0.210	-3.360	745.943	1409.117	0.254	-	-1.149	0.139	-	-	-	-	-	-	-	FREEWAY_SMOOTH	Urban	F	1011101000000001	0000000000000000	-	-	-	-	-	-	-	-	-	-	Terminate	
"Student3mode1"	"Seema_Shokoufeh_Track2"	"Nov 22, 2016 08:21:21 AM"	Unknown	128.98592	10/22/0116 08:23.34	00007739	16.106	Inter752t1-2	-0.493	1	2	213.135	24.444	-15.2	0.153	0.000	D	F	1595.3	213.097	0.199	-3.362	736.725	1396.002	0.256	-	-1.154	0.150	-	-	-	-	-	-	-	FREEWAY_SMOOTH	Urban	F	1111101000000001	0000000000000000	-	-	-	-	-	-	-	-	-	-	Terminate	
"Student3mode1"	"Seema_Shokoufeh_Track2"	"Nov 22, 2016 08:21:21 AM"	Unknown	129.98593	10/22/0116 08:23.35	00007799	16.236	Inter752t1-2	-0.499	1	2	209.092	24.444	-15.6	0.152	0.000	D	F	1591.5	208.967	0.191	-3.357	728.408	1382.135	0.255	-	-1.179	0.131	-	-	-	-	-	-	-	FREEWAY_SMOOTH	Urban	F	1011101000000001	0000000000000000	-	-	-	-	-	-	-	-	-	-	Terminate	
"Student3mode1"	"Seema_Shokoufeh_Track2"	"Nov 22, 2016 08:21:21 AM"	Unknown	130.98595	10/22/0116 08:23.36	00007859	16.364	Inter752t1-2	-0.534	1	2	205.026	24.444	-14.9	0.032	0.000	D	F	1335.8	204.812	0.181	-3.362	721.061	1367.583	0.253	-	-1.156	0.033	-	-	-	-	-	-	-	FREEWAY_SMOOTH	Urban	F	1111101000000001	0000000000000000	-	-	-	-	-	-	-	-	-	-	Terminate	
"Student3mode1"	"Seema_Shokoufeh_Track2"	"Nov 22, 2016 08:21:21 AM"	Unknown	131.98598	10/22/0116 08:23.37	00007919	16.035	Inter752t1-2	-0.584	1	2	200.947	24.444	-13.9	0.152	0.000	D	F	1568.4	200.733	0.186	-3.368	714.838	1352.681	0.251	-	-1.085	0.060	-	-	-	-	-	-	-	FREEWAY_SMOOTH	Urban	F	1111101000000001	0000000000000000	-	-	-	-	-	-	-	-	-	-	Terminate	
"Student3mode1"	"Seema_Shokoufeh_Track2"	"Nov 22, 2016 08:21:21 AM"	Unknown	132.98599	10/22/0116 08:23.38	00007979	16.114	Inter752t1-2	-0.599	1	2	196.944	24.444	-11.5	0.138	0.000	D	F	1558.8	197.079	0.085	-3.295	709.667	1337.450	0.246	-	-0.921	0.019	-	-	-	-	-	-	-	FREEWAY_SMOOTH	Urban	F	1011101000000001	0000000000000000	-	-	-	-	-	-	-	-	-	-	Terminate	
"Student3mode1"	"Seema_Shokoufeh_Track2"	"Nov 22, 2016 08:21:21 AM"	Unknown	133.98601	10/22/0116 08:23.39	00008039	16.141	Inter752t1-2	-0.491	1	2	193.231	24.444	-16.3	0.139	0.000	D	F	1558.6	193.614	0.123	-2.862	705.410	1321.894	0.225	-	-1.113	0.030	-	-	-	-	-	-	-	FREEWAY_SMOOTH	Urban	F	1111101000000001	0000000000000000	-	-	-	-	-	-	-	-	-	-	Terminate	
"Student3mode1"	"Seema_Shokoufeh_Track2"	"Nov 22, 2016 08:21:21 AM"	Unknown	134.98604	10/22/0116 08:23.40	00008099	16.187	Inter752t1-2	-0.448	1	2	189.981	24.444	-13.0	0.141	0.000	D	F	1565.6	189.858	0.097	-2.487	702.162	1306.066	0.201	-	-0.954	0.057	-	-	-	-	-	-	-	FREEWAY_SMOOTH	Urban	F	1111101000000001	0000000000000000	-	-	-	-	-	-	-	-	-	-	Terminate	
"Student3mode1"	"Seema_Shokoufeh_Track2"	"Nov 22, 2016 08:21:21 AM"	Unknown	135.98605	10/22/0116 08:23.41	00008159	15.829	Inter752t1-2	-0.508	1	2	187.167	24.444	-8.4	0.085	0.000	D	F	1381.8	186.841	0.091	-2.131	699.872	1290.203	0.173	-	-0.671	-0.214	-	-	-	-	-	-	-	FREEWAY_SMOOTH	Urban	F	1011101000000001	0000000000000000	-	-	-	-	-	-	-	-	-	-	Terminate	
"Student3mode1"	"Seema_Shokoufeh_Track2"	"Nov 22, 2016 08:21:21 AM"	Unknown	136.98607	10/22/0116 08:23.42	00008219	15.783	Inter752t1-2	-0.571	1	2	184.860	24.444	-5.7	0.138	0.000	D	F	1540.8	184.732	0.103	-1.757	698.310	1274.492	0.144	-	-0.480	0.035	-	-	-	-	-	-	-	FREEWAY_SMOOTH	Urban	F	1011101000000001	0000000000000000	-	-	-	-	-	-	-	-	-	-	Terminate	
"Student3mode1"	"Seema_Shokoufeh_Track2"	"Nov 22, 2016 08:21:21 AM"	Unknown	137.98610	10/22/0116 08:23.43	00008279	15.830	Inter752t1-2	-0.525	1	2	182.995	24.444	-4.3	0.150	0.000	D	F	1564.2	183.480	0.117	-1.386	697.207	1258.725	0.120	-	-0.322	0.058	-	-	-	-	-	-	-	FREEWAY_SMOOTH	Urban	F	1111101000000001	0000000000000000	-	-	-	-	-	-	-	-	-	-	Terminate	
"Student3mode1"	"Seema_Shokoufeh_Track2"	"Nov 22, 2016 08:21:21 AM"	Unknown	138.98611	10/22/0116 08:23.44	00008339	15.722	Inter752t1-2	-0.375	1	2	181.581	24.444	-8.9	0.095	0.000	D	F	1411.1	182.051	0.102	-0.965	696.447	1242.928	0.099	-	-0.499	-0.217	-	-	-	-	-	-	-	FREEWAY_SMOOTH	Urban	F	1011101000000001	0000000000000000	-	-	-	-	-	-	-	-	-	-	Terminate	
"Student3mode1"	"Seema_Shokoufeh_Track2"	"Nov 22, 2016 08:21:21 AM"	Unknown	139.98613	10/22/0116 08:23.45	00008399	15.693	Inter752t1-2	-0.351	1	2	180.618	24.444	-3.6	0.143	0.000	D	F	1539.9	180.445	0.093	-0.607	696.140	1227.237	0.071	-	-0.261	0.026	-	-	-	-	-	-	-	FREEWAY_SMOOTH	Urban	F	1011101000000001	0000000000000000	-	-	-	-	-	-	-	-	-	-	Terminate	
"Student3mode1"	"Seema_Shokoufeh_Track2"	"Nov 22, 2016 08:21:21 AM"	Unknown	140.98616	10/22/0116 08:23.46	00008459	15.738	Inter752t1-2	-0.420	1	2	180.101	24.444	-1.1	0.141	0.000	D	F	1545.4	179.819	0.093	-0.238	696.125	1211.521	0.044	-	-0.071	0.049	-	-	-	-	-	-	-	FREEWAY_SMOOTH	Urban	F	1011101000000001	0000000000000000	-	-	-	-	-	-	-	-	-	-	Terminate	
"Student3mode1"	"Seema_Shokoufeh_Track2"	"Nov 22, 2016 08:21:21 AM"	Unknown	141.98618	10/22/0116 08:23.47	00008519	15.841	Inter754t3-2	0.205	1	2	180.000	11.111	-1.6	0.171	0.000	D	F	1636.1	179.814	0.212	0.005	696.188	1195.751	0.025	-	-0.031	0.247	-	-	-	-	-	-	-	PAVEMENT_GENERAL	Urban	F	1111101000000001	0000000000000000	-	-	-	-	-	-	-	-	-	-	Terminate	
"Student3mode1"	"Seema_Shokoufeh_Track2"	"Nov 22, 2016 08:21:21 AM"	Unknown	142.98619	10/22/0116 08:23.48	00008579	16.091	Inter754t3-2	0.117	1	2	180.000	11.111	-0.7	0.185	0.000	D	F	1680.6	179.555	0.197	0.007	696.276	1179.789	0.025	-	-0.053	0.272	-	-	-	-	-	-	-	PAVEMENT_GENERAL	Urban	F	1111101000000001	0000000000000000	-	-	-	-	-	-	-	-	-	-	Terminate	
"Student3mode1"	"Seema_Shokoufeh_Track2"	"Nov 22, 2016 08:21:21 AM"	Unknown	143.98621	10/22/0116 08:23.49	00008639	16.371	Inter754t3-2	0.003	1	2	180.000	11.111	0.5	0.175	0.000	D	F	1665.0	179.714	0.195	-0.004	696.390	1163.557	0.025	-	0.051	0.255	-	-	-	Ambient371	3.880	63.528	12.056	PAVEMENT_GENERAL	Urban	F	1111101000000001	0000000000000000	-	-	-	-	-	-	-	-	-	-	Terminate	
"Student3mode1"	"Seema_Shokoufeh_Track2"	"Nov 22, 2016 08:21:21 AM"	Unknown	144.98624	10/22/0116 08:23.50	00008699	16.101	Inter754t3-2	-0.050	1	2	180.000	11.111	0.8	0.000	0.000	D	F	1098.1	179.979	0.186	-0.012	696.444	1147.232	0.029	-	0.084	-0.546	-	-	-	Ambient371	3.621	58.306	11.664	PAVEMENT_GENERAL	Urban	F	1011101000000001	0000000000000000	-	-	-	-	-	-	-	-	-	-	Terminate	
"Student3mode1"	"Seema_Shokoufeh_Track2"	"Nov 22, 2016 08:21:21 AM"	Unknown	145.98625	10/22/0116 08:23.51	00008759	15.558	Inter754t3-2	-0.047	1	2	180.000	11.111	-0.5	0.000	0.000	D	F	1061.1	180.036	0.189	0.003	696.440	1131.403	0.029	-	-0.012	-0.539	-	-	-	Ambient371	3.444	53.581	12.024	PAVEMENT_GENERAL	Urban	F	1011101000000001	0000000000000000	-	-	-	-	-	-	-	-	-	-	Terminate	
"Student3mode1"	"Seema_Shokoufeh_Track2"	"Nov 22, 2016 08:21:21 AM"	Unknown	146.98627	10/22/0116 08:23.52	00008819	15.281	Inter754t3-2	-0.043	1	2	180.000	11.111	-0.2	0.099	0.000	D	F	1410.2	179.987	0.193	0.002	696.436	1116.027	0.027	-	-0.013	-0.070	-	-	-	Ambient371	3.227	49.308	11.799	PAVEMENT_GENERAL	Urban	F	1011101000000001	0000000000000000	-	-	-	-	-	-	-	-	-	-	Terminate	
"Student3mode1"	"Seema_Shokoufeh_Track2"	"Nov 22, 2016 08:21:21 AM"	Unknown	147.98630	10/22/0116 08:23.53	00008879	15.175	Inter754t3-2	-0.056	1	2	180.000	11.111	0.2	0.000	0.000	D	F	991.8	179.925	0.183	-0.001	696.450	1100.776	0.027	-	0.005	-0.488	-	-	-	Ambient371	2.820	42.800	10.509	PAVEMENT_GENERAL	Urban	F	1111101000000001	0000000000000000	-	-	-	-	-	-	-	-	-	-	Terminate	
"Student3mode1"	"Seema_Shokoufeh_Track2"	"Nov 22, 2016 08:21:21 AM"	Unknown	148.98631	10/22/0116 08:23.54	00008939	14.680	Inter754t9-0	-0.082	1	1	179.991	11.111	-0.8	0.016	0.000	D	F	1071.8	179.793	0.192	0.010	696.476	1085.861	0.029	-	-0.058	-0.396	-	-	-	Ambient371	2.817	41.347	11.558	PAVEMENT_GENERAL	Urban	F	1011101000000001	0000000000000000	-	-	-	-	-	-	-	-	-	-	Terminate	
"Student3mode1"	"Seema_Shokoufeh_Track2"	"Nov 22, 2016 08:21:21 AM"	Unknown	149.98633	10/22/0116 08:23.55	00008999	14.166	Inter754t9-0	-0.140	1	1	179.989	11.111	1.5	0.000	0.000	D	F	966.1	179.812	0.190	-0.012	696.536	1071.434	0.029	-	0.074	-0.522	-	-	-	Ambient371	2.515	35.627	11.629	PAVEMENT_GENERAL	Urban	F	1011101000000001	0000000000000000	-	-	-	-	-	-	-	-	-	-	Terminate	
"Student3mode1"	"Seema_Shokoufeh_Track2"	"Nov 22, 2016 08:21:21 AM"	Unknown	150.98636	10/22/0116 08:23.56	00009059	13.647	Inter754t9-0	-0.146	1	1	179.990	11.111	-0.2	0.000	0.000	D	F	930.7	180.064	0.191	-0.001	696.544	1057.528	0.029	-	0.004	-0.515	-	-	-	Ambient371	2.575	35.140	13.806	PAVEMENT_GENERAL	Urban	F	1011101000000001	0000000000000000	-	-	-	-	-	-	-	-	-	-	Terminate	
"Student3mode1"	"Seema_Shokoufeh_Track2"	"Nov 22, 2016 08:21:21 AM"	Unknown	151.98637	10/22/0116 08:23.57	00009119	13.135	Inter754t9-0	-0.130	1	1	179.993	11.111	-0.3	0.000	0.000	D	F	896.0	180.017	0.192	0.002	696.531	1044.137	0.029	-	-0.022	-0.509	-	-	-	Ambient371	2.505	32.898	16.181	PAVEMENT_GENERAL	Urban	F	1011101000000001	0000000000000000	-	-	-	-	-	-	-	-	-	-	Terminate	
"Student3mode1"	"Seema_Shokoufeh_Track2"	"Nov 22, 2016 08:21:21 AM"	Unknown	152.98639	10/22/0116 08:23.58	00009179	12.740	Inter754t9-0	-0.132	1	1	179.996	11.111	0.5	0.053	0.000	D	F	1355.2	179.955	0.194	-0.001	696.535	1031.228	0.028	-	0.008	-0.229	-	-	-	Ambient371	2.443	31.123	19.003	PAVEMENT_GENERAL	Urban	F	1011101000000001	0000000000000000	-	-	-	-	-	-	-	-	-	-	Terminate	
"Student3mode1"	"Seema_Shokoufeh_Track2"	"Nov 22, 2016 08:21:21 AM"	Unknown	153.98642	10/22/0116 08:23.59	00009239	12.340	Inter754t1-1	-0.135	1	1	180.000	11.111	0.1	0.005	0.000	D	F	1212.4	179.999	0.192	-0.000	696.539	1018.650	0.029	-	0.003	-0.508	-	-	-	Ambient371	2.403	29.655	23.958	PAVEMENT_GENERAL	Urban	F	1111101000000001	0000000000000000	-	-	-	-	-	-	-	-	-	-	Terminate	
"Student3mode1"	"Seema_Shokoufeh_Track2"	"Nov 22, 2016 08:21:21 AM"	Unknown	154.98643	10/22/0116 08:24.00	00009299	12.091	Inter754t1-1	-0.135	1	1	180.000	11.111	-0.4	0.060	0.000	D	F	1331.5	179.983	0.195	0.003	696.538	1006.452	0.027	-	-0.015	-0.201	-	-	-	Ambient371	2.362	28.560	28.880	PAVEMENT_GENERAL	Urban	F	1111101000000001	0000000000000000	-	-	-	-	-	-	-	-	-	-	Terminate	
"Student3mode1"	"Seema_Shokoufeh_Track2"	"Nov 22, 2016 08:21:21 AM"	Unknown	155.98645	10/22/0116 08:24.01	00009359	11.973	Inter686t1-0	-0.161	1	1	180.000	11.111	-1.2	0.065	0.000	D	F	1362.5	179.829	0.197	0.006	696.557	994.425	0.027	-	-0.045	-0.104	-	-	-	Ambient371	2.308	27.637	31.746	PAVEMENT_GENERAL	Urban	F	1011101000000001	0000000000000000	-	-	-	-	-	-	-	-	-	-	Terminate	
"Student3mode1"	"Seema_Shokoufeh_Track2"	"Nov 22, 2016 08:21:21 AM"	Unknown	156.98647	10/22/0116 08:24.02	00009419	11.884	Inter686t1-0	-0.207	1	1	180.000	11.111	0.3	0.069	0.000	D	F	1368.0	179.778	0.198	-0.001	696.603	982.500	0.027	-	0.009	-0.067	-	-	-	Ambient371	2.256	26.815	34.306	PAVEMENT_GENERAL	Urban	F	1011101000000001	0000000000000000	-	-	-	-	-	-	-	-	-	-	Terminate	
"Student3mode1"	"Seema_Shokoufeh_Track2"	"Nov 22, 2016 08:21:21 AM"	Unknown	157.98650	10/22/0116 08:24.03	00009479	11.486	Inter686t1-0	-0.247	1	1	180.000	11.111	0.6	0.046	0.000	D	F	1254.2	179.830	0.196	-0.002	696.643	970.798	0.028	-	0.017	-0.323	-	-	-	Ambient371	2.282	26.217	68.326	PAVEMENT_GENERAL	Urban	F	1011101000000001	0000000000000000	-	-	-	-	-	-	-	-	-	-	Terminate	
"Student3mode1"	"Seema_Shokoufeh_Track2"	"Nov 22, 2016 08:21:21 AM"	Unknown	158.98651	10/22/0116 08:24.04	00009539	11.346	Inter686t1-0	-0.275	1	1	180.000	11.111	-0.2	0.071	0.000	D	F	1322.8	179.861	0.199	0.001	696.672	959.388	0.027	-	-0.005	-0.107	-	-	-	Ambient371	2.284	25.910	106.225	PAVEMENT_GENERAL	Urban	F	1011101000000001	0000000000000000	-	-	-	-	-	-	-	-	-	-	Terminate	
"Student3mode1"	"Seema_Shokoufeh_Track2"	"Nov 22, 2016 08:21:21 AM"	Unknown	159.98653	10/22/0116 08:24.05	00009599	11.317	Inter686t1-0	-0.313	1	1	180.000	11.111	-0.0	0.078	0.000	D	F	1368.0	179.737	0.199	-0.000	696.709	948.062	0.026	-	-0.013	0.001	-	-	-	Ambient371	2.270	25.688	119.790	PAVEMENT_GENERAL	Urban	F	1111101000000001	0000000000000000	-	-	-	-	-	-	-	-	-	-	Terminate	
"Student3mode1"	"Seema_Shokoufeh_Track2"	"Nov 22, 2016 08:21:21 AM"	Unknown	160.98656	10/22/0116 08:24.06	00009659	11.350	Inter686t1-0	-0.359	1	1	180.000	11.111	1.3	0.086	0.000	D	F	1394.9	179.803	0.200	-0.006	696.755	936.731	0.026	-	0.035	0.044	-	-	-	Ambient371	2.243	25.460	102.606	PAVEMENT_GENERAL	Urban	F	1011101000000001	0000000000000000	-	-	-	-	-	-	-	-	-	-	Terminate	
"Student3mode1"	"Seema_Shokoufeh_Track2"	"Nov 22, 2016 08:21:21 AM"	Unknown	161.98657	10/22/0116 08:24.07	00009719	11.403	Inter686t1-0	-0.375	1	1	180.000	11.111	0.3	0.085	0.000	D	F	1404.7	179.971	0.199	-0.001	696.771	925.358	0.026	-	0.009	0.063	-	-	-	Ambient371	2.209	25.190	83.838	PAVEMENT_GENERAL	Urban	F	1111101000000001	0000000000000000	-	-	-	-	-	-	-	-	-	-	Terminate	
"Student3mode1"	"Seema_Shokoufeh_Track2"	"Nov 22, 2016 08:21:21 AM"	Unknown	162.98659	10/22/0116 08:24.08	00009779	11.074	Inter686t1-0	-0.366	1	1	180.000	11.111	1.3	0.106	0.000	D	F	1403.9	180.165	0.203	-0.007	696.762	914.102	0.028	-	0.050	-0.075	-	-	-	Ambient371	2.261	25.038	-	PAVEMENT_GENERAL	Urban	F	1011101000000001	0000000000000000	-	-	-	-	-	-	-	-	-	-	Terminate	
"Student3mode1"	"Seema_Shokoufeh_Track2"	"Nov 22, 2016 08:21:21 AM"	Unknown	163.98662	10/22/0116 08:24.09	00009839	11.208	Inter686t1-0	-0.319	1	1	180.000	11.111	-0.7	0.111	0.000	D	F	1486.2	180.242	0.202	0.002	696.715	902.971	0.026	-	-0.021	0.213	-	-	-	Ambient371	2.231	25.010	235.974	PAVEMENT_GENERAL	Urban	F	1011101000000001	0000000000000000	-	-	-	-	-	-	-	-	-	-	Terminate	
"Student3mode1"	"Seema_Shokoufeh_Track2"	"Nov 22, 2016 08:21:21 AM"	Unknown	164.98663	10/22/0116 08:24.10	00009899	11.442	Inter686t1-0	-0.290	1	1	180.000	11.111	-2.1	0.116	0.000	D	F	1507.1	180.034	0.201	0.012	696.686	891.647	0.025	-	-0.070	0.240	-	-	-	Ambient371	2.167	24.790	73.043	PAVEMENT_GENERAL	Urban	F	1011101000000001	0000000000000000	-	-	-	-	-	-	-	-	-	-	Terminate	
"Student3mode1"	"Seema_Shokoufeh_Track2"	"Nov 22, 2016 08:21:21 AM"	Unknown	165.98665	10/22/0116 08:24.11	00009959	11.683	Inter686t1-0	-0.307	1	1	180.000	11.111	-0.0	0.111	0.000	D	F	1499.2	179.843	0.199	0.002	696.703	880.083	0.025	-	-0.011	0.196	-	-	-	Ambient371	2.083	24.330	41.898	PAVEMENT_GENERAL	Urban	F	1011101000000001	0000000000000000	-	-	-	-	-	-	-	-	-	-	Terminate	
"Student3mode1"	"Seema_Shokoufeh_Track2"	"Nov 22, 2016 08:21:21 AM"	Unknown	166.98668	10/22/0116 08:24.12	00010019	11.825	Inter686t1-0	-0.334	1	1	180.000	11.111	-0.1	0.129	0.000	D	F	1547.4	179.911	0.206	-0.002	696.730	868.316	0.026	-	0.006	0.203	-	-	-	Ambient371	2.001	23.666	32.733	PAVEMENT_GENERAL	Urban	F	1011101000000001	0000000000000000	-	-	-	-	-	-	-	-	-	-	Terminate	
