"Name"	"Project"	"Time"	ZoneName	Time	SystemTime	Frame	Velocity	LaneName	LanePos	LaneIndex	LaneCount	LaneHeading	SpeedLimit	Steer	Accel	Brake	Gear	Horn	SubjectEngineRPM	SubjectHeading	SubjectPitch	SubjectRoll	SubjectX	SubjectY	SubjectZ	Signal	LatAccel	LongAccel	Collision	CollisionAngle	CollisionVelocity	VehAhead	HeadwayTime	HeadwayDist	TTC	TerrainType	CultureType	Slip	DigitalInputs	DigitalInputs2	ActiveTrigger	EntityName	DistToEntity	TimeToEntity	EntityVelocity	EntityAccel	EntityHeading	EntityX	EntityY	EntityZ	GrabData	
"student5mode3"	"Tanvi_6"	"Nov 28, 2016 05:53:28 AM"	Unknown	0.98335	10/28/0116 05:53.32	00000059	0.002	Inter625t13-0	-0.088	1	2	0.000	11.111	-0.0	0.000	0.000	P	F	0.0	0.000	0.153	0.000	1503.500	523.206	0.019	-	0.000	0.000	-	-	-	-	-	-	-	PAVEMENT_GENERAL	Urban	F	1011101000001001	0000000000000000	-	car	928.855	774731.312	0.000	0.000	180.000	696.000	987.000	-0.000	Terminate	
"student5mode3"	"Tanvi_6"	"Nov 28, 2016 05:53:28 AM"	Unknown	1.98337	10/28/0116 05:53.33	00000119	0.001	Inter625t13-0	-0.088	1	2	0.000	11.111	-0.0	0.000	0.513	P	F	0.0	0.000	0.195	-0.000	1503.500	523.208	0.026	-	-0.000	-0.003	-	-	-	-	-	-	-	PAVEMENT_GENERAL	Urban	F	1111101000001001	0000000000000000	-	car	928.854	3084916.000	0.000	0.000	180.000	696.000	987.000	-0.000	Terminate	
"student5mode3"	"Tanvi_6"	"Nov 28, 2016 05:53:28 AM"	Unknown	2.98339	10/28/0116 05:53.34	00000179	0.000	Inter625t13-0	-0.088	1	2	0.000	11.111	-0.0	0.000	0.000	P	F	0.0	0.000	0.204	-0.000	1503.500	523.208	0.027	-	0.000	-0.000	-	-	-	-	-	-	-	PAVEMENT_GENERAL	Urban	F	1011101000001001	0000000000000000	-	car	928.854	9340183.000	0.000	0.000	180.000	696.000	987.000	-0.000	Terminate	
"student5mode3"	"Tanvi_6"	"Nov 28, 2016 05:53:28 AM"	Unknown	3.98341	10/28/0116 05:53.35	00000239	0.000	Inter625t13-0	-0.088	1	2	0.000	11.111	-0.0	0.000	0.725	P	F	5.6	0.000	0.207	-0.000	1503.500	523.208	0.027	-	-0.000	-0.000	-	-	-	-	-	-	-	PAVEMENT_GENERAL	Urban	F	1011101000001011	0000000000000000	-	car	928.854	24403688.000	0.000	0.000	180.000	696.000	987.000	-0.000	Terminate	
"student5mode3"	"Tanvi_6"	"Nov 28, 2016 05:53:28 AM"	Unknown	4.98343	10/28/0116 05:53.36	00000299	0.000	Inter625t13-0	-0.088	1	2	0.000	11.111	-0.0	0.000	0.725	P	F	338.9	0.000	0.208	-0.000	1503.500	523.208	0.028	-	0.000	-0.000	-	-	-	-	-	-	-	PAVEMENT_GENERAL	Urban	F	1011101000001011	0000000000000000	-	car	928.854	62365536.000	0.000	0.000	180.000	696.000	987.000	-0.000	Terminate	
"student5mode3"	"Tanvi_6"	"Nov 28, 2016 05:53:28 AM"	Unknown	5.98345	10/28/0116 05:53.37	00000359	0.000	Inter625t13-0	-0.088	1	2	0.000	11.111	-0.0	0.000	0.687	P	F	477.5	0.000	0.208	-0.000	1503.500	523.208	0.028	-	-0.000	-0.000	-	-	-	-	-	-	-	PAVEMENT_GENERAL	Urban	F	1011101000001001	0000000000000000	-	car	928.854	158322256.000	0.000	0.000	180.000	696.000	987.000	-0.000	Terminate	
"student5mode3"	"Tanvi_6"	"Nov 28, 2016 05:53:28 AM"	Unknown	6.98347	10/28/0116 05:53.38	00000419	0.000	Inter625t13-0	-0.088	1	2	0.000	11.111	-0.0	0.000	0.672	P	F	477.5	0.000	0.208	-0.000	1503.500	523.208	0.028	-	0.000	-0.000	-	-	-	-	-	-	-	PAVEMENT_GENERAL	Urban	F	1011101000001001	0000000000000000	-	car	928.854	402496544.000	0.000	0.000	180.000	696.000	987.000	-0.000	Terminate	
"student5mode3"	"Tanvi_6"	"Nov 28, 2016 05:53:28 AM"	Unknown	7.98349	10/28/0116 05:53.39	00000479	0.000	Inter625t13-0	-0.088	1	2	0.000	11.111	-0.0	0.000	0.669	P	F	477.5	0.000	0.208	-0.000	1503.500	523.208	0.028	-	0.000	-0.000	-	-	-	-	-	-	-	PAVEMENT_GENERAL	Urban	F	1011101000001001	0000000000000000	-	car	928.854	-	0.000	0.000	180.000	696.000	987.000	-0.000	Terminate	
"student5mode3"	"Tanvi_6"	"Nov 28, 2016 05:53:28 AM"	Unknown	8.98351	10/28/0116 05:53.40	00000539	0.000	Inter625t13-0	-0.088	1	2	0.000	11.111	-0.0	0.000	0.648	D	F	477.5	0.000	0.209	-0.000	1503.500	523.208	0.028	-	-0.000	-0.000	-	-	-	-	-	-	-	PAVEMENT_GENERAL	Urban	F	1011101000001001	0000000000000000	-	car	928.854	-	0.000	0.000	180.000	696.000	987.000	-0.000	Terminate	
"student5mode3"	"Tanvi_6"	"Nov 28, 2016 05:53:28 AM"	Unknown	9.98353	10/28/0116 05:53.41	00000599	0.000	Inter625t13-0	-0.088	1	2	0.000	11.111	-0.0	0.000	0.600	D	F	477.5	0.000	0.209	-0.000	1503.500	523.208	0.028	-	-0.000	-0.000	-	-	-	-	-	-	-	PAVEMENT_GENERAL	Urban	F	1011101000001001	0000000000000000	-	car	928.854	-	0.000	0.000	180.000	696.000	987.000	-0.000	Terminate	
"student5mode3"	"Tanvi_6"	"Nov 28, 2016 05:53:28 AM"	Unknown	10.98355	10/28/0116 05:53.42	00000659	0.000	Inter625t13-0	-0.088	1	2	0.000	11.111	0.4	0.000	0.006	D	F	477.5	0.000	0.209	-0.000	1503.500	523.208	0.028	-	0.000	0.000	-	-	-	-	-	-	-	PAVEMENT_GENERAL	Urban	F	1011101000001001	0000000000000000	-	car	928.854	918818112.000	0.000	0.000	180.000	696.000	987.000	-0.000	Terminate	
"student5mode3"	"Tanvi_6"	"Nov 28, 2016 05:53:28 AM"	Unknown	11.98357	10/28/0116 05:53.43	00000719	0.022	Inter625t13-0	-0.088	1	2	0.000	11.111	0.2	0.034	0.000	D	F	775.3	0.000	0.211	0.000	1503.500	523.211	0.026	-	-0.000	0.132	-	-	-	-	-	-	-	PAVEMENT_GENERAL	Urban	F	1011101000001001	0000000000000000	-	car	928.853	85198.805	0.000	0.000	180.000	696.000	987.000	-0.000	Terminate	
"student5mode3"	"Tanvi_6"	"Nov 28, 2016 05:53:28 AM"	Unknown	12.98359	10/28/0116 05:53.44	00000779	1.169	Inter625t13-0	-0.087	1	2	0.000	11.111	5.4	0.081	0.000	D	F	1132.3	0.036	0.233	-0.001	1503.501	523.562	0.017	-	0.012	2.119	-	-	-	-	-	-	-	PAVEMENT_GENERAL	Urban	F	1011101000001001	0000000000000000	-	car	928.679	1597.982	0.000	0.000	180.000	696.000	987.000	-0.000	Terminate	
"student5mode3"	"Tanvi_6"	"Nov 28, 2016 05:53:28 AM"	Unknown	13.98361	10/28/0116 05:53.45	00000839	3.175	Inter625t13-0	-0.077	1	2	0.000	11.111	1.4	0.109	0.000	D	F	1397.9	0.206	0.217	-0.001	1503.511	525.742	0.017	-	0.004	1.882	-	-	-	-	-	-	-	PAVEMENT_GENERAL	Urban	F	1011101000001001	0000000000000000	-	car	927.605	592.762	0.000	0.000	180.000	696.000	987.000	-0.000	Terminate	
"student5mode3"	"Tanvi_6"	"Nov 28, 2016 05:53:28 AM"	Unknown	14.98363	10/28/0116 05:53.46	00000899	4.662	Inter625t13-0	-0.061	1	2	0.000	11.111	0.6	0.111	0.000	D	F	1561.4	0.223	0.212	0.000	1503.527	529.715	0.020	-	0.003	1.211	-	-	-	-	-	-	-	PAVEMENT_GENERAL	Urban	F	1011101000001001	0000000000000000	-	car	925.654	405.726	0.000	0.000	180.000	696.000	987.000	-0.000	Terminate	
"student5mode3"	"Tanvi_6"	"Nov 28, 2016 05:53:28 AM"	Unknown	15.98365	10/28/0116 05:53.47	00000959	5.766	Inter625t49-0	-0.038	1	1	0.005	11.111	-0.0	0.118	0.000	D	F	1509.9	0.246	0.209	0.001	1503.550	534.933	0.021	-	0.003	1.051	-	-	-	-	-	-	-	PAVEMENT_GENERAL	Urban	F	1011101000001001	0000000000000000	-	car	923.114	330.256	0.000	0.000	180.000	696.000	987.000	-0.000	Terminate	
"student5mode3"	"Tanvi_6"	"Nov 28, 2016 05:53:28 AM"	Unknown	16.98367	10/28/0116 05:53.48	00001019	6.655	Inter625t49-0	-0.020	1	1	0.006	11.111	-1.5	0.127	0.000	D	F	1489.2	0.100	0.211	0.006	1503.568	541.160	0.022	-	-0.022	0.838	-	-	-	-	-	-	-	PAVEMENT_GENERAL	Urban	F	1011101000001001	0000000000000000	-	car	920.105	286.972	0.000	0.000	180.000	696.000	987.000	-0.000	Terminate	
"student5mode3"	"Tanvi_6"	"Nov 28, 2016 05:53:28 AM"	Unknown	17.98369	10/28/0116 05:53.49	00001079	7.545	Inter625t49-0	-0.003	1	1	0.008	11.111	0.8	0.153	0.000	D	F	1616.8	0.260	0.212	-0.003	1503.587	548.251	0.022	-	0.011	0.940	-	-	-	-	-	-	-	PAVEMENT_GENERAL	Urban	F	1011101000001001	0000000000000000	-	car	916.714	256.673	0.000	0.000	180.000	696.000	987.000	-0.000	Terminate	
"student5mode3"	"Tanvi_6"	"Nov 28, 2016 05:53:28 AM"	Unknown	18.98371	10/28/0116 05:53.50	00001139	8.502	Inter625t49-0	0.039	1	1	0.007	11.111	0.7	0.176	0.000	D	F	1747.9	0.325	0.212	-0.002	1503.629	556.271	0.022	-	0.015	1.007	-	-	-	-	-	-	-	PAVEMENT_GENERAL	Urban	F	1011101000001001	0000000000000000	-	car	912.951	230.631	0.000	0.000	180.000	696.000	987.000	-0.000	Terminate	
"student5mode3"	"Tanvi_6"	"Nov 28, 2016 05:53:28 AM"	Unknown	19.98373	10/28/0116 05:53.51	00001199	9.509	Inter625t49-0	0.092	1	1	0.005	11.111	-0.8	0.187	0.000	D	F	1837.9	0.328	0.209	0.003	1503.684	565.283	0.022	-	-0.021	0.954	-	-	-	-	-	-	-	PAVEMENT_GENERAL	Urban	F	1011101000001001	0000000000000000	-	car	908.793	208.776	0.000	0.000	180.000	696.000	987.000	-0.000	Terminate	
"student5mode3"	"Tanvi_6"	"Nov 28, 2016 05:53:28 AM"	Unknown	20.98375	10/28/0116 05:53.52	00001259	10.420	Inter625t49-0	0.133	1	1	0.005	11.111	-0.4	0.189	0.000	D	F	1916.5	0.180	0.208	0.001	1503.725	575.253	0.022	-	-0.014	0.875	-	-	-	-	-	-	-	PAVEMENT_GENERAL	Urban	F	1011101000001001	0000000000000000	-	car	904.258	192.264	0.000	0.000	180.000	696.000	987.000	-0.000	Terminate	
"student5mode3"	"Tanvi_6"	"Nov 28, 2016 05:53:28 AM"	Unknown	21.98377	10/28/0116 05:53.53	00001319	11.249	Inter625t15-0	0.156	1	2	0.000	11.111	-0.7	0.190	0.000	D	F	2005.9	0.058	0.207	0.003	1503.749	586.094	0.023	-	-0.027	0.798	-	-	-	-	-	-	-	PAVEMENT_GENERAL	Urban	F	1011101000001001	0000000000000000	-	car	899.408	180.206	0.000	0.000	180.000	696.000	987.000	-0.000	Terminate	
"student5mode3"	"Tanvi_6"	"Nov 28, 2016 05:53:28 AM"	Unknown	22.98379	10/28/0116 05:53.54	00001379	12.000	Inter625t15-0	0.154	1	2	0.000	11.111	-0.7	0.180	0.000	D	F	1885.7	359.918	0.207	0.004	1503.747	597.724	0.023	-	-0.031	0.744	-	-	-	-	-	-	-	PAVEMENT_GENERAL	Urban	F	1011101000001001	0000000000000000	-	car	894.296	171.158	0.000	0.000	180.000	696.000	987.000	-0.000	Terminate	
"student5mode3"	"Tanvi_6"	"Nov 28, 2016 05:53:28 AM"	Unknown	23.98381	10/28/0116 05:53.55	00001439	12.546	Inter614t1-0	0.124	1	2	0.000	11.111	-0.1	0.182	0.000	D	F	1729.0	359.815	0.204	0.001	1503.717	610.010	0.024	-	-0.008	0.541	-	-	-	-	-	-	-	PAVEMENT_GENERAL	Urban	F	1011101000001001	0000000000000000	-	car	889.003	166.384	0.000	0.000	180.000	696.000	987.000	-0.000	Terminate	
"student5mode3"	"Tanvi_6"	"Nov 28, 2016 05:53:28 AM"	Unknown	24.98383	10/28/0116 05:53.56	00001499	13.097	Inter614t1-0	0.092	1	2	0.000	11.111	0.2	0.189	0.000	D	F	1768.9	359.909	0.203	-0.002	1503.685	622.834	0.024	-	0.016	0.543	-	-	-	-	-	-	-	PAVEMENT_GENERAL	Urban	F	1011101000001001	0000000000000000	-	car	883.627	163.565	0.000	0.000	180.000	696.000	987.000	-0.000	Terminate	
"student5mode3"	"Tanvi_6"	"Nov 28, 2016 05:53:28 AM"	Unknown	25.98385	10/28/0116 05:53.57	00001559	13.633	Inter614t1-0	0.079	1	2	0.000	11.111	0.3	0.190	0.000	D	F	1801.6	0.000	0.202	-0.002	1503.672	636.201	0.024	-	0.017	0.527	-	-	-	-	-	-	-	PAVEMENT_GENERAL	Urban	F	1011101000001001	0000000000000000	-	car	878.206	161.661	0.000	0.000	180.000	696.000	987.000	-0.000	Terminate	
"student5mode3"	"Tanvi_6"	"Nov 28, 2016 05:53:28 AM"	Unknown	26.98387	10/28/0116 05:53.58	00001619	14.148	Inter614t1-0	0.085	1	2	0.000	11.111	0.4	0.192	0.000	D	F	1827.1	0.061	0.201	-0.003	1503.678	650.093	0.024	-	0.018	0.499	-	-	-	-	-	-	-	PAVEMENT_GENERAL	Urban	F	1011101000001001	0000000000000000	-	car	872.769	160.648	0.000	0.000	180.000	696.000	987.000	-0.000	Terminate	
"student5mode3"	"Tanvi_6"	"Nov 28, 2016 05:53:28 AM"	Unknown	27.98389	10/28/0116 05:53.59	00001679	14.610	Inter614t1-0	0.107	1	2	0.000	11.111	-0.5	0.182	0.000	D	F	1823.4	0.099	0.199	0.000	1503.700	664.479	0.024	-	-0.012	0.421	-	-	-	-	-	-	-	PAVEMENT_GENERAL	Urban	F	1011101000001001	0000000000000000	-	car	867.353	160.788	0.000	0.000	180.000	696.000	987.000	-0.000	Terminate	
"student5mode3"	"Tanvi_6"	"Nov 28, 2016 05:53:28 AM"	Unknown	28.98391	10/28/0116 05:54.00	00001739	14.980	Inter614t1-0	0.127	1	2	0.000	11.111	-0.1	0.175	0.000	D	F	1826.2	0.084	0.198	-0.000	1503.720	679.279	0.025	-	0.001	0.356	-	-	-	-	-	-	-	PAVEMENT_GENERAL	Urban	F	1011101000001001	0000000000000000	-	car	861.993	162.254	0.000	0.000	180.000	696.000	987.000	-0.000	Terminate	
"student5mode3"	"Tanvi_6"	"Nov 28, 2016 05:53:28 AM"	Unknown	29.98393	10/28/0116 05:54.01	00001799	15.314	Inter614t1-0	0.138	1	2	0.000	11.111	-0.4	0.175	0.000	D	F	1833.8	0.000	0.197	0.003	1503.732	694.428	0.025	-	-0.029	0.322	-	-	-	-	-	-	-	PAVEMENT_GENERAL	Urban	F	1011101000001001	0000000000000000	-	car	856.727	164.097	0.000	0.000	180.000	696.000	987.000	-0.000	Terminate	
"student5mode3"	"Tanvi_6"	"Nov 28, 2016 05:53:28 AM"	Unknown	30.98395	10/28/0116 05:54.02	00001859	15.601	Inter614t1-0	0.123	1	2	0.000	11.111	0.1	0.164	0.000	D	F	1826.5	359.917	0.196	0.000	1503.716	709.891	0.025	-	0.000	0.258	-	-	-	-	-	-	-	PAVEMENT_GENERAL	Urban	F	1011101000001001	0000000000000000	-	car	851.569	167.493	0.000	0.000	180.000	696.000	987.000	-0.000	Terminate	
"student5mode3"	"Tanvi_6"	"Nov 28, 2016 05:53:28 AM"	Unknown	31.98397	10/28/0116 05:54.03	00001919	15.850	Inter614t1-0	0.103	1	2	0.000	11.111	-0.2	0.159	0.000	D	F	1831.7	359.936	0.195	0.001	1503.696	725.620	0.025	-	-0.003	0.216	-	-	-	-	-	-	-	PAVEMENT_GENERAL	Urban	F	1011101000001001	0000000000000000	-	car	846.577	172.879	0.000	0.000	180.000	696.000	987.000	-0.000	Terminate	
"student5mode3"	"Tanvi_6"	"Nov 28, 2016 05:53:28 AM"	Unknown	32.98399	10/28/0116 05:54.04	00001979	16.063	Inter614t1-0	0.084	1	2	0.000	11.111	0.2	0.157	0.000	D	F	1848.0	359.943	0.195	-0.002	1503.677	741.578	0.026	-	0.014	0.201	-	-	-	-	-	-	-	PAVEMENT_GENERAL	Urban	F	1011101000001001	0000000000000000	-	car	841.781	179.664	0.000	0.000	180.000	696.000	987.000	-0.000	Terminate	
"student5mode3"	"Tanvi_6"	"Nov 28, 2016 05:53:28 AM"	Unknown	33.98401	10/28/0116 05:54.05	00002039	16.264	Inter614t1-0	0.072	1	2	0.000	11.111	-0.2	0.157	0.000	D	F	1862.5	0.000	0.195	0.001	1503.665	757.742	0.026	-	-0.003	0.196	-	-	-	-	-	-	-	PAVEMENT_GENERAL	Urban	F	1011101000001001	0000000000000000	-	car	837.213	188.159	0.000	0.000	180.000	696.000	987.000	-0.000	Terminate	
"student5mode3"	"Tanvi_6"	"Nov 28, 2016 05:53:28 AM"	Unknown	34.98403	10/28/0116 05:54.06	00002099	16.456	Inter614t1-0	0.060	1	2	0.000	11.111	-0.1	0.159	0.000	D	F	1876.8	359.945	0.195	0.001	1503.653	774.102	0.026	-	-0.006	0.187	-	-	-	-	-	-	-	PAVEMENT_GENERAL	Urban	F	1011101000001001	0000000000000000	-	car	832.882	197.846	0.000	0.000	180.000	696.000	987.000	-0.000	Terminate	
"student5mode3"	"Tanvi_6"	"Nov 28, 2016 05:53:28 AM"	Unknown	35.98405	10/28/0116 05:54.07	00002159	16.642	Inter614t1-0	0.042	1	2	0.000	11.111	-0.2	0.160	0.000	D	F	1891.6	359.923	0.194	0.002	1503.635	790.651	0.026	-	-0.011	0.186	-	-	-	-	-	-	-	PAVEMENT_GENERAL	Urban	F	1011101000001001	0000000000000000	-	car	828.801	209.656	0.000	0.000	180.000	696.000	987.000	-0.000	Terminate	
"student5mode3"	"Tanvi_6"	"Nov 28, 2016 05:53:28 AM"	Unknown	36.98407	10/28/0116 05:54.08	00002219	16.824	Inter612t1-0	0.013	1	2	0.000	11.111	0.1	0.160	0.000	D	F	1904.5	359.875	0.194	0.001	1503.606	807.384	0.026	-	-0.006	0.179	-	-	-	-	-	-	-	PAVEMENT_GENERAL	Urban	F	1011101000001001	0000000000000000	-	car	824.979	223.676	0.000	0.000	180.000	696.000	987.000	-0.000	Terminate	
"student5mode3"	"Tanvi_6"	"Nov 28, 2016 05:53:28 AM"	Unknown	37.98409	10/28/0116 05:54.09	00002279	16.999	Inter612t1-0	-0.021	1	2	0.000	11.111	-0.0	0.157	0.000	D	F	1912.7	359.890	0.194	0.000	1503.573	824.297	0.026	-	-0.001	0.166	-	-	-	-	-	-	-	PAVEMENT_GENERAL	Urban	F	1011101000001001	0000000000000000	-	car	821.440	242.365	0.000	0.000	180.000	696.000	987.000	-0.000	Terminate	
"student5mode3"	"Tanvi_6"	"Nov 28, 2016 05:53:28 AM"	Unknown	38.98411	10/28/0116 05:54.10	00002339	17.155	Inter612t1-0	-0.051	1	2	0.000	11.111	0.1	0.155	0.000	D	F	1922.0	359.916	0.193	-0.001	1503.543	841.374	0.026	-	0.009	0.154	-	-	-	-	-	-	-	PAVEMENT_GENERAL	Urban	F	1011101000001001	0000000000000000	-	car	818.209	266.596	0.000	0.000	180.000	696.000	987.000	-0.000	Terminate	
"student5mode3"	"Tanvi_6"	"Nov 28, 2016 05:53:28 AM"	Unknown	39.98413	10/28/0116 05:54.11	00002399	17.302	Inter612t1-0	-0.072	1	2	0.000	11.111	0.2	0.157	0.000	D	F	1932.4	0.000	0.193	-0.001	1503.521	858.603	0.026	-	0.011	0.150	-	-	-	-	-	-	-	PAVEMENT_GENERAL	Urban	F	1011101000001001	0000000000000000	-	car	815.306	298.458	0.000	0.000	180.000	696.000	987.000	-0.000	Terminate	
"student5mode3"	"Tanvi_6"	"Nov 28, 2016 05:53:28 AM"	Unknown	40.98415	10/28/0116 05:54.12	00002459	17.447	Inter612t1-0	-0.085	1	2	0.000	11.111	-0.0	0.157	0.000	D	F	1941.2	0.000	0.193	-0.000	1503.508	875.978	0.026	-	0.001	0.142	-	-	-	-	-	-	-	PAVEMENT_GENERAL	Urban	F	1011101000001001	0000000000000000	-	car	812.745	340.443	0.000	0.000	180.000	696.000	987.000	-0.000	Terminate	
"student5mode3"	"Tanvi_6"	"Nov 28, 2016 05:53:28 AM"	Unknown	41.98417	10/28/0116 05:54.13	00002519	17.584	Inter612t1-0	-0.098	1	2	0.000	11.111	-0.2	0.157	0.000	D	F	1948.8	359.944	0.193	0.001	1503.496	893.494	0.026	-	-0.010	0.134	-	-	-	-	-	-	-	PAVEMENT_GENERAL	Urban	F	1011101000001001	0000000000000000	-	car	810.532	397.375	0.000	0.000	180.000	696.000	987.000	-0.000	Terminate	
"student5mode3"	"Tanvi_6"	"Nov 28, 2016 05:53:28 AM"	Unknown	42.98419	10/28/0116 05:54.14	00002579	17.706	Inter612t1-0	-0.122	1	2	0.000	11.111	-0.3	0.150	0.000	D	F	1951.4	359.881	0.192	0.003	1503.471	911.142	0.026	-	-0.021	0.109	-	-	-	-	-	-	-	PAVEMENT_GENERAL	Urban	F	1011101000001001	0000000000000000	-	car	808.667	477.692	0.000	0.000	180.000	696.000	987.000	-0.000	Terminate	
"student5mode3"	"Tanvi_6"	"Nov 28, 2016 05:53:28 AM"	Unknown	43.98421	10/28/0116 05:54.15	00002639	17.804	Inter612t1-0	-0.162	1	2	0.000	11.111	0.3	0.148	0.000	D	F	1959.5	359.889	0.192	-0.003	1503.431	928.897	0.026	-	0.022	0.096	-	-	-	-	-	-	-	PAVEMENT_GENERAL	Urban	F	1011101000001001	0000000000000000	-	car	807.159	615.139	0.000	0.000	180.000	696.000	987.000	-0.000	Terminate	
"student5mode3"	"Tanvi_6"	"Nov 28, 2016 05:53:28 AM"	Unknown	44.98423	10/28/0116 05:54.16	00002699	17.894	Inter612t1-0	-0.187	1	2	0.000	11.111	0.2	0.148	0.000	D	F	1965.0	0.000	0.192	-0.002	1503.406	946.748	0.026	-	0.014	0.084	-	-	-	-	-	-	-	PAVEMENT_GENERAL	Urban	F	1011101000001001	0000000000000000	-	car	806.049	890.016	0.000	0.000	180.000	696.000	987.000	-0.000	Terminate	
"student5mode3"	"Tanvi_6"	"Nov 28, 2016 05:53:28 AM"	Unknown	45.98425	10/28/0116 05:54.17	00002759	17.978	Inter612t1-0	-0.196	1	2	0.000	11.111	0.2	0.148	0.000	D	F	1973.1	0.000	0.191	-0.002	1503.397	964.684	0.026	-	0.014	0.081	-	-	-	-	-	-	-	PAVEMENT_GENERAL	Urban	F	1011101000001001	0000000000000000	-	car	805.346	1619.941	0.000	0.000	180.000	696.000	987.000	-0.000	Terminate	
"student5mode3"	"Tanvi_6"	"Nov 28, 2016 05:53:28 AM"	Unknown	46.98427	10/28/0116 05:54.18	00002819	18.058	Inter612t1-0	-0.192	1	2	0.000	11.111	0.0	0.150	0.000	D	F	1978.6	0.021	0.191	-0.000	1503.401	982.703	0.026	-	0.001	0.077	-	-	-	-	-	-	-	PAVEMENT_GENERAL	Urban	F	1011101000001001	0000000000000000	-	car	805.053	8983.726	0.000	0.000	180.000	696.000	987.000	-0.000	Terminate	
"student5mode3"	"Tanvi_6"	"Nov 28, 2016 05:53:28 AM"	Unknown	47.98429	10/28/0116 05:54.19	00002879	18.123	Inter613t1-0	-0.186	1	2	0.000	11.111	0.2	0.143	0.000	D	F	1980.9	0.024	0.191	-0.001	1503.407	1000.796	0.026	-	0.008	0.053	-	-	-	-	-	-	-	PAVEMENT_GENERAL	Urban	F	1011101000001001	0000000000000000	-	car	805.165	-2537.139	0.000	0.000	180.000	696.000	987.000	-0.000	Terminate	
"student5mode3"	"Tanvi_6"	"Nov 28, 2016 05:53:28 AM"	Unknown	48.98431	10/28/0116 05:54.20	00002939	18.171	Inter613t1-0	-0.176	1	2	0.000	11.111	-0.5	0.143	0.000	D	F	1981.7	0.009	0.191	0.004	1503.418	1018.945	0.026	-	-0.031	0.044	-	-	-	-	-	-	-	PAVEMENT_GENERAL	Urban	F	1011101000001001	0000000000000000	-	car	805.690	-1117.198	0.000	0.000	180.000	696.000	987.000	-0.000	Terminate	
"student5mode3"	"Tanvi_6"	"Nov 28, 2016 05:53:28 AM"	Unknown	49.98433	10/28/0116 05:54.21	00002999	18.212	Inter613t1-0	-0.186	1	2	0.000	11.111	-0.4	0.143	0.000	D	F	1984.4	359.919	0.190	0.003	1503.407	1037.137	0.026	-	-0.023	0.036	-	-	-	-	-	-	-	PAVEMENT_GENERAL	Urban	F	1011101000001001	0000000000000000	-	car	806.603	-731.244	0.000	0.000	180.000	696.000	987.000	-0.000	Terminate	
"student5mode3"	"Tanvi_6"	"Nov 28, 2016 05:53:28 AM"	Unknown	50.98435	10/28/0116 05:54.22	00003059	18.252	Inter613t1-0	-0.218	1	2	0.000	11.111	0.7	0.143	0.000	D	F	1990.7	359.919	0.191	-0.007	1503.375	1055.369	0.026	-	0.037	0.045	-	-	-	-	-	-	-	PAVEMENT_GENERAL	Urban	F	1011101000001001	0000000000000000	-	car	807.906	-533.488	0.000	0.000	180.000	696.000	987.000	-0.000	Terminate	
"student5mode3"	"Tanvi_6"	"Nov 28, 2016 05:53:28 AM"	Unknown	51.98437	10/28/0116 05:54.23	00003119	18.297	Inter613t1-0	-0.225	1	2	0.000	11.111	0.2	0.145	0.000	D	F	1994.3	0.035	0.191	-0.003	1503.368	1073.643	0.026	-	0.020	0.047	-	-	-	-	-	-	-	PAVEMENT_GENERAL	Urban	F	1011101000001001	0000000000000000	-	car	809.645	-412.343	0.000	0.000	180.000	696.000	987.000	-0.000	Terminate	
"student5mode3"	"Tanvi_6"	"Nov 28, 2016 05:53:28 AM"	Unknown	52.98439	10/28/0116 05:54.24	00003179	18.327	Inter613t1-0	-0.221	1	2	0.000	11.111	-0.9	0.132	0.000	D	F	1984.1	359.938	0.189	0.008	1503.372	1091.961	0.027	-	-0.058	-0.012	-	-	-	-	-	-	-	PAVEMENT_GENERAL	Urban	F	1011101000001001	0000000000000000	-	car	811.807	-346.485	0.000	0.000	180.000	696.000	987.000	-0.000	Terminate	
"student5mode3"	"Tanvi_6"	"Nov 28, 2016 05:53:28 AM"	Unknown	53.98441	10/28/0116 05:54.25	00003239	18.333	Inter613t1-0	-0.257	1	2	0.000	11.111	-0.0	0.138	0.000	D	F	1988.8	359.863	0.190	-0.000	1503.336	1110.290	0.027	-	-0.000	0.011	-	-	-	-	-	-	-	PAVEMENT_GENERAL	Urban	F	1011101000001001	0000000000000000	-	car	814.336	-298.904	0.000	0.000	180.000	696.000	987.000	-0.000	Terminate	
"student5mode3"	"Tanvi_6"	"Nov 28, 2016 05:53:28 AM"	Unknown	54.98443	10/28/0116 05:54.26	00003299	18.347	Inter613t1-0	-0.304	1	2	0.000	11.111	0.2	0.139	0.000	D	F	1990.5	359.848	0.190	-0.001	1503.289	1128.629	0.027	-	0.007	0.016	-	-	-	-	-	-	-	PAVEMENT_GENERAL	Urban	F	1011101000001001	0000000000000000	-	car	817.259	-261.755	0.000	0.000	180.000	696.000	987.000	-0.000	Terminate	
"student5mode3"	"Tanvi_6"	"Nov 28, 2016 05:53:28 AM"	Unknown	55.98445	10/28/0116 05:54.27	00003359	18.353	Inter613t1-0	-0.346	1	2	0.000	11.111	0.2	0.131	0.000	D	F	1983.9	359.892	0.189	-0.002	1503.247	1146.982	0.027	-	0.014	-0.017	-	-	-	-	-	-	-	PAVEMENT_GENERAL	Urban	F	1011101000001001	0000000000000000	-	car	820.588	-232.192	0.000	0.000	180.000	696.000	987.000	-0.000	Terminate	
"student5mode3"	"Tanvi_6"	"Nov 28, 2016 05:53:28 AM"	Unknown	56.98447	10/28/0116 05:54.28	00003419	18.340	Inter613t1-0	-0.374	1	2	0.000	11.111	0.2	0.129	0.000	D	F	1977.8	359.939	0.190	-0.002	1503.219	1165.330	0.027	-	0.013	-0.026	-	-	-	-	-	-	-	PAVEMENT_GENERAL	Urban	F	1011101000001001	0000000000000000	-	car	824.323	-209.372	0.000	0.000	180.000	696.000	987.000	-0.000	Terminate	
"student5mode3"	"Tanvi_6"	"Nov 28, 2016 05:53:28 AM"	Unknown	57.98449	10/28/0116 05:54.29	00003479	18.323	Inter613t1-0	-0.389	1	2	0.000	11.111	0.1	0.132	0.000	D	F	1980.0	0.000	0.190	-0.001	1503.204	1183.661	0.027	-	0.008	-0.014	-	-	-	-	-	-	-	PAVEMENT_GENERAL	Urban	F	1011101000001001	0000000000000000	-	car	828.456	-191.431	0.000	0.000	180.000	696.000	987.000	-0.000	Terminate	
"student5mode3"	"Tanvi_6"	"Nov 28, 2016 05:53:28 AM"	Unknown	58.98451	10/28/0116 05:54.30	00003539	18.309	Inter615t9-0	-0.397	1	2	0.000	11.111	-0.2	0.132	0.000	D	F	1978.5	0.000	0.190	0.001	1503.196	1201.977	0.027	-	-0.004	-0.016	-	-	-	-	-	-	-	PAVEMENT_GENERAL	Urban	F	1011101000001001	0000000000000000	-	car	832.973	-177.006	0.000	0.000	180.000	696.000	987.000	-0.000	Terminate	
"student5mode3"	"Tanvi_6"	"Nov 28, 2016 05:53:28 AM"	Unknown	59.98453	10/28/0116 05:54.31	00003599	18.252	Inter615t33-0	-0.416	1	1	0.071	11.111	-0.1	0.109	0.000	D	F	1941.7	359.902	0.189	0.003	1503.181	1220.268	0.027	-	-0.019	-0.111	-	-	-	22	2.976	54.317	2.976	PAVEMENT_GENERAL	Urban	F	1011101000001001	0000000000000000	-	car	837.852	-166.328	0.000	0.000	180.000	696.000	987.000	-0.000	Terminate	
"student5mode3"	"Tanvi_6"	"Nov 28, 2016 05:53:28 AM"	Unknown	60.98455	10/28/0116 05:54.32	00003659	18.149	Inter615t33-0	-0.462	1	1	0.098	11.111	1.4	0.111	0.000	D	F	1936.1	0.000	0.189	-0.002	1503.158	1238.468	0.027	-	0.039	-0.099	-	-	-	22	1.994	36.181	1.994	PAVEMENT_GENERAL	Urban	F	1011101000001001	0000000000000000	-	car	843.064	-156.524	0.000	0.000	180.000	696.000	987.000	-0.000	Terminate	
"student5mode3"	"Tanvi_6"	"Nov 28, 2016 05:53:28 AM"	Unknown	61.98457	10/28/0116 05:54.33	00003719	18.038	Inter615t33-0	-0.473	1	1	0.061	11.111	-0.5	0.111	0.000	D	F	1925.6	0.122	0.191	0.002	1503.178	1256.565	0.027	-	-0.014	-0.099	-	-	-	22	1.132	20.425	1.132	PAVEMENT_GENERAL	Urban	F	1011101000001001	0000000000000000	-	car	848.641	-147.588	0.000	0.000	180.000	696.000	987.000	-0.000	Terminate	
"student5mode3"	"Tanvi_6"	"Nov 28, 2016 05:53:28 AM"	Unknown	62.98459	10/28/0116 05:54.34	00003779	17.940	Inter615t11-1	-0.466	2	2	0.000	11.111	-0.2	0.111	0.000	D	F	1918.7	0.002	0.190	0.002	1503.196	1274.554	0.027	-	-0.018	-0.094	-	-	-	-	-	-	-	PAVEMENT_GENERAL	Urban	F	1011101000001001	0000000000000000	-	car	854.526	-141.926	0.000	0.000	180.000	696.000	987.000	-0.000	Terminate	
"student5mode3"	"Tanvi_6"	"Nov 28, 2016 05:53:28 AM"	Unknown	63.98461	10/28/0116 05:54.35	00003839	17.850	Inter615t67-0	-0.436	1	1	359.884	11.111	0.4	0.109	0.000	D	F	1912.5	0.076	0.190	-0.004	1503.205	1292.449	0.027	-	0.029	-0.088	-	-	-	-	-	-	-	PAVEMENT_GENERAL	Urban	F	1011101000001001	0000000000000000	-	car	860.704	-135.766	0.000	0.000	180.000	696.000	987.000	-0.000	Terminate	
"student5mode3"	"Tanvi_6"	"Nov 28, 2016 05:53:28 AM"	Unknown	64.98463	10/28/0116 05:54.36	00003899	17.754	Inter615t67-0	-0.364	1	1	359.884	11.111	0.3	0.106	0.000	D	F	1895.5	0.164	0.190	-0.003	1503.240	1310.254	0.027	-	0.023	-0.108	-	-	-	-	-	-	-	PAVEMENT_GENERAL	Urban	F	1011101000001001	0000000000000000	-	car	867.198	-130.457	0.000	0.000	180.000	696.000	987.000	-0.000	Terminate	
"student5mode3"	"Tanvi_6"	"Nov 28, 2016 05:53:28 AM"	Unknown	65.98465	10/28/0116 05:54.37	00003959	17.639	Inter615t13-0	-0.291	1	2	0.000	11.111	0.8	0.104	0.000	D	F	1879.8	0.227	0.190	-0.005	1503.297	1327.951	0.027	-	0.036	-0.121	-	-	-	-	-	-	-	PAVEMENT_GENERAL	Urban	F	1011101000001001	0000000000000000	-	car	873.983	-126.167	0.000	0.000	180.000	696.000	987.000	-0.000	Terminate	
"student5mode3"	"Tanvi_6"	"Nov 28, 2016 05:53:28 AM"	Unknown	66.98467	10/28/0116 05:54.38	00004019	17.300	Inter615t49-0	-0.221	1	1	0.007	11.111	-0.3	0.011	0.000	D	F	1700.1	0.184	0.184	0.004	1503.368	1345.467	0.029	-	-0.033	-0.547	-	-	-	-	-	-	-	PAVEMENT_GENERAL	Urban	F	1011101000001001	0000000000000000	-	car	881.010	-124.594	0.000	0.000	180.000	696.000	987.000	-0.000	Terminate	
"student5mode3"	"Tanvi_6"	"Nov 28, 2016 05:53:28 AM"	Unknown	67.98470	10/28/0116 05:54.39	00004079	16.698	Inter615t49-0	-0.178	1	1	0.006	11.111	-0.2	0.000	0.000	D	F	1639.3	0.116	0.187	0.002	1503.413	1362.468	0.029	-	-0.015	-0.604	-	-	-	-	-	-	-	PAVEMENT_GENERAL	Urban	F	1011101000001001	0000000000000000	-	car	888.086	-125.585	0.000	0.000	180.000	696.000	987.000	-0.000	Terminate	
"student5mode3"	"Tanvi_6"	"Nov 28, 2016 05:53:28 AM"	Unknown	68.98471	10/28/0116 05:54.40	00004139	16.099	Inter615t49-0	-0.150	1	1	0.005	11.111	0.3	0.000	0.000	D	F	1580.6	0.095	0.187	-0.001	1503.443	1378.866	0.029	L	0.007	-0.594	-	-	-	-	-	-	-	PAVEMENT_GENERAL	Urban	F	1011101000101001	0000000000000000	-	car	895.150	-126.918	0.000	0.000	180.000	696.000	987.000	-0.000	Terminate	
"student5mode3"	"Tanvi_6"	"Nov 28, 2016 05:53:28 AM"	Unknown	69.98473	10/28/0116 05:54.41	00004199	15.510	Inter615t15-0	-0.119	1	2	0.000	11.111	0.0	0.000	0.000	D	F	1523.1	0.126	0.188	-0.000	1503.474	1394.670	0.029	L	0.003	-0.584	-	-	-	-	-	-	-	PAVEMENT_GENERAL	Urban	F	1011101000101001	0000000000000000	-	car	902.190	-128.502	0.000	0.000	180.000	696.000	987.000	-0.000	Terminate	
"student5mode3"	"Tanvi_6"	"Nov 28, 2016 05:53:28 AM"	Unknown	70.98476	10/28/0116 05:54.42	00004259	14.932	-	-	-	0	-	-	0.2	0.000	0.000	D	F	1466.5	0.127	0.189	-0.000	1503.508	1409.890	0.029	-	0.004	-0.573	-	-	-	-	-	-	-	-	-	F	1011101000001001	0000000000000000	-	car	909.180	-130.696	0.000	0.000	180.000	696.000	987.000	-0.000	Terminate	
"student5mode3"	"Tanvi_6"	"Nov 28, 2016 05:53:28 AM"	Unknown	71.98477	10/28/0116 05:54.43	00004319	14.473	-	-	-	0	-	-	-0.2	0.056	0.000	D	F	1524.4	0.119	0.194	0.001	1503.541	1424.566	0.028	-	-0.011	-0.298	-	-	-	-	-	-	-	-	-	F	1011101000001001	0000000000000000	-	car	916.110	-132.358	0.000	0.000	180.000	696.000	987.000	-0.000	Terminate	
"student5mode3"	"Tanvi_6"	"Nov 28, 2016 05:53:28 AM"	Unknown	72.98479	10/28/0116 05:54.44	00004379	14.347	-	-	-	0	-	-	-0.2	0.090	0.000	D	F	1579.3	0.077	0.195	0.001	1503.566	1438.963	0.027	-	-0.010	-0.076	-	-	-	-	-	-	-	-	-	F	1011101000001001	0000000000000000	-	car	923.077	-131.428	0.000	0.000	180.000	696.000	987.000	-0.000	Terminate	
"student5mode3"	"Tanvi_6"	"Nov 28, 2016 05:53:28 AM"	Unknown	73.98481	10/28/0116 05:54.45	00004439	14.292	-	-	-	0	-	-	-0.2	0.092	0.000	D	F	1589.2	0.032	0.195	0.001	1503.580	1453.281	0.027	-	-0.012	-0.047	-	-	-	-	-	-	-	-	-	F	1011101000001001	0000000000000000	-	car	930.166	-130.035	0.000	0.000	180.000	696.000	987.000	-0.000	Terminate	
"student5mode3"	"Tanvi_6"	"Nov 28, 2016 05:53:28 AM"	Unknown	74.98483	10/28/0116 05:54.46	00004499	14.255	-	-	-	0	-	-	-0.3	0.106	0.000	D	F	1616.3	0.000	0.196	0.002	1503.582	1467.552	0.027	-	-0.013	0.005	-	-	-	-	-	-	-	-	-	F	1011101000001001	0000000000000000	-	car	937.385	-128.655	0.000	0.000	180.000	696.000	987.000	-0.000	Terminate	
"student5mode3"	"Tanvi_6"	"Nov 28, 2016 05:53:28 AM"	Unknown	75.98486	10/28/0116 05:54.47	00004559	14.288	-	-	-	0	-	-	-0.2	0.111	0.000	D	F	1628.0	359.934	0.196	0.002	1503.572	1481.822	0.026	-	-0.012	0.038	-	-	-	-	-	-	-	-	-	F	1011101000001001	0000000000000000	-	car	944.753	-126.800	0.000	0.000	180.000	696.000	987.000	-0.000	Terminate	
"student5mode3"	"Tanvi_6"	"Nov 28, 2016 05:53:28 AM"	Unknown	76.98487	10/28/0116 05:54.48	00004619	14.313	-	-	-	0	-	-	-0.1	0.104	0.000	D	F	1623.3	359.893	0.196	0.001	1503.551	1496.125	0.026	-	-0.008	0.018	-	-	-	-	-	-	-	-	-	F	1011101000001001	0000000000000000	-	car	952.285	-125.123	0.000	0.000	180.000	696.000	987.000	-0.000	Terminate	
"student5mode3"	"Tanvi_6"	"Nov 28, 2016 05:53:28 AM"	Unknown	77.98489	10/28/0116 05:54.49	00004679	14.334	-	-	-	0	-	-	-0.0	0.106	0.000	D	F	1625.4	359.881	0.196	0.000	1503.522	1510.449	0.026	-	-0.002	0.023	-	-	-	-	-	-	-	-	-	F	1011101000001001	0000000000000000	-	car	959.977	-123.520	0.000	0.000	180.000	696.000	987.000	-0.000	Terminate	
"student5mode3"	"Tanvi_6"	"Nov 28, 2016 05:53:28 AM"	Unknown	78.98492	10/28/0116 05:54.50	00004739	14.328	-	-	-	0	-	-	0.2	0.093	0.000	D	F	1601.8	359.888	0.195	-0.001	1503.492	1524.787	0.027	-	0.007	-0.034	-	-	-	-	-	-	-	-	-	F	1011101000001001	0000000000000000	-	car	967.826	-122.222	0.000	0.000	180.000	696.000	987.000	-0.000	Terminate	
"student5mode3"	"Tanvi_6"	"Nov 28, 2016 05:53:28 AM"	Unknown	79.98493	10/28/0116 05:54.51	00004799	14.300	-	-	-	0	-	-	0.2	0.093	0.000	D	F	1592.7	359.934	0.195	-0.002	1503.470	1539.104	0.027	-	0.011	-0.044	-	-	-	-	-	-	-	-	-	F	1011101000001001	0000000000000000	-	car	975.816	-121.108	0.000	0.000	180.000	696.000	987.000	-0.000	Terminate	
"student5mode3"	"Tanvi_6"	"Nov 28, 2016 05:53:28 AM"	Unknown	80.98495	10/28/0116 05:54.52	00004859	14.261	-	-	-	0	-	-	-0.1	0.016	0.000	D	F	1431.9	359.947	0.191	0.000	1503.457	1553.392	0.027	-	-0.004	-0.206	-	-	-	-	-	-	-	-	-	F	1011101000001001	0000000000000000	-	car	983.940	-120.302	0.000	0.000	180.000	696.000	987.000	-0.000	Terminate	
"student5mode3"	"Tanvi_6"	"Nov 28, 2016 05:53:28 AM"	Unknown	81.98497	10/28/0116 05:54.53	00004919	13.997	-	-	-	0	-	-	-0.0	0.127	0.000	D	F	1649.7	359.931	0.204	0.000	1503.442	1567.467	0.026	-	-0.002	0.154	-	-	-	-	-	-	-	-	-	F	1011101000001001	0000000000000000	-	car	992.077	-121.629	0.000	0.000	180.000	696.000	987.000	-0.000	Terminate	
"student5mode3"	"Tanvi_6"	"Nov 28, 2016 05:53:28 AM"	Unknown	82.98499	10/28/0116 05:54.54	00004979	14.064	-	-	-	0	-	-	0.0	0.113	0.000	D	F	1624.4	359.935	0.199	-0.000	1503.425	1581.508	0.026	-	0.001	0.072	-	-	-	-	-	-	-	-	-	F	1011101000001001	0000000000000000	-	car	1000.324	-120.148	0.000	0.000	180.000	696.000	987.000	-0.000	Terminate	
"student5mode3"	"Tanvi_6"	"Nov 28, 2016 05:53:28 AM"	Unknown	83.98502	10/28/0116 05:54.55	00005039	14.245	-	-	-	0	-	-	0.2	0.143	0.000	D	F	1695.9	0.000	0.197	-0.001	1503.410	1595.649	0.025	-	0.007	0.203	-	-	-	-	-	-	-	-	-	F	1011101000001001	0000000000000000	-	car	1008.761	-117.774	0.000	0.000	180.000	696.000	987.000	-0.000	Terminate	
"student5mode3"	"Tanvi_6"	"Nov 28, 2016 05:53:28 AM"	Unknown	84.98503	10/28/0116 05:54.56	00005099	14.450	-	-	-	0	-	-	0.2	0.141	0.000	D	F	1702.8	0.000	0.197	-0.001	1503.401	1609.999	0.026	-	0.009	0.187	-	-	-	-	-	-	-	-	-	F	1011101000001001	0000000000000000	-	car	1017.457	-115.301	0.000	0.000	180.000	696.000	987.000	-0.000	Terminate	
"student5mode3"	"Tanvi_6"	"Nov 28, 2016 05:53:28 AM"	Unknown	85.98505	10/28/0116 05:54.57	00005159	14.559	-	-	-	0	-	-	0.5	0.116	0.000	D	F	1664.0	0.052	0.196	-0.004	1503.404	1624.517	0.026	-	0.027	0.067	-	-	-	-	-	-	-	-	-	F	1011101000001001	0000000000000000	-	car	1026.391	-113.632	0.000	0.000	180.000	696.000	987.000	-0.000	Terminate	
"student5mode3"	"Tanvi_6"	"Nov 28, 2016 05:53:28 AM"	Unknown	86.98507	10/28/0116 05:54.58	00005219	14.596	-	-	-	0	-	-	-0.1	0.108	0.000	D	F	1651.6	0.065	0.195	0.001	1503.422	1639.097	0.026	-	-0.008	0.035	-	-	-	-	-	-	-	-	-	F	1011101000001001	0000000000000000	-	car	1035.504	-112.755	0.000	0.000	180.000	696.000	987.000	-0.000	Terminate	
"student5mode3"	"Tanvi_6"	"Nov 28, 2016 05:53:28 AM"	Unknown	87.98509	10/28/0116 05:54.59	00005279	14.599	-	-	-	0	-	-	0.1	0.104	0.000	D	F	1642.6	0.036	0.195	0.000	1503.436	1653.693	0.026	-	-0.002	0.025	-	-	-	-	-	-	-	-	-	F	1011101000001001	0000000000000000	-	car	1044.747	-112.310	0.000	0.000	180.000	696.000	987.000	-0.000	Terminate	
