ZoneName	Time	SystemTime	Frame	Velocity	LaneName	LanePos	LaneIndex	LaneCount	LaneHeading	SpeedLimit	Steer	Accel	Brake	Gear	Horn	SubjectEngineRPM	SubjectHeading	SubjectPitch	SubjectRoll	SubjectX	SubjectY	SubjectZ	Signal	LatAccel	LongAccel	Collision	CollisionAngle	CollisionVelocity	VehAhead	HeadwayTime	HeadwayDist	TTC	TerrainType	CultureType	Slip	DigitalInputs	DigitalInputs2	ActiveTrigger	EntityName	DistToEntity	TimeToEntity	EntityVelocity	EntityAccel	EntityHeading	EntityX	EntityY	EntityZ	GrabData	
Unknown	0.98335	10/30/0116 10:43.23	00000059	0.002	Inter625t13-0	-0.088	1	2	0.000	11.111	2.8	0.000	0.000	D	F	0.0	0.001	0.153	-0.001	1503.500	523.206	0.019	-	-0.000	0.000	-	-	-	-	-	-	-	PAVEMENT_GENERAL	Urban	F	1011101000011101	0000000000000000	-	car	928.855	774733.062	0.000	0.000	180.000	696.000	987.000	-0.000	Terminate	
Unknown	1.98337	10/30/0116 10:43.24	00000119	0.000	Inter625t13-0	-0.088	1	2	0.000	11.111	1.2	0.000	0.000	D	F	0.0	0.001	0.197	0.000	1503.500	523.208	0.026	-	0.000	-0.001	-	-	-	-	-	-	-	PAVEMENT_GENERAL	Urban	F	1011101000011101	0000000000000000	-	car	928.855	4213691.500	0.000	0.000	180.000	696.000	987.000	-0.000	Terminate	
Unknown	2.98339	10/30/0116 10:43.25	00000179	-0.000	Inter625t13-0	-0.088	1	2	0.000	11.111	1.0	0.000	0.000	D	F	0.0	0.001	0.207	-0.000	1503.500	523.208	0.028	-	0.000	-0.000	-	-	-	-	-	-	-	PAVEMENT_GENERAL	Urban	F	1011101000011101	0000000000000000	-	car	928.854	-116025976.000	0.000	0.000	180.000	696.000	987.000	-0.000	Terminate	
Unknown	3.98341	10/30/0116 10:43.26	00000239	0.000	Inter625t13-0	-0.088	1	2	0.000	11.111	1.4	0.000	0.000	D	F	116.7	0.001	0.209	-0.000	1503.500	523.208	0.028	-	0.000	0.000	-	-	-	-	-	-	-	PAVEMENT_GENERAL	Urban	F	1011101000011111	0000000000000000	-	car	928.854	17539598.000	0.000	0.000	180.000	696.000	987.000	-0.000	Terminate	
Unknown	4.98343	10/30/0116 10:43.27	00000299	0.002	Inter625t13-0	-0.088	1	2	0.000	11.111	1.6	0.000	0.000	D	F	450.0	0.001	0.209	-0.000	1503.500	523.208	0.028	-	0.000	0.010	-	-	-	-	-	-	-	PAVEMENT_GENERAL	Urban	F	1011101000011101	0000000000000000	-	car	928.854	906328.188	0.000	0.000	180.000	696.000	987.000	-0.000	Terminate	
Unknown	5.98345	10/30/0116 10:43.28	00000359	0.035	Inter625t13-0	-0.088	1	2	0.000	11.111	1.4	0.023	0.000	D	F	523.6	0.001	0.202	0.000	1503.500	523.221	0.025	-	0.000	0.095	-	-	-	-	-	-	-	PAVEMENT_GENERAL	Urban	F	1011101000011101	0000000000000000	-	car	928.848	52637.547	0.000	0.000	180.000	696.000	987.000	-0.000	Terminate	
Unknown	6.98347	10/30/0116 10:43.29	00000419	2.219	Inter625t13-0	-0.088	1	2	0.000	11.111	-0.7	0.108	0.000	D	F	1293.9	0.014	0.210	0.001	1503.500	524.186	0.015	-	-0.010	2.228	-	-	-	-	-	-	-	PAVEMENT_GENERAL	Urban	F	1011101000011101	0000000000000000	-	car	928.368	841.549	0.000	0.000	180.000	696.000	987.000	-0.000	Terminate	
Unknown	7.98349	10/30/0116 10:43.30	00000479	4.270	Inter625t13-0	-0.096	1	2	0.000	11.111	-1.8	0.143	0.000	D	F	1605.4	359.841	0.221	0.004	1503.492	527.474	0.017	-	-0.017	1.833	-	-	-	-	-	-	-	PAVEMENT_GENERAL	Urban	F	1011101000011101	0000000000000000	-	car	926.730	436.668	0.000	0.000	180.000	696.000	987.000	-0.000	Terminate	
Unknown	8.98351	10/30/0116 10:43.31	00000539	5.818	Inter625t49-0	-0.117	1	1	0.005	11.111	-0.5	0.150	0.000	D	F	1776.4	359.735	0.217	0.001	1503.471	532.554	0.020	-	0.004	1.510	-	-	-	-	-	-	-	PAVEMENT_GENERAL	Urban	F	1011101000011101	0000000000000000	-	car	924.210	321.247	0.000	0.000	180.000	696.000	987.000	-0.000	Terminate	
Unknown	9.98353	10/30/0116 10:43.32	00000599	7.149	Inter625t49-0	-0.130	1	1	0.006	11.111	1.1	0.236	0.000	D	F	1804.4	0.000	0.220	-0.005	1503.458	539.024	0.019	-	0.020	1.679	-	-	-	-	-	-	-	PAVEMENT_GENERAL	Urban	F	1011101000011101	0000000000000000	-	car	921.043	265.295	0.000	0.000	180.000	696.000	987.000	-0.000	Terminate	
Unknown	10.98355	10/30/0116 10:43.33	00000659	8.777	Inter625t49-0	-0.142	1	1	0.008	11.111	-4.0	0.259	0.000	D	F	1912.9	359.853	0.215	0.018	1503.448	547.006	0.019	-	-0.097	1.530	-	-	-	-	-	-	-	PAVEMENT_GENERAL	Urban	F	1011101000011101	0000000000000000	-	car	917.188	217.372	0.000	0.000	180.000	696.000	987.000	-0.000	Terminate	
Unknown	11.98357	10/30/0116 10:43.34	00000719	10.208	Inter625t49-0	-0.181	1	1	0.007	11.111	1.0	0.268	0.000	D	F	2028.7	359.894	0.212	-0.004	1503.409	556.512	0.020	-	0.041	1.351	-	-	-	-	-	-	-	PAVEMENT_GENERAL	Urban	F	1011101000011101	0000000000000000	-	car	912.643	189.370	0.000	0.000	180.000	696.000	987.000	-0.000	Terminate	
Unknown	12.98359	10/30/0116 10:43.35	00000779	11.604	Inter625t49-0	-0.199	1	1	0.005	11.111	-1.1	0.349	0.000	D	F	2227.5	359.850	0.214	0.005	1503.393	567.402	0.020	-	-0.042	1.492	-	-	-	-	-	-	-	PAVEMENT_GENERAL	Urban	F	1011101000011101	0000000000000000	-	car	907.556	168.759	0.000	0.000	180.000	696.000	987.000	-0.000	Terminate	
Unknown	13.98361	10/30/0116 10:43.36	00000839	13.055	Inter625t49-0	-0.240	1	1	0.005	11.111	0.6	0.427	0.000	D	F	2392.6	359.846	0.211	-0.004	1503.353	579.733	0.020	-	0.026	1.450	-	-	-	-	-	-	-	PAVEMENT_GENERAL	Urban	F	1011101000011101	0000000000000000	-	car	901.900	152.582	0.000	0.000	180.000	696.000	987.000	-0.000	Terminate	
Unknown	14.98363	10/30/0116 10:43.37	00000899	14.485	Inter625t15-0	-0.259	1	2	0.000	11.111	-0.1	0.423	0.000	D	F	2571.3	0.000	0.209	-0.002	1503.334	593.507	0.020	-	0.014	1.411	-	-	-	-	-	-	-	PAVEMENT_GENERAL	Urban	F	1011101000011101	0000000000000000	-	car	895.764	141.140	0.000	0.000	180.000	696.000	987.000	-0.000	Terminate	
Unknown	15.98365	10/30/0116 10:43.38	00000959	15.878	Inter614t1-0	-0.263	1	2	0.000	11.111	-0.0	0.400	0.000	D	F	2754.1	0.000	0.207	0.000	1503.330	608.692	0.020	-	-0.001	1.366	-	-	-	-	-	-	-	PAVEMENT_GENERAL	Urban	F	1011101000011101	0000000000000000	-	car	889.212	131.890	0.000	0.000	180.000	696.000	987.000	-0.000	Terminate	
Unknown	16.98367	10/30/0116 10:43.39	00001019	17.127	Inter614t1-0	-0.241	1	2	0.000	11.111	-0.3	0.270	0.000	D	F	2796.1	0.286	0.198	-0.004	1503.352	625.213	0.021	-	0.055	1.055	-	-	-	-	-	-	-	PAVEMENT_GENERAL	Urban	F	1011101000011101	0000000000000000	-	car	882.348	127.399	0.000	0.000	180.000	696.000	987.000	-0.000	Terminate	
Unknown	17.98369	10/30/0116 10:43.40	00001079	17.783	Inter614t1-0	-0.165	1	2	0.000	11.111	0.5	0.247	0.000	D	F	2111.4	0.245	0.196	-0.002	1503.429	642.712	0.024	-	0.013	0.509	-	-	-	-	-	-	-	PAVEMENT_GENERAL	Urban	F	1011101000011101	0000000000000000	-	car	875.408	126.776	0.000	0.000	180.000	696.000	987.000	-0.000	Terminate	
Unknown	18.98371	10/30/0116 10:43.41	00001139	18.308	Inter614t1-0	-0.081	1	2	0.000	11.111	-2.5	0.261	0.000	D	F	2151.6	0.175	0.195	0.018	1503.512	660.756	0.024	-	-0.130	0.519	-	-	-	-	-	-	-	PAVEMENT_GENERAL	Urban	F	1011101000011101	0000000000000000	-	car	868.566	127.609	0.000	0.000	180.000	696.000	987.000	-0.000	Terminate	
Unknown	19.98373	10/30/0116 10:43.42	00001199	18.803	Inter614t1-0	-0.113	1	2	0.000	11.111	-0.2	0.256	0.000	D	F	2185.7	359.658	0.194	0.005	1503.480	679.314	0.024	-	-0.043	0.483	-	-	-	-	-	-	-	PAVEMENT_GENERAL	Urban	F	1011101000011101	0000000000000000	-	car	861.756	126.731	0.000	0.000	180.000	696.000	987.000	-0.000	Terminate	
Unknown	20.98375	10/30/0116 10:43.43	00001259	19.280	Inter614t1-0	-0.231	1	2	0.000	11.111	-0.8	0.259	0.000	D	F	2222.4	359.578	0.193	0.007	1503.362	698.356	0.024	-	-0.052	0.472	-	-	-	-	-	-	-	PAVEMENT_GENERAL	Urban	F	1011101000011101	0000000000000000	-	car	855.049	129.080	0.000	0.000	180.000	696.000	987.000	-0.000	Terminate	
Unknown	21.98377	10/30/0116 10:43.44	00001319	19.744	Inter614t1-0	-0.400	1	2	0.000	11.111	-0.9	0.259	0.000	D	F	2258.1	359.389	0.192	0.009	1503.193	717.868	0.025	-	-0.067	0.456	-	-	-	-	-	-	-	PAVEMENT_GENERAL	Urban	F	1011101000011101	0000000000000000	-	car	848.518	131.670	0.000	0.000	180.000	696.000	987.000	-0.000	Terminate	
Unknown	22.98379	10/30/0116 10:43.45	00001379	20.281	Inter614t1-0	-0.617	1	2	0.000	11.111	7.5	0.349	0.000	D	F	2368.0	359.623	0.193	-0.054	1502.977	737.857	0.024	-	0.380	0.656	-	-	-	-	-	-	-	PAVEMENT_GENERAL	Urban	F	1011101000011101	0000000000000000	-	car	842.202	137.837	0.000	0.000	180.000	696.000	987.000	-0.000	Terminate	
Unknown	23.98381	10/30/0116 10:43.46	00001439	20.936	Inter614t1-0	-0.594	1	2	0.000	11.111	-1.6	0.374	0.000	D	F	2427.2	0.130	0.193	0.022	1502.999	758.464	0.024	-	-0.149	0.656	-	-	-	-	-	-	-	PAVEMENT_GENERAL	Urban	F	1011101000011101	0000000000000000	-	car	836.375	147.799	0.000	0.000	180.000	696.000	987.000	-0.000	Terminate	
Unknown	24.98383	10/30/0116 10:43.47	00001499	21.590	Inter614t1-0	-0.588	1	2	0.000	11.111	-0.8	0.381	0.000	D	F	2481.1	359.896	0.191	0.007	1503.005	779.728	0.024	-	-0.054	0.648	-	-	-	-	-	-	-	PAVEMENT_GENERAL	Urban	F	1011101000011101	0000000000000000	-	car	830.839	153.609	0.000	0.000	180.000	696.000	987.000	-0.000	Terminate	
Unknown	25.98385	10/30/0116 10:43.48	00001559	22.231	Inter612t1-0	-0.620	1	2	0.000	11.111	2.8	0.379	0.000	D	F	2531.7	0.177	0.190	-0.036	1502.974	801.640	0.024	-	0.251	0.633	-	-	-	-	-	-	-	PAVEMENT_GENERAL	Urban	F	1011101000011101	0000000000000000	-	car	825.629	168.153	0.000	0.000	180.000	696.000	987.000	-0.000	Terminate	
Unknown	26.98387	10/30/0116 10:43.49	00001619	22.859	Inter612t1-0	-0.530	1	2	0.000	11.111	-0.1	0.383	0.000	D	F	2581.6	0.221	0.188	0.005	1503.064	824.186	0.024	-	-0.038	0.623	-	-	-	-	-	-	-	PAVEMENT_GENERAL	Urban	F	1011101000011101	0000000000000000	-	car	820.963	185.148	0.000	0.000	180.000	696.000	987.000	-0.000	Terminate	
Unknown	27.98389	10/30/0116 10:43.50	00001679	23.471	Inter612t1-0	-0.434	1	2	0.000	11.111	1.7	0.372	0.000	D	F	2626.5	0.323	0.187	-0.013	1503.159	847.352	0.024	-	0.102	0.606	-	-	-	-	-	-	-	PAVEMENT_GENERAL	Urban	F	1011101000011101	0000000000000000	-	car	816.791	211.014	0.000	0.000	180.000	696.000	987.000	-0.000	Terminate	
Unknown	28.98391	10/30/0116 10:43.51	00001739	24.069	Inter612t1-0	-0.281	1	2	0.000	11.111	-3.2	0.372	0.000	D	F	2680.8	0.301	0.186	0.023	1503.312	871.122	0.024	-	-0.159	0.592	-	-	-	-	-	-	-	PAVEMENT_GENERAL	Urban	F	1011101000011101	0000000000000000	-	car	813.227	246.837	0.000	0.000	180.000	696.000	987.000	-0.000	Terminate	
Unknown	29.98393	10/30/0116 10:43.52	00001799	24.597	Inter612t1-0	-0.263	1	2	0.000	11.111	0.8	0.303	0.000	D	F	2706.9	359.812	0.184	0.004	1503.331	895.472	0.025	-	-0.031	0.461	-	-	-	-	-	-	-	PAVEMENT_GENERAL	Urban	F	1011101000011101	0000000000000000	-	car	810.143	284.141	0.000	0.000	180.000	696.000	987.000	-0.000	Terminate	
Unknown	30.98395	10/30/0116 10:43.53	00001859	24.491	Inter612t1-0	-0.324	1	2	0.000	11.111	-0.9	0.000	0.000	D	F	1722.1	359.827	0.168	0.009	1503.270	920.151	0.030	-	-0.061	-0.675	-	-	-	-	-	-	-	PAVEMENT_GENERAL	Urban	F	1011101000011101	0000000000000000	-	car	807.673	385.516	0.000	0.000	180.000	696.000	987.000	-0.000	Terminate	
Unknown	31.98397	10/30/0116 10:43.54	00001919	23.898	Inter612t1-0	-0.345	1	2	0.000	11.111	1.6	0.093	0.000	D	F	1777.9	0.422	0.177	-0.046	1503.248	944.318	0.029	-	0.337	-0.378	-	-	-	-	-	-	-	PAVEMENT_GENERAL	Urban	F	1011101000011101	0000000000000000	-	car	806.016	742.309	0.000	0.000	180.000	696.000	987.000	-0.000	Terminate	
Unknown	32.98399	10/30/0116 10:43.55	00001979	23.639	Inter612t1-0	-0.210	1	2	0.000	11.111	-1.2	0.127	0.000	D	F	1802.2	0.193	0.180	0.015	1503.383	968.078	0.028	-	-0.097	-0.214	-	-	-	-	-	-	-	PAVEMENT_GENERAL	Urban	F	1011101000011101	0000000000000000	-	car	805.245	1698.258	0.000	0.000	180.000	696.000	987.000	-0.000	Terminate	
Unknown	33.98401	10/30/0116 10:43.56	00002039	23.444	Inter612t1-0	-0.151	1	2	0.000	11.111	-2.0	0.150	0.000	D	F	1846.3	0.000	0.180	0.022	1503.442	991.612	0.028	-	-0.127	-0.137	-	-	-	-	-	-	-	PAVEMENT_GENERAL	Urban	F	1011101000011101	0000000000000000	-	car	805.096	-6131.254	0.000	0.000	180.000	696.000	987.000	-0.000	Terminate	
Unknown	34.98403	10/30/0116 10:43.57	00002099	23.352	Inter613t1-0	-0.169	1	2	0.000	11.111	-0.2	0.162	0.000	D	F	1864.8	359.947	0.180	0.001	1503.424	1015.007	0.027	-	0.001	-0.092	-	-	-	-	-	-	-	PAVEMENT_GENERAL	Urban	F	1011101000011101	0000000000000000	-	car	805.550	-1022.463	0.000	0.000	180.000	696.000	987.000	-0.000	Terminate	
Unknown	35.98405	10/30/0116 10:43.58	00002159	23.247	Inter613t1-0	-0.234	1	2	0.000	11.111	1.5	0.153	0.000	D	F	1841.9	359.624	0.180	0.005	1503.359	1038.310	0.027	-	-0.056	-0.119	-	-	-	-	-	-	-	PAVEMENT_GENERAL	Urban	F	1011101000011101	0000000000000000	-	car	806.628	-610.131	0.000	0.000	180.000	696.000	987.000	-0.000	Terminate	
Unknown	36.98407	10/30/0116 10:43.59	00002219	23.184	Inter613t1-0	-0.329	1	2	0.000	11.111	-0.1	0.199	0.000	D	F	1938.4	359.938	0.183	-0.011	1503.264	1061.509	0.027	-	0.067	0.061	-	-	-	-	-	-	-	PAVEMENT_GENERAL	Urban	F	1011101000011101	0000000000000000	-	car	808.336	-383.854	0.000	0.000	180.000	696.000	987.000	-0.000	Terminate	
Unknown	37.98409	10/30/0116 10:44.00	00002279	23.204	Inter613t1-0	-0.308	1	2	0.000	11.111	0.2	0.192	0.000	D	F	1921.1	0.402	0.182	-0.018	1503.285	1084.704	0.027	-	0.170	0.024	-	-	-	-	-	-	-	PAVEMENT_GENERAL	Urban	F	1011101000011101	0000000000000000	-	car	810.816	-274.907	0.000	0.000	180.000	696.000	987.000	-0.000	Terminate	
Unknown	38.98411	10/30/0116 10:44.01	00002339	23.358	Inter613t1-0	-0.189	1	2	0.000	11.111	-0.4	0.332	0.000	D	F	2113.7	0.109	0.184	0.013	1503.404	1107.954	0.025	-	-0.110	0.327	-	-	-	-	-	-	-	PAVEMENT_GENERAL	Urban	F	1011101000011101	0000000000000000	-	car	814.054	-232.277	0.000	0.000	180.000	696.000	987.000	-0.000	Terminate	
Unknown	39.98413	10/30/0116 10:44.02	00002399	23.301	Inter613t1-0	-0.172	1	2	0.000	11.111	-1.1	0.102	0.000	D	F	1757.9	359.903	0.177	0.011	1503.421	1131.351	0.028	-	-0.081	-0.290	-	-	-	-	-	-	-	PAVEMENT_GENERAL	Urban	F	1011101000011101	0000000000000000	-	car	817.864	-201.362	0.000	0.000	180.000	696.000	987.000	-0.000	Terminate	
Unknown	40.98415	10/30/0116 10:44.03	00002459	22.777	Inter613t1-0	-0.242	1	2	0.000	11.111	1.6	0.000	0.000	D	F	1552.9	359.741	0.175	-0.009	1503.351	1154.430	0.030	-	0.036	-0.651	-	-	-	-	-	-	-	PAVEMENT_GENERAL	Urban	F	1011101000011101	0000000000000000	-	car	822.170	-181.733	0.000	0.000	180.000	696.000	987.000	-0.000	Terminate	
Unknown	41.98417	10/30/0116 10:44.04	00002519	21.551	Inter613t1-0	-0.286	1	2	0.000	11.111	-1.1	0.000	0.167	D	F	1434.9	0.000	0.127	0.002	1503.307	1176.791	0.033	-	-0.016	-2.725	-	-	-	-	-	-	-	PAVEMENT_GENERAL	Urban	F	1011101000011101	0000000000000000	-	car	826.957	-167.879	0.000	0.000	180.000	696.000	987.000	-0.000	Terminate	
Unknown	42.98419	10/30/0116 10:44.05	00002579	19.204	Inter613t1-0	-0.305	1	2	0.000	11.111	1.6	0.000	0.116	D	F	1289.1	0.207	0.167	-0.032	1503.288	1197.125	0.032	-	0.208	-2.003	-	-	-	-	-	-	-	PAVEMENT_GENERAL	Urban	F	1011101000011101	0000000000000000	-	car	831.827	-169.601	0.000	0.000	180.000	696.000	987.000	-0.000	Terminate	
Unknown	43.98421	10/30/0116 10:44.06	00002639	16.921	Inter615t9-0	-0.294	1	2	0.000	11.111	-23.4	0.000	0.161	D	F	1130.6	358.934	0.140	0.171	1503.299	1215.219	0.033	L	-1.199	-2.641	-	-	-	22	3.371	57.034	3.371	PAVEMENT_GENERAL	Urban	F	1011101000111101	0000000000000000	-	car	836.578	-194.580	0.000	0.000	180.000	696.000	987.000	-0.000	Terminate	
Unknown	44.98423	10/30/0116 10:44.07	00002699	14.319	Inter615t31-0	-0.511	1	1	354.707	11.111	-22.8	0.000	0.152	D	F	958.4	352.952	0.141	0.199	1502.324	1230.797	0.034	L	-1.514	-2.502	-	-	-	22	3.056	43.757	3.056	PAVEMENT_GENERAL	Urban	F	1011101000111101	0000000000000000	-	car	840.016	-345.536	0.000	0.000	180.000	696.000	987.000	-0.000	Terminate	
Unknown	45.98425	10/30/0116 10:44.08	00002759	12.937	Inter615t31-0	-1.002	1	1	355.917	11.111	38.2	0.000	0.072	D	F	912.3	354.212	0.168	-0.193	1500.613	1244.227	0.030	-	1.557	-1.333	-	-	-	22	2.339	30.256	2.339	PAVEMENT_GENERAL	Urban	F	1011101000011101	0000000000000000	-	car	842.370	-314.709	0.000	0.000	180.000	696.000	987.000	-0.000	Terminate	
Unknown	46.98427	10/30/0116 10:44.09	00002819	10.911	Inter615t31-0	-0.391	1	1	356.903	11.111	-7.6	0.000	0.155	D	F	1045.6	1.681	0.152	0.010	1500.283	1256.226	0.033	-	0.137	-2.394	-	-	-	22	1.677	18.296	1.677	PAVEMENT_GENERAL	Urban	F	1011101000011101	0000000000000000	-	car	845.788	-224.630	0.000	0.000	180.000	696.000	987.000	-0.000	Terminate	
Unknown	47.98429	10/30/0116 10:44.10	00002879	7.586	Inter615t31-0	0.257	1	1	356.903	11.111	-3.7	0.000	0.334	D	F	711.3	0.109	0.125	-0.002	1500.422	1265.648	0.037	-	-0.097	-4.338	-	-	-	22	0.859	6.520	0.859	PAVEMENT_GENERAL	Urban	F	1011101000011101	0000000000000000	-	car	848.957	-340.029	0.000	0.000	180.000	696.000	987.000	-0.000	Terminate	
Unknown	48.98431	10/30/0116 10:44.11	00002939	2.001	Inter615t11-0	0.342	LT1	2	0.000	11.111	-3.8	0.000	0.525	D	F	477.5	359.668	-0.044	-0.004	1500.405	1270.612	0.041	-	0.008	-6.163	-	-	-	22	1.957	3.915	1.957	PAVEMENT_GENERAL	Urban	F	1011101000011101	0000000000000000	-	car	850.578	-1300.030	0.000	0.000	180.000	696.000	987.000	-0.000	Terminate	
Unknown	49.98433	10/30/0116 10:44.12	00002999	-0.001	Inter615t11-0	0.339	LT1	2	0.000	11.111	-3.9	0.000	0.504	D	F	477.5	359.641	0.225	0.000	1500.402	1270.967	0.035	-	-0.000	-0.005	-	-	-	22	-	3.559	-	PAVEMENT_GENERAL	Urban	F	1011101000011101	0000000000000000	-	car	850.694	2155960.000	0.000	0.000	180.000	696.000	987.000	-0.000	Terminate	
Unknown	50.98435	10/30/0116 10:44.13	00003059	-0.001	Inter615t11-0	0.339	LT1	2	0.000	11.111	2.7	0.000	0.290	D	F	477.5	359.641	0.218	0.000	1500.402	1270.966	0.030	-	0.000	0.001	-	-	-	22	-	3.561	-	PAVEMENT_GENERAL	Urban	F	1011101000011101	0000000000000000	-	car	850.693	3364512.750	0.000	0.000	180.000	696.000	987.000	-0.000	Terminate	
Unknown	51.98437	10/30/0116 10:44.14	00003119	0.005	Inter615t11-0	0.339	LT1	2	0.000	11.111	-12.2	0.000	0.000	D	F	477.5	359.641	0.211	0.000	1500.402	1270.966	0.028	L	-0.000	0.020	-	-	-	22	-	3.560	-	PAVEMENT_GENERAL	Urban	F	1011101000111101	0000000000000000	-	car	850.693	-534077.438	0.000	0.000	180.000	696.000	987.000	-0.000	Terminate	
Unknown	52.98439	10/30/0116 10:44.15	00003179	0.016	Inter615t11-0	0.339	LT1	2	0.000	11.111	14.4	0.000	0.000	D	F	477.5	359.641	0.196	-0.001	1500.402	1270.976	0.024	L	0.001	0.034	-	-	-	22	216.192	3.550	216.192	PAVEMENT_GENERAL	Urban	F	1011101000111101	0000000000000000	-	car	850.697	-158433.938	0.000	0.000	180.000	696.000	987.000	-0.000	Terminate	
Unknown	53.98441	10/30/0116 10:44.16	00003239	0.153	Inter615t11-0	0.339	LT1	2	0.000	11.111	3.2	0.000	0.000	D	F	477.5	359.653	0.206	-0.000	1500.402	1271.045	0.025	L	-0.000	0.214	-	-	-	22	22.769	3.481	22.769	PAVEMENT_GENERAL	Urban	F	1011101000111101	0000000000000000	-	car	850.720	-17001.646	0.000	0.000	180.000	696.000	987.000	-0.000	Terminate	
Unknown	54.98443	10/30/0116 10:44.17	00003299	0.349	Inter615t11-0	0.338	LT1	2	0.000	11.111	1.0	0.000	0.000	D	F	477.5	359.663	0.205	-0.000	1500.400	1271.302	0.025	L	0.001	0.155	-	-	-	22	9.232	3.224	9.232	PAVEMENT_GENERAL	Urban	F	1011101000111101	0000000000000000	-	car	850.804	-7433.654	0.000	0.000	180.000	696.000	987.000	-0.000	Terminate	
Unknown	55.98445	10/30/0116 10:44.18	00003359	-0.001	Inter615t11-0	0.337	LT1	2	0.000	11.111	0.7	0.000	0.585	D	F	477.5	359.667	0.212	0.000	1500.399	1271.493	0.028	L	-0.000	-0.016	-	-	-	22	-	3.034	-	PAVEMENT_GENERAL	Urban	F	1011101000111101	0000000000000000	-	car	850.866	2626092.750	0.000	0.000	180.000	696.000	987.000	-0.000	Terminate	
Unknown	56.98447	10/30/0116 10:44.19	00003419	-0.000	Inter615t11-0	0.337	LT1	2	0.000	11.111	0.9	0.004	0.675	D	F	477.5	359.667	0.210	-0.000	1500.399	1271.493	0.028	L	0.000	-0.001	-	-	-	22	-	3.175	-	PAVEMENT_GENERAL	Urban	F	1011101000111101	0000000000000000	-	car	850.866	34759936.000	0.000	0.000	180.000	696.000	987.000	-0.000	Terminate	
Unknown	57.98449	10/30/0116 10:44.20	00003479	0.000	Inter615t11-0	0.337	LT1	2	0.000	11.111	1.6	0.000	0.000	D	F	477.5	359.667	0.209	-0.000	1500.399	1271.493	0.028	L	0.000	0.001	-	-	-	22	-	4.924	-	PAVEMENT_GENERAL	Urban	F	1011101000111101	0000000000000000	-	car	850.866	-20422664.000	0.000	0.000	180.000	696.000	987.000	-0.000	Terminate	
Unknown	58.98451	10/30/0116 10:44.21	00003539	0.017	Inter615t11-0	0.337	LT1	2	0.000	11.111	1.6	0.136	0.000	D	F	1127.8	359.667	0.202	-0.000	1500.399	1271.497	0.025	L	0.000	0.129	-	-	-	22	515.564	8.672	-	PAVEMENT_GENERAL	Urban	F	1011101000111101	0000000000000000	-	car	850.868	-154251.000	0.000	0.000	180.000	696.000	987.000	-0.000	Terminate	
Unknown	59.98453	10/30/0116 10:44.22	00003599	3.186	Inter615t11-0	0.332	LT1	2	0.000	11.111	2.9	0.219	0.000	D	F	1703.0	359.741	0.224	-0.002	1500.394	1272.846	0.008	L	0.014	3.732	-	-	-	22	4.117	13.115	-	PAVEMENT_GENERAL	Urban	F	1011101000111101	0000000000000000	-	car	851.314	-808.315	0.000	0.000	180.000	696.000	987.000	-0.000	Terminate	
Unknown	60.98455	10/30/0116 10:44.23	00003659	6.107	Inter615t11-0	0.323	LT1	2	0.000	11.111	-13.3	0.240	0.000	D	F	2070.8	359.853	0.220	0.038	1500.386	1277.599	0.014	L	-0.237	2.363	-	-	-	22	2.639	16.115	-	PAVEMENT_GENERAL	Urban	F	1111101000111101	0000000000000000	-	car	852.909	-413.962	0.000	0.000	180.000	696.000	987.000	-0.000	Terminate	
Unknown	61.98457	10/30/0116 10:44.24	00003719	8.156	Inter615t65-0	0.187	1	1	348.985	11.111	-96.8	0.222	0.000	D	F	1942.9	353.716	0.210	0.286	1499.972	1284.765	0.018	L	-2.053	1.568	-	-	-	22	2.262	18.453	-	PAVEMENT_GENERAL	Urban	F	1011101000111101	0000000000000000	-	car	854.982	-432.135	0.000	0.000	180.000	696.000	987.000	-0.000	Terminate	
Unknown	62.98459	10/30/0116 10:44.25	00003779	9.510	Inter615t65-0	0.861	1	1	328.929	11.111	-111.7	0.222	0.000	D	F	1923.8	336.590	0.200	0.395	1497.478	1293.240	0.022	L	-3.066	1.125	-	-	-	22	2.144	20.392	-	PAVEMENT_GENERAL	Urban	F	1011101000111101	0000000000000000	-	car	855.632	2064.100	0.000	0.000	180.000	696.000	987.000	-0.000	Terminate	
Unknown	63.98461	10/30/0116 10:44.26	00003839	10.288	Inter615t65-0	1.734	1	1	307.491	11.111	-192.0	0.168	0.000	D	F	1852.8	313.954	0.209	0.724	1491.719	1301.333	0.030	L	-5.371	0.215	-	-	-	22	2.257	23.222	-	PAVEMENT_GENERAL	Urban	F	1011101000111101	0000000000000000	-	car	853.195	200.055	0.000	0.000	180.000	696.000	987.000	-0.000	Terminate	
Unknown	64.98463	10/30/0116 10:44.27	00003899	10.549	Inter615t77-0	-1.270	1	1	269.734	11.111	-169.6	0.176	0.000	D	F	1905.0	280.801	0.145	0.739	1482.497	1305.865	0.035	L	-5.756	0.296	-	-	-	22	2.987	31.512	-	PAVEMENT_GENERAL	Urban	F	1011101000111101	0000000000000000	-	car	846.318	95.519	0.000	0.000	180.000	696.000	987.000	-0.000	Terminate	
Unknown	65.98465	10/30/0116 10:44.28	00003959	10.923	Inter615t3-4	-1.317	2	2	270.000	11.111	14.2	0.101	0.000	D	F	1453.5	265.560	0.194	-0.043	1471.767	1305.813	0.025	-	0.224	0.153	-	-	-	22	3.463	37.826	-	PAVEMENT_GENERAL	Urban	F	1011101000011101	0000000000000000	-	car	836.363	80.466	0.000	0.000	180.000	696.000	987.000	-0.000	Terminate	
Unknown	66.98467	10/30/0116 10:44.29	00004019	11.421	Inter615t19-0	1.639	1	1	270.082	11.111	1.4	0.175	0.000	D	F	1661.6	267.372	0.205	0.001	1460.652	1305.177	0.024	-	0.073	0.600	-	-	-	22	3.726	42.561	-	PAVEMENT_GENERAL	Urban	F	1011101000011101	0000000000000000	-	car	825.849	76.930	0.000	0.000	180.000	696.000	987.000	-0.000	Terminate	
Unknown	67.98470	10/30/0116 10:44.30	00004079	12.016	Inter615t19-0	1.148	1	1	270.108	11.111	9.1	0.199	0.000	D	F	1740.6	268.194	0.206	-0.050	1448.944	1304.699	0.024	-	0.348	0.645	-	-	-	22	4.165	50.050	-	PAVEMENT_GENERAL	Urban	F	1011101000011101	0000000000000000	-	car	814.866	72.673	0.000	0.000	180.000	696.000	987.000	-0.000	Terminate	
Unknown	68.98471	10/30/0116 10:44.31	00004139	12.758	Inter615t19-0	0.894	1	1	270.070	11.111	3.5	0.208	0.000	D	F	1808.5	269.549	0.204	-0.024	1436.555	1304.471	0.023	-	0.193	0.704	-	-	-	22	4.498	57.390	-	PAVEMENT_GENERAL	Urban	F	1011101000011101	0000000000000000	-	car	803.375	68.285	0.000	0.000	180.000	696.000	987.000	-0.000	Terminate	
Unknown	69.98473	10/30/0116 10:44.32	00004199	13.429	Inter615t19-0	0.801	1	1	270.061	11.111	-3.1	0.231	0.000	D	F	1878.3	269.589	0.206	0.021	1423.464	1304.394	0.023	-	-0.121	0.752	-	-	-	22	4.796	64.398	-	PAVEMENT_GENERAL	Urban	F	1111101000011101	0000000000000000	-	car	791.330	64.093	0.000	0.000	180.000	696.000	987.000	-0.000	Terminate	
Unknown	70.98476	10/30/0116 10:44.33	00004259	14.165	Inter615t1-2	0.601	1	2	270.000	11.111	2.7	0.240	0.000	D	F	1921.7	269.060	0.204	-0.005	1409.667	1304.201	0.023	-	0.083	0.726	-	-	-	22	4.993	70.721	-	PAVEMENT_GENERAL	Urban	F	1011101000011101	0000000000000000	-	car	778.625	59.726	0.000	0.000	180.000	696.000	987.000	-0.000	Terminate	
Unknown	71.98477	10/30/0116 10:44.34	00004319	14.892	Inter616t1-2	0.394	1	2	270.000	11.111	2.4	0.259	0.000	D	F	1972.0	269.250	0.202	-0.010	1395.139	1304.001	0.023	-	0.060	0.714	-	-	-	22	5.124	76.306	-	PAVEMENT_GENERAL	Urban	F	1011101000011101	0000000000000000	-	car	765.289	56.097	0.000	0.000	180.000	696.000	987.000	-0.000	Terminate	
Unknown	72.98479	10/30/0116 10:44.35	00004379	15.673	Inter616t1-2	0.231	1	2	270.000	11.111	2.3	0.390	0.000	D	F	2335.0	269.548	0.200	-0.017	1379.877	1303.837	0.022	-	0.114	0.875	-	-	-	22	5.178	81.164	-	PAVEMENT_GENERAL	Urban	F	1011101000011101	0000000000000000	-	car	751.347	52.642	0.000	0.000	180.000	696.000	987.000	-0.000	Terminate	
Unknown	73.98481	10/30/0116 10:44.36	00004439	16.916	Inter616t1-2	0.089	1	2	270.000	11.111	2.8	0.413	0.000	D	F	2899.5	269.330	0.205	-0.006	1363.611	1303.696	0.020	-	0.034	1.333	-	-	-	22	5.026	85.017	-	PAVEMENT_GENERAL	Urban	F	1011101000011101	0000000000000000	-	car	736.559	47.929	0.000	0.000	180.000	696.000	987.000	-0.000	Terminate	
Unknown	74.98483	10/30/0116 10:44.37	00004499	18.232	Inter616t1-2	-0.072	1	2	270.000	11.111	1.6	0.409	0.000	D	F	3094.9	269.590	0.203	-0.010	1346.034	1303.535	0.021	-	0.088	1.294	-	-	-	22	4.803	87.560	-	PAVEMENT_GENERAL	Urban	F	1011101000011101	0000000000000000	-	car	720.647	43.813	0.000	0.000	180.000	696.000	987.000	-0.000	Terminate	
Unknown	75.98486	10/30/0116 10:44.38	00004559	19.501	Inter616t1-2	-0.149	1	2	270.000	11.111	1.8	0.409	0.000	D	F	3271.8	270.025	0.201	-0.018	1327.164	1303.458	0.021	-	0.138	1.249	-	-	-	22	4.554	88.810	-	PAVEMENT_GENERAL	Urban	F	1011101000011101	0000000000000000	-	car	703.696	40.376	0.000	0.000	180.000	696.000	987.000	-0.000	Terminate	
Unknown	76.98487	10/30/0116 10:44.39	00004619	20.730	Inter616t1-2	-0.094	1	2	270.000	11.111	-0.3	0.409	0.000	D	F	3440.1	270.281	0.198	0.003	1307.046	1303.513	0.021	-	0.011	1.212	-	-	-	22	4.284	88.811	144.622	PAVEMENT_GENERAL	Urban	F	1011101000011101	0000000000000000	-	car	685.795	37.352	0.000	0.000	180.000	696.000	987.000	-0.000	Terminate	
Unknown	77.98489	10/30/0116 10:44.40	00004679	21.974	Inter616t1-2	0.013	1	2	270.000	11.111	1.0	0.587	0.000	D	F	3647.2	270.402	0.198	-0.015	1285.704	1303.619	0.021	-	0.090	1.327	-	-	-	22	3.986	87.589	47.135	PAVEMENT_GENERAL	Urban	F	1011101000011101	0000000000000000	-	car	666.968	34.582	0.000	0.000	180.000	696.000	987.000	-0.000	Terminate	
Unknown	78.98492	10/30/0116 10:44.41	00004739	23.269	Inter616t1-2	0.172	1	2	270.000	11.111	-0.4	0.242	0.000	D	F	2992.4	270.370	0.177	0.005	1263.057	1303.779	0.021	-	-0.036	0.725	-	-	-	22	3.656	85.061	26.978	PAVEMENT_GENERAL	Urban	F	1011101000011101	0000000000000000	-	car	647.181	31.975	0.000	0.000	180.000	696.000	987.000	-0.000	Terminate	
Unknown	79.98493	10/30/0116 10:44.42	00004799	23.238	Inter616t1-2	0.277	1	2	270.000	11.111	-0.4	0.257	0.000	D	F	2034.4	270.080	0.187	0.008	1239.776	1303.884	0.025	-	-0.075	0.196	-	-	-	22	3.524	81.900	26.231	PAVEMENT_GENERAL	Urban	F	1011101000011101	0000000000000000	-	car	627.012	31.254	0.000	0.000	180.000	696.000	987.000	-0.000	Terminate	
Unknown	80.98495	10/30/0116 10:44.43	00004859	23.565	Inter616t1-2	0.301	1	2	270.000	11.111	-2.6	0.451	0.000	D	F	2515.7	269.969	0.188	0.019	1216.401	1303.908	0.025	-	-0.119	0.522	-	-	-	22	3.337	78.645	22.800	PAVEMENT_GENERAL	Urban	F	1011101000011101	0000000000000000	-	car	606.942	30.146	0.000	0.000	180.000	696.000	987.000	-0.000	Terminate	
Unknown	81.98497	10/30/0116 10:44.44	00004919	24.184	Inter617t1-2	0.240	1	2	270.000	11.111	-1.5	0.451	0.000	D	F	2698.9	269.752	0.186	0.008	1192.534	1303.846	0.024	-	-0.071	0.640	-	-	-	22	3.097	74.897	18.411	PAVEMENT_GENERAL	Urban	F	1011101000011101	0000000000000000	-	car	586.655	28.697	0.000	0.000	180.000	696.000	987.000	-0.000	Terminate	
Unknown	82.98499	10/30/0116 10:44.45	00004979	24.817	Inter617t1-2	0.116	1	2	270.000	11.111	1.0	0.446	0.000	D	F	2762.4	269.726	0.185	-0.007	1168.033	1303.723	0.024	-	0.059	0.627	-	-	-	22	2.837	70.394	13.937	PAVEMENT_GENERAL	Urban	F	1011101000011101	0000000000000000	-	car	566.084	27.382	0.000	0.000	180.000	696.000	987.000	-0.000	Terminate	
Unknown	83.98502	10/30/0116 10:44.46	00005039	25.421	Inter617t1-2	0.041	1	2	270.000	11.111	1.8	0.360	0.000	D	F	2807.8	270.028	0.182	-0.018	1142.908	1303.648	0.024	-	0.143	0.563	-	-	-	22	2.541	64.593	9.841	PAVEMENT_GENERAL	Urban	F	1011101000011101	0000000000000000	-	car	545.356	26.301	0.000	0.000	180.000	696.000	987.000	-0.000	Terminate	
Unknown	84.98503	10/30/0116 10:44.47	00005099	25.189	Inter617t1-2	0.073	1	2	270.000	11.111	0.2	0.000	0.000	D	F	1744.8	270.074	0.168	0.007	1117.474	1303.680	0.030	-	-0.025	-0.688	-	-	-	22	2.289	57.647	8.397	PAVEMENT_GENERAL	Urban	F	1011101000011101	0000000000000000	-	car	524.828	26.087	0.000	0.000	180.000	696.000	987.000	-0.000	Terminate	
Unknown	85.98505	10/30/0116 10:44.48	00005159	24.651	Inter617t1-2	0.115	1	2	270.000	11.111	0.1	0.111	0.000	D	F	1848.4	270.190	0.175	-0.010	1092.596	1303.722	0.028	-	0.068	-0.303	-	-	-	22	2.092	51.576	9.502	PAVEMENT_GENERAL	Urban	F	1011101000011101	0000000000000000	-	car	505.185	26.296	0.000	0.000	180.000	696.000	987.000	-0.000	Terminate	
Unknown	86.98507	10/30/0116 10:44.49	00005219	24.345	Inter617t1-2	0.132	1	2	270.000	11.111	-1.0	0.000	0.000	D	F	1661.4	269.745	0.165	0.023	1068.084	1303.739	0.029	-	-0.189	-0.673	-	-	-	22	1.911	46.534	10.070	PAVEMENT_GENERAL	Urban	F	1011101000011101	0000000000000000	-	car	486.282	26.133	0.000	0.000	180.000	696.000	987.000	-0.000	Terminate	
Unknown	87.98509	10/30/0116 10:44.50	00005279	23.673	Inter617t1-2	0.038	1	2	270.000	11.111	0.3	0.000	0.000	D	F	1613.7	269.837	0.174	-0.007	1044.077	1303.645	0.030	-	0.055	-0.666	-	-	-	-	-	-	-	PAVEMENT_GENERAL	Urban	F	1111101000011101	0000000000000000	-	car	468.195	26.668	0.000	0.000	180.000	696.000	987.000	-0.000	Terminate	
Unknown	88.98512	10/30/0116 10:44.51	00005339	23.014	Inter617t1-2	-0.003	1	2	270.000	11.111	1.6	0.000	0.000	D	F	1569.0	270.074	0.175	-0.020	1020.734	1303.604	0.030	-	0.144	-0.654	-	-	-	-	-	-	-	PAVEMENT_GENERAL	Urban	F	1011101000011101	0000000000000000	-	car	451.172	27.415	0.000	0.000	180.000	696.000	987.000	-0.000	Terminate	
Unknown	89.98513	10/30/0116 10:44.52	00005399	20.767	Inter618t1-0	-0.605	1	2	270.000	24.444	2.9	0.000	0.713	D	F	1258.0	270.485	-0.024	-0.023	998.267	1303.695	0.043	-	0.138	-7.676	-	-	-	-	-	-	-	FREEWAY_SMOOTH	Urban	F	1011101000011101	0000000000000000	-	car	435.431	30.642	0.000	0.000	180.000	696.000	987.000	-0.000	Terminate	
Unknown	90.98515	10/30/0116 10:44.53	00005459	13.405	Inter618t1-0	-0.388	1	2	269.810	24.444	-7.4	0.000	0.131	D	F	898.2	271.228	0.254	-0.168	981.713	1303.898	0.049	-	-0.042	-2.597	-	-	-	-	-	-	-	FREEWAY_SMOOTH	Urban	F	1011101000011101	0000000000000000	-	car	424.321	48.433	0.000	0.000	180.000	696.000	987.000	-0.000	Terminate	
Unknown	91.98518	10/30/0116 10:44.54	00005519	12.805	Inter618t1-0	-0.268	1	2	269.288	24.444	-4.8	0.000	0.000	D	F	1075.8	269.086	0.245	-0.345	968.645	1303.924	0.054	-	-0.313	-0.567	-	-	-	-	-	-	-	FREEWAY_SMOOTH	Urban	F	1011101000011101	0000000000000000	-	car	415.703	48.880	0.000	0.000	180.000	696.000	987.000	-0.000	Terminate	
Unknown	92.98519	10/30/0116 10:44.55	00005579	12.572	Inter618t1-0	-0.342	1	2	268.454	24.444	-3.1	0.062	0.000	D	F	1387.6	268.233	0.247	-0.529	955.995	1303.610	0.064	-	-0.160	-0.145	-	-	-	-	-	-	-	FREEWAY_SMOOTH	Urban	F	1011101000011101	0000000000000000	-	car	407.323	49.226	0.000	0.000	180.000	696.000	987.000	-0.000	Terminate	
Unknown	93.98521	10/30/0116 10:44.56	00005639	12.368	Inter618t1-0	-0.394	1	2	267.333	24.444	4.0	0.014	0.000	D	F	1223.2	267.240	0.243	-0.733	943.520	1303.111	0.075	-	0.017	-0.435	-	-	-	-	-	-	-	FREEWAY_SMOOTH	Urban	F	1011101000011101	0000000000000000	-	car	399.128	49.365	0.000	0.000	180.000	696.000	987.000	-0.000	Terminate	
Unknown	94.98523	10/30/0116 10:44.57	00005699	11.874	Inter618t1-0	-0.268	1	2	265.948	24.444	-14.2	0.035	0.000	D	F	1246.0	266.760	0.264	-0.794	931.412	1302.538	0.090	-	-0.610	-0.383	-	-	-	-	-	-	-	FREEWAY_SMOOTH	Urban	F	1011101000011101	0000000000000000	-	car	391.319	51.305	0.000	0.000	180.000	696.000	987.000	-0.000	Terminate	
Unknown	95.98525	10/30/0116 10:44.58	00005759	11.646	Inter618t1-0	-0.216	1	2	264.334	24.444	-5.2	0.056	0.000	D	F	1307.0	264.578	0.255	-1.026	919.706	1301.607	0.100	-	-0.289	-0.146	-	-	-	-	-	-	-	FREEWAY_SMOOTH	Urban	F	1011101000011101	0000000000000000	-	car	383.674	50.383	0.000	0.000	180.000	696.000	987.000	-0.000	Terminate	
Unknown	96.98528	10/30/0116 10:44.59	00005819	11.659	Inter618t1-0	-0.174	1	2	262.481	24.444	-15.0	0.132	0.000	D	F	1556.6	262.673	0.265	-1.135	908.166	1300.328	0.111	-	-0.614	0.326	-	-	-	-	-	-	-	FREEWAY_SMOOTH	Urban	F	1011101000011101	0000000000000000	-	car	376.044	48.744	0.000	0.000	180.000	696.000	987.000	-0.000	Terminate	
Unknown	97.98529	10/30/0116 10:45.00	00005879	12.000	Inter618t1-0	-0.198	1	2	260.324	24.444	-7.5	0.139	0.000	D	F	1593.1	260.611	0.261	-1.337	896.474	1298.551	0.121	-	-0.348	0.348	-	-	-	-	-	-	-	FREEWAY_SMOOTH	Urban	F	1011101000011101	0000000000000000	-	car	368.118	45.713	0.000	0.000	180.000	696.000	987.000	-0.000	Terminate	
Unknown	98.98531	10/30/0116 10:45.01	00005939	12.307	Inter618t1-0	-0.193	1	2	257.826	24.444	-8.4	0.138	0.000	D	F	1602.1	257.939	0.253	-1.495	884.532	1296.268	0.134	-	-0.484	0.309	-	-	-	-	-	-	-	FREEWAY_SMOOTH	Urban	F	1011101000011101	0000000000000000	-	car	359.844	42.531	0.000	0.000	180.000	696.000	987.000	-0.000	Terminate	
Unknown	99.98534	10/30/0116 10:45.02	00005999	12.635	Inter618t1-0	-0.229	1	2	254.963	24.444	-9.2	0.159	0.000	D	F	1668.7	254.886	0.246	-1.657	872.419	1293.319	0.145	-	-0.560	0.377	-	-	-	-	-	-	-	FREEWAY_SMOOTH	Urban	F	1011101000011101	0000000000000000	-	car	351.130	39.264	0.000	0.000	180.000	696.000	987.000	-0.000	Terminate	
Unknown	100.98535	10/30/0116 10:45.03	00006059	13.269	Inter618t1-0	-0.232	1	2	251.807	24.444	-14.9	0.266	0.000	D	F	1897.7	252.129	0.211	-1.658	860.048	1289.644	0.145	-	-0.749	0.840	-	-	-	-	-	-	-	FREEWAY_SMOOTH	Urban	F	1011101000011101	0000000000000000	-	car	341.887	35.621	0.000	0.000	180.000	696.000	987.000	-0.000	Terminate	
Unknown	101.98537	10/30/0116 10:45.04	00006119	14.354	Inter618t1-0	-0.220	1	2	248.441	24.444	-16.5	0.310	0.000	D	F	2489.3	248.539	0.206	-1.633	847.082	1284.989	0.144	-	-0.931	1.203	-	-	-	-	-	-	-	FREEWAY_SMOOTH	Urban	F	1011101000011101	0000000000000000	-	car	331.741	30.933	0.000	0.000	180.000	696.000	987.000	-0.000	Terminate	
Unknown	102.98539	10/30/0116 10:45.05	00006179	15.527	Inter618t1-0	-0.243	1	2	244.788	24.444	-18.8	0.289	0.000	D	F	2655.5	244.661	0.193	-1.605	833.368	1279.052	0.143	-	-1.132	1.110	-	-	-	-	-	-	-	FREEWAY_SMOOTH	Urban	F	1011101000011101	0000000000000000	-	car	320.386	26.731	0.000	0.000	180.000	696.000	987.000	-0.000	Terminate	
Unknown	103.98541	10/30/0116 10:45.06	00006239	16.533	Inter618t1-0	-0.238	1	2	240.836	24.444	-17.0	0.266	0.000	D	F	2763.9	241.284	0.209	-1.618	819.089	1271.749	0.144	-	-1.033	0.951	-	-	-	-	-	-	-	FREEWAY_SMOOTH	Urban	F	1011101000011101	0000000000000000	-	car	307.855	23.599	0.000	0.000	180.000	696.000	987.000	-0.000	Terminate	
Unknown	104.98544	10/30/0116 10:45.07	00006299	17.246	Inter618t1-0	-0.116	1	2	236.698	24.444	-20.0	0.263	0.000	D	F	2100.3	237.018	0.195	-1.575	804.537	1263.098	0.150	-	-1.377	0.576	-	-	-	-	-	-	-	FREEWAY_SMOOTH	Urban	F	1011101000011101	0000000000000000	-	car	294.306	20.977	0.000	0.000	180.000	696.000	987.000	-0.000	Terminate	
Unknown	105.98545	10/30/0116 10:45.08	00006359	17.794	Inter618t1-0	-0.090	1	2	232.422	24.444	-19.9	0.266	0.000	D	F	2119.8	232.117	0.183	-1.561	790.235	1252.980	0.151	-	-1.504	0.543	-	-	-	-	-	-	-	FREEWAY_SMOOTH	Urban	F	1011101000011101	0000000000000000	-	car	279.821	18.668	0.000	0.000	180.000	696.000	987.000	-0.000	Terminate	
Unknown	106.98547	10/30/0116 10:45.09	00006419	18.314	Inter618t1-0	-0.233	1	2	228.006	24.444	-17.2	0.270	0.000	D	F	2151.9	227.157	0.163	-1.567	776.440	1241.337	0.147	-	-1.470	0.528	-	-	-	-	-	-	-	FREEWAY_SMOOTH	Urban	F	1011101000011101	0000000000000000	-	car	264.395	16.605	0.000	0.000	180.000	696.000	987.000	-0.000	Terminate	
Unknown	107.98550	10/30/0116 10:45.10	00006479	18.824	Inter618t1-0	-0.377	1	2	223.451	24.444	-20.3	0.270	0.000	D	F	2191.5	223.068	0.177	-1.562	763.228	1228.291	0.142	-	-1.532	0.510	-	-	-	-	-	-	-	FREEWAY_SMOOTH	Urban	F	1011101000011101	0000000000000000	-	car	248.122	14.860	0.000	0.000	180.000	696.000	987.000	-0.000	Terminate	
Unknown	108.98551	10/30/0116 10:45.11	00006539	19.312	Inter618t1-0	-0.499	1	2	218.788	24.444	-17.6	0.270	0.000	D	F	2231.6	218.138	0.165	-1.563	750.764	1213.865	0.139	-	-1.549	0.497	-	-	-	-	-	-	-	FREEWAY_SMOOTH	Urban	F	1111101000011101	0000000000000000	-	car	231.022	13.153	0.000	0.000	180.000	696.000	987.000	-0.000	Terminate	
Unknown	109.98553	10/30/0116 10:45.12	00006599	19.794	Inter618t1-0	-0.538	1	2	214.004	24.444	-20.4	0.270	0.000	D	F	2268.6	214.198	0.194	-1.558	739.176	1198.117	0.138	-	-1.482	0.480	-	-	-	-	-	-	-	FREEWAY_SMOOTH	Urban	F	1011101000011101	0000000000000000	-	car	213.128	11.666	0.000	0.000	180.000	696.000	987.000	-0.000	Terminate	
Unknown	110.98555	10/30/0116 10:45.13	00006659	20.244	Inter618t1-0	-0.494	1	2	209.078	24.444	-20.9	0.272	0.000	D	F	2302.6	208.388	0.160	-1.499	728.647	1181.096	0.139	-	-2.029	0.467	-	-	-	-	-	-	-	FREEWAY_SMOOTH	Urban	F	1011101000011101	0000000000000000	-	car	194.463	10.150	0.000	0.000	180.000	696.000	987.000	-0.000	Terminate	
Unknown	111.98557	10/30/0116 10:45.14	00006719	20.690	Inter618t1-0	-0.635	1	2	204.069	24.444	-20.2	0.270	0.000	D	F	2334.3	203.457	0.163	-1.526	719.595	1162.744	0.135	-	-1.764	0.454	-	-	-	-	-	-	-	FREEWAY_SMOOTH	Urban	F	1011101000011101	0000000000000000	-	car	174.962	8.789	0.000	0.000	180.000	696.000	987.000	-0.000	Terminate	
Unknown	112.98560	10/30/0116 10:45.15	00006779	21.114	Inter618t1-0	-0.803	1	2	198.941	24.444	-15.7	0.268	0.000	D	F	2364.9	197.851	0.145	-1.523	712.066	1143.251	0.130	-	-1.851	0.443	-	-	-	-	-	-	-	FREEWAY_SMOOTH	Urban	F	1011101000011101	0000000000000000	-	car	154.715	7.491	0.000	0.000	180.000	696.000	987.000	-0.000	Terminate	
Unknown	113.98561	10/30/0116 10:45.16	00006839	21.329	Inter618t1-0	-0.825	1	2	193.764	24.444	-21.4	0.000	0.000	D	F	1657.7	194.119	0.109	-1.422	706.072	1122.812	0.127	-	-1.740	-0.622	-	-	-	-	-	-	-	FREEWAY_SMOOTH	Urban	F	1011101000011101	0000000000000000	-	car	133.826	6.369	0.000	0.000	180.000	696.000	987.000	-0.000	Terminate	
Unknown	114.98563	10/30/0116 10:45.17	00006899	20.640	Inter618t1-0	-0.775	1	2	189.347	24.444	-13.4	0.000	0.113	D	F	1395.3	188.666	0.095	-1.168	701.821	1102.253	0.113	-	-1.544	-1.330	-	-	-	-	-	-	-	FREEWAY_SMOOTH	Urban	F	1011101000011101	0000000000000000	-	car	113.040	5.505	0.000	0.000	180.000	696.000	987.000	-0.000	Terminate	
Unknown	115.98566	10/30/0116 10:45.18	00006959	17.413	Inter618t1-0	-0.866	1	2	186.076	24.444	-6.7	0.000	0.000	D	F	1187.9	185.583	0.141	-0.997	699.372	1083.462	0.099	-	-0.887	-1.004	-	-	-	-	-	-	-	FREEWAY_SMOOTH	Urban	F	1011101000011101	0000000000000000	-	car	94.162	5.418	0.000	0.000	180.000	696.000	987.000	-0.000	Terminate	
Unknown	116.98567	10/30/0116 10:45.19	00007019	16.840	Inter618t1-0	-0.889	1	2	183.724	24.444	-4.4	0.000	0.000	D	F	1148.5	183.972	0.140	-0.806	697.936	1066.397	0.080	-	-0.419	-0.572	-	-	-	-	-	-	-	FREEWAY_SMOOTH	Urban	F	1011101000011101	0000000000000000	-	car	77.061	4.581	0.000	0.000	180.000	696.000	987.000	-0.000	Terminate	
Unknown	117.98569	10/30/0116 10:45.20	00007079	16.275	Inter618t1-0	-0.636	1	2	181.987	24.444	-0.0	0.000	0.000	D	F	1109.8	183.685	0.155	-0.629	696.864	1049.875	0.069	-	-0.011	-0.560	-	-	-	-	-	-	-	FREEWAY_SMOOTH	Urban	F	1011101000011101	0000000000000000	-	car	60.521	3.723	0.000	0.000	180.000	696.000	987.000	-0.000	Terminate	
Unknown	118.98571	10/30/0116 10:45.21	00007139	15.223	Inter618t1-0	-0.041	1	2	180.829	24.444	-10.8	0.000	0.084	D	F	1027.9	183.188	0.138	-0.349	695.885	1034.029	0.062	-	-0.453	-1.504	-	-	-	-	-	-	-	FREEWAY_SMOOTH	Urban	F	1011101000011101	0000000000000000	-	car	44.670	2.939	0.000	0.000	180.000	696.000	987.000	-0.000	Terminate	
Unknown	119.98573	10/30/0116 10:45.22	00007199	13.582	Inter618t1-0	0.280	1	2	180.209	24.444	-14.1	0.000	0.096	D	F	915.8	179.989	0.103	-0.102	695.439	1019.616	0.048	-	-0.796	-1.709	-	-	-	-	-	-	-	FREEWAY_SMOOTH	Urban	F	1011101000011101	0000000000000000	-	car	30.520	2.433	1.033	2.000	179.096	696.005	986.742	-0.000	Terminate	
Unknown	120.98576	10/30/0116 10:45.23	00007259	11.250	Inter618t1-0	0.048	1	2	180.006	24.444	0.4	0.000	0.296	D	F	1041.5	178.308	0.057	-0.017	695.652	1006.989	0.037	-	-0.095	-3.900	-	-	-	-	-	-	-	FREEWAY_SMOOTH	Urban	F	1011101000011101	0000000000000000	-	car	19.906	2.422	3.033	2.000	176.540	696.129	984.729	-0.000	Terminate	
Unknown	121.98577	10/30/0116 10:45.24	00007319	6.755	Inter686t1-0	0.528	1	1	180.000	11.111	2.0	0.000	0.310	D	F	636.0	179.045	0.142	-0.003	695.868	997.994	0.038	-	0.037	-4.171	-	-	-	-	-	-	-	PAVEMENT_GENERAL	Urban	F	1011101000011101	0000000000000000	-	car	14.925	8.669	5.033	2.000	177.773	696.311	980.716	-0.000	Terminate	
Unknown	122.98579	10/30/0116 10:45.25	00007379	5.569	Inter686t1-0	0.410	1	1	180.000	11.111	-2.7	0.086	0.000	D	F	1163.9	178.643	0.218	-0.001	695.987	992.175	0.027	-	-0.008	0.226	-	-	-	car	2.290	12.756	-	PAVEMENT_GENERAL	Urban	F	1011101000011101	0000000000000000	-	car	15.121	-10.335	7.033	2.000	179.664	696.395	974.700	-0.000	Terminate	
Unknown	123.98581	10/30/0116 10:45.26	00007439	6.402	Inter686t1-0	0.266	1	1	180.000	11.111	2.4	0.206	0.000	D	F	1700.9	178.637	0.227	-0.004	696.130	986.323	0.020	-	0.037	1.666	-	-	-	car	2.331	14.921	-	PAVEMENT_GENERAL	Urban	F	1011101000011101	0000000000000000	-	car	17.282	-6.569	9.033	2.000	180.025	696.398	966.683	-0.000	Terminate	
Unknown	124.98583	10/30/0116 10:45.27	00007499	8.130	Inter686t1-0	0.110	1	1	180.000	11.111	-0.2	0.291	0.000	D	F	1892.9	178.770	0.217	0.002	696.286	979.068	0.018	-	-0.005	1.710	-	-	-	car	2.175	17.683	-	PAVEMENT_GENERAL	Urban	F	1011101000011101	0000000000000000	-	car	20.043	-6.900	11.034	2.000	180.003	696.397	956.666	-0.000	Terminate	
Unknown	125.98586	10/30/0116 10:45.28	00007559	9.720	Inter686t1-0	-0.084	1	1	180.000	11.111	-0.0	0.284	0.000	D	F	2010.7	178.745	0.214	0.001	696.480	970.121	0.019	-	-0.004	1.479	-	-	-	car	2.135	20.753	-	PAVEMENT_GENERAL	Urban	F	1011101000011101	0000000000000000	-	car	23.113	-6.970	13.034	2.000	180.003	696.397	944.648	-0.000	Terminate	
Unknown	126.98587	10/30/0116 10:45.29	00007619	11.097	Inter686t1-0	-0.242	1	1	180.000	11.111	-0.7	0.282	0.000	D	F	2115.3	179.569	0.212	0.008	696.638	959.697	0.020	-	0.026	1.301	-	-	-	car	2.194	24.347	-	PAVEMENT_GENERAL	Urban	F	1011101000011101	0000000000000000	-	car	26.708	-6.782	15.034	2.000	180.003	696.397	930.631	-0.000	Terminate	
Unknown	127.98589	10/30/0116 10:45.30	00007679	12.346	Inter686t1-0	-0.285	1	1	180.000	11.111	2.9	0.286	0.000	D	F	2242.8	180.298	0.209	-0.028	696.682	947.965	0.021	-	0.191	1.193	-	-	-	car	2.319	28.632	-	PAVEMENT_GENERAL	Urban	F	1011101000011101	0000000000000000	-	car	30.993	-6.613	17.034	2.000	180.002	696.397	914.614	-0.000	Terminate	
Unknown	128.98592	10/30/0116 10:45.31	00007739	13.507	Inter686t1-0	-0.220	1	1	180.000	11.111	-2.3	0.282	0.000	D	F	2378.7	180.160	0.208	0.009	696.616	935.033	0.021	-	-0.087	1.128	-	-	-	car	2.489	33.619	-	PAVEMENT_GENERAL	Urban	F	1011101000011101	0000000000000000	-	car	35.980	-7.088	18.584	1.000	180.002	696.397	896.694	-0.000	Terminate	
Unknown	129.98593	10/30/0116 10:45.32	00007799	14.614	Inter686t1-0	-0.225	1	1	180.000	11.111	-1.5	0.284	0.000	D	F	2522.9	179.798	0.206	0.010	696.621	920.969	0.021	-	-0.077	1.089	-	-	-	car	2.640	38.579	-	PAVEMENT_GENERAL	Urban	F	1011101000011101	0000000000000000	-	car	40.939	-8.643	19.350	0.500	180.002	696.397	877.671	-0.000	Terminate	
Unknown	130.98595	10/30/0116 10:45.33	00007859	15.670	Inter686t1-0	-0.317	1	1	180.000	11.111	1.6	0.277	0.000	D	F	2671.7	179.508	0.204	-0.008	696.713	905.822	0.022	-	0.019	1.032	-	-	-	car	2.746	43.029	-	PAVEMENT_GENERAL	Urban	F	1011101000011101	0000000000000000	-	car	45.389	-10.854	19.850	0.500	180.002	696.397	858.074	-0.000	Terminate	
Unknown	131.98598	10/30/0116 10:45.34	00007919	16.822	Inter686t1-0	-0.404	1	1	180.000	11.111	2.6	0.326	0.000	D	F	2874.1	179.955	0.205	-0.020	696.800	889.592	0.021	-	0.154	1.196	-	-	-	car	2.785	46.842	-	PAVEMENT_GENERAL	Urban	F	1011101000011101	0000000000000000	-	car	49.203	-14.937	20.116	0.000	180.002	696.397	838.031	-0.000	Terminate	
Unknown	132.98599	10/30/0116 10:45.35	00007979	16.890	Inter686t1-0	-0.348	1	1	180.000	11.111	-1.6	0.000	0.000	D	F	1685.0	180.479	0.185	-0.004	696.745	872.556	0.029	-	0.040	-0.602	-	-	-	car	2.956	49.922	-	PAVEMENT_GENERAL	Urban	F	1011101000011101	0000000000000000	-	car	52.282	-16.211	20.116	0.000	180.002	696.397	817.915	-0.000	Terminate	
Unknown	133.98601	10/30/0116 10:45.36	00008039	16.293	Inter686t1-0	-0.259	1	1	180.000	11.111	-1.6	0.002	0.000	D	F	1601.0	180.095	0.187	0.016	696.655	855.965	0.029	-	-0.121	-0.577	-	-	-	car	3.280	53.447	-	PAVEMENT_GENERAL	Urban	F	1011101000011101	0000000000000000	-	car	55.807	-14.599	20.116	0.000	179.994	696.402	797.799	-0.000	Terminate	
Unknown	134.98604	10/30/0116 10:45.37	00008099	15.861	Inter686t1-0	-0.281	1	1	180.000	11.111	-1.6	0.039	0.000	D	F	1568.2	179.719	0.189	0.012	696.677	839.908	0.028	-	-0.095	-0.380	-	-	-	car	3.626	57.506	-	PAVEMENT_GENERAL	Urban	F	1011101000011101	0000000000000000	-	car	59.866	-14.069	20.116	0.000	179.996	696.403	777.683	-0.000	Terminate	
Unknown	135.98605	10/30/0116 10:45.38	00008159	15.685	Inter686t1-0	-0.381	1	1	180.000	11.111	4.4	0.102	0.000	D	F	1713.6	179.754	0.194	-0.028	696.778	824.166	0.027	-	0.202	-0.060	-	-	-	car	3.945	61.880	-	PAVEMENT_GENERAL	Urban	F	1011101000011101	0000000000000000	-	car	64.241	-14.497	20.116	0.000	179.996	696.403	757.567	-0.000	Terminate	
Unknown	136.98607	10/30/0116 10:45.39	00008219	15.687	Inter686t1-0	-0.407	1	1	180.000	11.111	-0.3	0.134	0.000	D	F	1776.8	179.916	0.195	0.002	696.803	808.490	0.026	-	-0.019	0.066	-	-	-	car	4.228	66.320	-	PAVEMENT_GENERAL	Urban	F	1011101000011101	0000000000000000	-	car	68.681	-15.506	20.116	0.000	179.996	696.403	737.451	-0.000	Terminate	
Unknown	137.98610	10/30/0116 10:45.40	00008279	16.028	Inter682t1-1	-0.402	1	1	180.000	11.111	0.9	0.189	0.000	D	F	1912.6	180.100	0.197	-0.007	696.806	792.651	0.025	-	0.053	0.377	-	-	-	car	4.405	70.597	-	PAVEMENT_GENERAL	Urban	F	1011101000011101	0000000000000000	-	car	72.957	-17.849	20.116	0.000	179.996	696.403	717.335	-0.000	Terminate	
Unknown	138.98611	10/30/0116 10:45.41	00008339	16.384	Inter682t1-1	-0.351	1	1	180.000	11.111	0.4	0.190	0.000	D	F	1928.4	180.249	0.196	0.002	696.755	776.443	0.025	-	0.018	0.353	-	-	-	car	4.547	74.505	-	PAVEMENT_GENERAL	Urban	F	1011101000011101	0000000000000000	-	car	76.865	-20.596	20.116	0.000	179.996	696.403	697.219	-0.000	Terminate	
Unknown	139.98613	10/30/0116 10:45.42	00008399	16.733	Inter682t1-1	-0.266	1	1	180.000	11.111	-4.8	0.196	0.000	D	F	1959.4	180.186	0.196	0.028	696.670	759.885	0.025	-	-0.203	0.348	-	-	-	car	4.665	78.062	-	PAVEMENT_GENERAL	Urban	F	1011101000011101	0000000000000000	-	car	80.422	-23.771	20.116	0.000	179.996	696.403	677.103	-0.000	Terminate	
Unknown	140.98616	10/30/0116 10:45.43	00008459	17.081	Inter682t1-1	-0.333	1	1	180.000	11.111	3.1	0.198	0.000	D	F	1989.6	179.569	0.195	-0.017	696.737	742.979	0.025	-	0.096	0.349	-	-	-	car	4.758	81.272	-	PAVEMENT_GENERAL	Urban	F	1111101000011101	0000000000000000	-	car	83.632	-27.543	20.116	0.000	179.996	696.403	656.987	-0.000	Terminate	
Unknown	141.98618	10/30/0116 10:45.44	00008519	17.420	Inter682t1-1	-0.397	1	1	180.000	11.111	2.5	0.196	0.000	D	F	2011.3	179.980	0.195	-0.018	696.801	725.727	0.025	-	0.118	0.331	-	-	-	car	4.830	84.137	-	PAVEMENT_GENERAL	Urban	F	1011101000011101	0000000000000000	-	car	86.497	-32.081	20.116	0.000	179.996	696.403	636.871	-0.000	Terminate	
Unknown	142.98619	10/30/0116 10:45.45	00008579	17.753	Inter682t1-1	-0.372	1	1	180.000	11.111	0.5	0.203	0.000	D	F	2046.7	180.158	0.195	-0.005	696.776	708.141	0.025	-	0.032	0.343	-	-	-	car	4.882	86.667	-	PAVEMENT_GENERAL	Urban	F	1011101000011101	0000000000000000	-	car	89.027	-37.678	20.116	0.000	179.998	696.403	616.755	-0.000	Terminate	
Unknown	143.98621	10/30/0116 10:45.46	00008639	18.089	Inter682t1-1	-0.357	1	1	180.000	11.111	-0.2	0.201	0.000	D	F	2069.9	179.761	0.194	0.010	696.761	690.219	0.025	-	-0.113	0.329	-	-	-	car	4.912	88.861	-	PAVEMENT_GENERAL	Urban	F	1011101000011101	0000000000000000	-	car	91.221	-45.002	20.116	0.000	179.804	696.403	596.639	-0.000	Terminate	
Unknown	144.98624	10/30/0116 10:45.47	00008699	18.410	Inter682t1-1	-0.430	1	1	180.000	11.111	0.2	0.203	0.000	D	F	2091.1	179.799	0.193	-0.003	696.834	671.968	0.025	-	0.023	0.317	-	-	-	car	4.881	89.855	93.565	PAVEMENT_GENERAL	Urban	F	1011101000011101	0000000000000000	-	car	92.206	91.705	17.449	-4.000	175.759	697.031	577.403	-0.000	Terminate	
Unknown	145.98625	10/30/0116 10:45.48	00008759	18.715	Inter682t1-1	-0.500	1	1	180.000	11.111	-0.3	0.201	0.000	D	F	2111.5	179.753	0.192	0.002	696.904	653.405	0.025	-	-0.019	0.298	-	-	-	car	4.636	86.770	16.478	PAVEMENT_GENERAL	Urban	F	1011101000011101	0000000000000000	-	car	89.075	16.796	13.449	-4.000	174.686	698.418	561.983	-0.000	Terminate	
Unknown	146.98627	10/30/0116 10:45.49	00008819	18.999	Inter682t1-1	-0.575	1	1	180.000	11.111	2.7	0.192	0.000	D	F	2119.1	179.936	0.192	-0.022	696.979	634.545	0.025	-	0.168	0.267	-	-	-	car	4.256	80.862	12.252	PAVEMENT_GENERAL	Urban	F	1011101000011101	0000000000000000	-	car	83.105	12.593	12.399	-1.000	176.439	699.452	549.116	-0.000	Terminate	
Unknown	147.98630	10/30/0116 10:45.50	00008879	18.874	Inter682t1-1	-0.548	1	1	180.000	11.111	-0.0	0.000	0.000	D	F	1409.5	180.228	0.179	-0.009	696.951	615.531	0.029	-	0.054	-0.565	-	-	-	-	-	-	-	PAVEMENT_GENERAL	Urban	F	1011101000011101	0000000000000000	-	car	76.211	10.162	11.361	-4.030	179.178	699.856	537.014	-0.000	Terminate	
Unknown	148.98631	10/30/0116 10:45.51	00008939	16.847	Inter688t25-1	-0.514	1	1	180.000	11.111	-2.5	0.000	0.185	D	F	1121.9	179.803	0.148	0.028	696.910	597.408	0.034	-	-0.205	-2.856	-	-	-	-	-	-	-	PAVEMENT_GENERAL	Urban	F	1011101000011101	0000000000000000	-	car	67.479	7.094	7.326	-4.043	179.606	699.949	527.636	-0.000	Terminate	
Unknown	149.98633	10/30/0116 10:45.52	00008999	12.931	Inter688t29-0	-0.662	1	1	180.072	11.111	-17.9	0.000	0.346	D	F	950.1	178.519	0.097	0.119	697.057	582.349	0.039	-	-0.658	-4.626	-	-	-	car	4.289	55.456	5.738	PAVEMENT_GENERAL	Urban	F	1011101000011101	0000000000000000	-	car	57.758	5.976	3.266	-4.089	179.725	699.977	522.303	-0.000	Terminate	
Unknown	150.98636	10/30/0116 10:45.53	00009059	8.748	Inter688t33-0	-0.474	1	1	173.188	11.111	-10.4	0.000	0.101	D	F	846.5	174.937	0.180	0.036	697.660	571.674	0.036	-	-0.354	-2.263	-	-	-	car	5.266	46.072	5.266	PAVEMENT_GENERAL	Urban	F	1011101000011101	0000000000000000	-	car	48.372	5.534	0.000	0.000	179.133	699.991	520.996	-0.000	Terminate	
Unknown	151.98637	10/30/0116 10:45.54	00009119	8.277	Inter688t33-0	-0.306	1	1	174.351	11.111	9.0	0.021	0.000	D	F	922.8	174.821	0.197	-0.025	698.458	563.244	0.028	-	0.203	-0.318	-	-	-	car	4.540	37.578	4.540	PAVEMENT_GENERAL	Urban	F	1011101000011101	0000000000000000	-	car	39.917	4.830	0.000	0.000	179.133	699.991	520.996	-0.000	Terminate	
Unknown	152.98639	10/30/0116 10:45.55	00009179	7.838	Inter688t33-0	0.051	1	1	176.027	11.111	13.4	0.000	0.000	D	F	770.3	176.439	0.196	-0.038	699.055	555.197	0.028	-	0.283	-0.474	-	-	-	car	3.766	29.515	3.766	PAVEMENT_GENERAL	Urban	F	1011101000011101	0000000000000000	-	car	31.855	4.067	0.000	0.000	179.133	699.991	520.996	-0.000	Terminate	
Unknown	153.98642	10/30/0116 10:45.56	00009239	6.406	Inter688t33-0	0.230	1	1	176.027	11.111	10.4	0.000	0.239	D	F	608.7	177.932	0.124	-0.020	699.391	547.768	0.034	-	0.151	-3.464	-	-	-	car	3.447	22.081	3.447	PAVEMENT_GENERAL	Urban	F	1011101000011101	0000000000000000	-	car	24.420	3.812	0.000	0.000	179.133	699.991	520.996	-0.000	Terminate	
Unknown	154.98643	10/30/0116 10:45.57	00009299	3.609	Inter688t27-1	0.440	LT1	1	179.909	11.111	5.1	0.000	0.021	D	F	507.6	178.694	0.216	-0.003	699.512	542.970	0.032	-	0.037	-0.799	-	-	-	car	4.782	17.256	4.782	PAVEMENT_GENERAL	Urban	F	1111101000011101	0000000000000000	-	car	19.620	5.437	0.000	0.000	179.133	699.991	520.996	-0.000	Terminate	
Unknown	155.98645	10/30/0116 10:45.58	00009359	3.144	Inter688t27-1	0.395	LT1	1	179.909	11.111	7.3	0.000	0.000	D	F	477.5	179.227	0.200	0.003	699.562	539.597	0.028	-	-0.002	-0.455	-	-	-	car	4.416	13.883	4.416	PAVEMENT_GENERAL	Urban	F	1011101000011101	0000000000000000	-	car	16.247	5.168	0.000	0.000	179.133	699.991	520.996	-0.000	Terminate	
Unknown	156.98647	10/30/0116 10:45.59	00009419	2.741	Inter688t27-1	0.366	LT1	1	179.909	11.111	0.8	0.000	0.000	D	F	477.5	179.280	0.201	-0.003	699.596	536.660	0.028	-	0.015	-0.375	-	-	-	car	3.994	10.946	3.994	PAVEMENT_GENERAL	Urban	F	1011101000011101	0000000000000000	-	car	13.310	4.857	0.000	0.000	179.133	699.991	520.996	-0.000	Terminate	
Unknown	157.98650	10/30/0116 10:46.00	00009479	2.378	Inter688t27-1	0.346	LT1	1	179.909	11.111	3.3	0.000	0.000	D	F	477.8	179.458	0.197	-0.000	699.620	534.099	0.028	-	0.006	-0.461	-	-	-	car	3.699	8.797	8.159	PAVEMENT_GENERAL	Urban	F	1011101000011101	0000000000000000	-	car	11.161	10.356	1.300	2.000	178.758	700.000	520.584	-0.000	Terminate	
Unknown	158.98651	10/30/0116 10:46.01	00009539	2.784	Inter688t27-1	0.335	LT1	1	179.909	11.111	3.3	0.085	0.000	D	F	1280.8	179.621	0.197	-0.001	699.634	531.779	0.020	-	0.011	1.643	-	-	-	car	3.146	8.756	-	PAVEMENT_GENERAL	Urban	F	1011101000011101	0000000000000000	-	car	11.124	-21.528	3.300	2.000	176.494	700.124	518.304	-0.000	Terminate	
Unknown	159.98653	10/30/0116 10:46.02	00009599	4.530	Inter688t27-1	0.329	LT1	1	179.909	11.111	-0.8	0.205	0.000	D	F	1802.1	179.802	0.235	0.007	699.647	528.161	0.018	-	-0.019	2.302	-	-	-	car	2.084	9.441	-	PAVEMENT_GENERAL	Urban	F	1011101000011101	0000000000000000	-	car	11.776	-15.609	5.300	2.000	169.567	700.757	514.069	-0.000	Terminate	
Unknown	160.98656	10/30/0116 10:46.03	00009659	6.685	Inter688t27-1	0.313	LT1	1	179.909	11.111	-1.9	0.205	0.000	D	F	2095.1	179.738	0.219	0.002	699.671	522.498	0.017	-	-0.029	1.915	-	-	-	car	1.506	10.067	-	PAVEMENT_GENERAL	Urban	F	1011101000011101	0000000000000000	-	car	12.309	-20.959	7.300	2.000	153.661	702.990	508.209	-0.000	Terminate	
Unknown	161.98657	10/30/0116 10:46.04	00009719	8.023	Inter688t59-0	0.398	1	1	168.346	11.111	-71.4	0.152	0.000	D	F	1657.3	175.963	0.205	0.209	699.924	515.050	0.022	-	-1.512	0.876	-	-	-	car	1.386	11.117	-	PAVEMENT_GENERAL	Urban	F	1011101000011101	0000000000000000	-	car	13.265	-7.161	9.300	2.000	133.126	708.097	501.733	-0.000	Terminate	
Unknown	162.98659	10/30/0116 10:46.05	00009779	7.954	Inter688t59-0	1.417	1	1	150.575	11.111	-122.0	0.000	0.000	D	F	811.3	160.337	0.170	0.339	701.738	507.154	0.029	-	-2.617	-0.621	-	-	-	car	1.652	13.136	-	PAVEMENT_GENERAL	Urban	F	1011101000011101	0000000000000000	-	car	15.564	-4.587	10.350	1.000	101.518	716.866	497.542	-0.000	Terminate	
