"Name"	"Project"	"Time"	ZoneName	Time	SystemTime	Frame	Velocity	LaneName	LanePos	LaneIndex	LaneCount	LaneHeading	SpeedLimit	Steer	Accel	Brake	Gear	Horn	SubjectEngineRPM	SubjectHeading	SubjectPitch	SubjectRoll	SubjectX	SubjectY	SubjectZ	Signal	LatAccel	LongAccel	Collision	CollisionAngle	CollisionVelocity	VehAhead	HeadwayTime	HeadwayDist	TTC	TerrainType	CultureType	Slip	DigitalInputs	DigitalInputs2	ActiveTrigger	EntityName	DistToEntity	TimeToEntity	EntityVelocity	EntityAccel	EntityHeading	EntityX	EntityY	EntityZ	GrabData	
"Student1mode3"	"Tanvi_6"	"Nov 22, 2016 07:56:34 AM"	Unknown	0.98335	10/22/0116 07:56.38	00000059	0.002	Inter625t13-0	-0.088	1	2	0.000	11.111	11.5	0.000	0.000	D	F	0.0	0.004	0.153	-0.004	1503.500	523.206	0.019	-	-0.000	0.000	-	-	-	-	-	-	-	PAVEMENT_GENERAL	Urban	F	1111101000000001	0000000000000000	-	car	928.855	774516.688	0.000	0.000	180.000	696.000	987.000	-0.000	Terminate	
"Student1mode3"	"Tanvi_6"	"Nov 22, 2016 07:56:34 AM"	Unknown	1.98337	10/22/0116 07:56.39	00000119	0.001	Inter625t13-0	-0.088	1	2	0.000	11.111	11.7	0.000	0.803	D	F	0.0	0.002	0.195	0.000	1503.500	523.208	0.026	-	0.000	0.001	-	-	-	-	-	-	-	PAVEMENT_GENERAL	Urban	F	1111101000000001	0000000000000000	-	car	928.854	2935860.250	0.000	0.000	180.000	696.000	987.000	-0.000	Terminate	
"Student1mode3"	"Tanvi_6"	"Nov 22, 2016 07:56:34 AM"	Unknown	2.98339	10/22/0116 07:56.40	00000179	0.000	Inter625t13-0	-0.088	1	2	0.000	11.111	11.5	0.000	0.845	D	F	0.0	0.002	0.204	0.000	1503.500	523.208	0.027	-	-0.000	-0.000	-	-	-	-	-	-	-	PAVEMENT_GENERAL	Urban	F	1011101000001001	0000000000000000	-	car	928.854	7926312.000	0.000	0.000	180.000	696.000	987.000	-0.000	Terminate	
"Student1mode3"	"Tanvi_6"	"Nov 22, 2016 07:56:34 AM"	Unknown	3.98341	10/22/0116 07:56.41	00000239	0.000	Inter625t13-0	-0.088	1	2	0.000	11.111	11.5	0.000	0.857	D	F	0.0	0.002	0.207	0.000	1503.500	523.208	0.027	-	-0.000	-0.000	-	-	-	-	-	-	-	PAVEMENT_GENERAL	Urban	F	1111101000001001	0000000000000000	-	car	928.854	20117846.000	0.000	0.000	180.000	696.000	987.000	-0.000	Terminate	
"Student1mode3"	"Tanvi_6"	"Nov 22, 2016 07:56:34 AM"	Unknown	4.98343	10/22/0116 07:56.42	00000299	0.000	Inter625t13-0	-0.088	1	2	0.000	11.111	11.0	0.000	0.901	D	F	261.1	0.002	0.208	0.000	1503.500	523.208	0.027	-	-0.000	-0.000	-	-	-	-	-	-	-	PAVEMENT_GENERAL	Urban	F	1111101000001011	0000000000000000	-	car	928.854	50947256.000	0.000	0.000	180.000	696.000	987.000	-0.000	Terminate	
"Student1mode3"	"Tanvi_6"	"Nov 22, 2016 07:56:34 AM"	Unknown	5.98345	10/22/0116 07:56.43	00000359	0.000	Inter625t13-0	-0.088	1	2	0.000	11.111	11.0	0.000	0.985	D	F	477.5	0.002	0.208	0.000	1503.500	523.208	0.028	-	-0.000	-0.000	-	-	-	-	-	-	-	PAVEMENT_GENERAL	Urban	F	1011101000001001	0000000000000000	-	car	928.854	129046064.000	0.000	0.000	180.000	696.000	987.000	-0.000	Terminate	
"Student1mode3"	"Tanvi_6"	"Nov 22, 2016 07:56:34 AM"	Unknown	6.98347	10/22/0116 07:56.44	00000419	0.000	Inter625t13-0	-0.088	1	2	0.000	11.111	11.0	0.000	0.919	D	F	477.5	0.002	0.208	0.000	1503.500	523.208	0.028	-	-0.000	-0.000	-	-	-	-	-	-	-	PAVEMENT_GENERAL	Urban	F	1111101000001001	0000000000000000	-	car	928.854	323931232.000	0.000	0.000	180.000	696.000	987.000	-0.000	Terminate	
"Student1mode3"	"Tanvi_6"	"Nov 22, 2016 07:56:34 AM"	Unknown	7.98349	10/22/0116 07:56.45	00000479	0.000	Inter625t13-0	-0.088	1	2	0.000	11.111	10.1	0.000	0.000	D	F	477.5	0.002	0.208	-0.000	1503.500	523.208	0.028	-	0.000	0.001	-	-	-	-	-	-	-	PAVEMENT_GENERAL	Urban	F	1011101000001001	0000000000000000	-	car	928.854	24191524.000	0.000	0.000	180.000	696.000	987.000	-0.000	Terminate	
"Student1mode3"	"Tanvi_6"	"Nov 22, 2016 07:56:34 AM"	Unknown	8.98351	10/22/0116 07:56.46	00000539	0.044	Inter625t13-0	-0.088	1	2	0.000	11.111	7.1	0.240	0.000	D	F	1420.1	0.003	0.214	-0.000	1503.500	523.213	0.025	-	0.004	0.534	-	-	-	-	-	-	-	PAVEMENT_GENERAL	Urban	F	1011101000001001	0000000000000000	-	car	928.852	42654.180	0.000	0.000	180.000	696.000	987.000	-0.000	Terminate	
"Student1mode3"	"Tanvi_6"	"Nov 22, 2016 07:56:34 AM"	Unknown	9.98353	10/22/0116 07:56.47	00000599	4.063	Inter625t13-0	-0.078	1	2	0.000	11.111	-4.5	0.444	0.000	D	F	1928.9	0.174	0.217	0.002	1503.510	525.082	0.006	-	-0.062	4.023	-	-	-	-	-	-	-	PAVEMENT_GENERAL	Urban	F	1011101000001001	0000000000000000	-	car	927.931	462.453	0.000	0.000	180.000	696.000	987.000	-0.000	Terminate	
"Student1mode3"	"Tanvi_6"	"Nov 22, 2016 07:56:34 AM"	Unknown	10.98355	10/22/0116 07:56.48	00000659	7.543	Inter625t13-0	-0.078	1	2	0.000	11.111	7.4	0.693	0.000	D	F	2549.1	0.038	0.230	-0.024	1503.510	530.952	0.011	-	0.148	3.187	-	-	-	-	-	-	-	PAVEMENT_GENERAL	Urban	F	1011101000001001	0000000000000000	-	car	925.031	249.679	0.000	0.000	180.000	696.000	987.000	-0.000	Terminate	
"Student1mode3"	"Tanvi_6"	"Nov 22, 2016 07:56:34 AM"	Unknown	11.98357	10/22/0116 07:56.49	00000719	10.674	Inter625t49-0	0.057	1	1	0.006	11.111	-0.6	0.683	0.000	D	F	3365.2	1.157	0.229	0.002	1503.646	540.070	0.012	-	0.001	3.080	-	-	-	-	-	-	-	PAVEMENT_GENERAL	Urban	F	1011101000001001	0000000000000000	-	car	920.700	184.943	0.000	0.000	180.000	696.000	987.000	-0.000	Terminate	
"Student1mode3"	"Tanvi_6"	"Nov 22, 2016 07:56:34 AM"	Unknown	12.98359	10/22/0116 07:56.50	00000779	13.615	Inter625t49-0	0.298	1	1	0.008	11.111	-1.9	0.679	0.000	D	F	2802.3	1.136	0.195	0.009	1503.888	552.261	0.014	-	-0.049	2.124	-	-	-	-	-	-	-	PAVEMENT_GENERAL	Urban	F	1011101000001001	0000000000000000	-	car	915.072	147.294	0.000	0.000	180.000	696.000	987.000	-0.000	Terminate	
"Student1mode3"	"Tanvi_6"	"Nov 22, 2016 07:56:34 AM"	Unknown	13.98361	10/22/0116 07:56.51	00000839	15.319	Inter625t49-0	0.496	1	1	0.005	11.111	-1.3	0.684	0.000	D	F	2722.3	0.478	0.210	0.012	1504.088	566.759	0.019	-	-0.089	1.586	-	-	-	-	-	-	-	PAVEMENT_GENERAL	Urban	F	1111101000001001	0000000000000000	-	car	908.469	130.639	0.000	0.000	180.000	696.000	987.000	-0.000	Terminate	
"Student1mode3"	"Tanvi_6"	"Nov 22, 2016 07:56:34 AM"	Unknown	14.98363	10/22/0116 07:56.52	00000899	16.885	Inter625t49-0	0.580	1	1	0.005	11.111	-3.8	0.688	0.000	D	F	2935.6	359.929	0.208	0.033	1504.173	582.864	0.019	-	-0.247	1.550	-	-	-	-	-	-	-	PAVEMENT_GENERAL	Urban	F	1011101000001001	0000000000000000	-	car	901.228	119.046	0.000	0.000	180.000	696.000	987.000	-0.000	Terminate	
"Student1mode3"	"Tanvi_6"	"Nov 22, 2016 07:56:34 AM"	Unknown	15.98365	10/22/0116 07:56.53	00000959	18.419	Inter614t1-0	0.529	1	2	0.000	11.111	2.4	0.677	0.000	D	F	3160.6	0.010	0.205	-0.029	1504.122	600.518	0.020	-	0.187	1.515	-	-	-	-	-	-	-	PAVEMENT_GENERAL	Urban	F	1011101000001001	0000000000000000	-	car	893.425	112.471	0.000	0.000	180.000	696.000	987.000	-0.000	Terminate	
"Student1mode3"	"Tanvi_6"	"Nov 22, 2016 07:56:34 AM"	Unknown	16.98367	10/22/0116 07:56.54	00001019	19.823	Inter614t1-0	0.549	1	2	0.000	11.111	-2.8	0.272	0.000	D	F	3025.3	359.943	0.196	0.023	1504.142	619.664	0.021	-	-0.165	1.243	-	-	-	-	-	-	-	PAVEMENT_GENERAL	Urban	F	1011101000001001	0000000000000000	-	car	885.351	107.695	0.000	0.000	180.000	696.000	987.000	-0.000	Terminate	
"Student1mode3"	"Tanvi_6"	"Nov 22, 2016 07:56:34 AM"	Unknown	17.98369	10/22/0116 07:56.55	00001079	20.570	Inter614t1-0	0.507	1	2	0.000	11.111	1.2	0.416	0.000	D	F	2419.4	0.039	0.193	-0.020	1504.100	639.868	0.023	-	0.137	0.709	-	-	-	-	-	-	-	PAVEMENT_GENERAL	Urban	F	1011101000001001	0000000000000000	-	car	877.144	108.212	0.000	0.000	180.000	696.000	987.000	-0.000	Terminate	
"Student1mode3"	"Tanvi_6"	"Nov 22, 2016 07:56:34 AM"	Unknown	18.98371	10/22/0116 07:56.56	00001139	21.251	Inter614t1-0	0.526	1	2	0.000	11.111	-1.3	0.113	0.000	D	F	2189.5	0.025	0.189	0.008	1504.119	660.786	0.024	-	-0.063	0.496	-	-	-	-	-	-	-	PAVEMENT_GENERAL	Urban	F	1011101000001001	0000000000000000	-	car	869.118	109.375	0.000	0.000	180.000	696.000	987.000	-0.000	Terminate	
"Student1mode3"	"Tanvi_6"	"Nov 22, 2016 07:56:34 AM"	Unknown	19.98373	10/22/0116 07:56.57	00001199	20.693	Inter614t1-0	0.480	1	2	0.000	11.111	0.3	0.000	0.000	D	F	1421.2	359.730	0.179	0.003	1504.073	681.781	0.030	-	-0.016	-0.613	-	-	-	-	-	-	-	PAVEMENT_GENERAL	Urban	F	1111101000001001	0000000000000000	-	car	861.435	116.365	0.000	0.000	180.000	696.000	987.000	-0.000	Terminate	
"Student1mode3"	"Tanvi_6"	"Nov 22, 2016 07:56:34 AM"	Unknown	20.98375	10/22/0116 07:56.58	00001259	20.084	Inter614t1-0	0.415	1	2	0.000	11.111	0.8	0.000	0.000	D	F	1369.6	0.009	0.181	-0.017	1504.008	702.169	0.030	-	0.126	-0.605	-	-	-	-	-	-	-	PAVEMENT_GENERAL	Urban	F	1011101000001001	0000000000000000	-	car	854.382	128.014	0.000	0.000	180.000	696.000	987.000	-0.000	Terminate	
"Student1mode3"	"Tanvi_6"	"Nov 22, 2016 07:56:34 AM"	Unknown	21.98377	10/22/0116 07:56.59	00001319	20.119	Inter614t1-0	0.426	1	2	0.000	11.111	0.9	0.270	0.000	D	F	1928.6	0.131	0.189	-0.012	1504.019	722.191	0.025	-	0.081	0.335	-	-	-	-	-	-	-	PAVEMENT_GENERAL	Urban	F	1111101000001001	0000000000000000	-	car	847.945	136.286	0.000	0.000	180.000	696.000	987.000	-0.000	Terminate	
"Student1mode3"	"Tanvi_6"	"Nov 22, 2016 07:56:34 AM"	Unknown	22.98379	10/22/0116 07:57.00	00001379	20.512	Inter614t1-0	0.478	1	2	0.000	11.111	-2.2	0.319	0.000	D	F	1991.8	0.094	0.191	0.013	1504.071	742.498	0.025	-	-0.102	0.421	-	-	-	-	-	-	-	PAVEMENT_GENERAL	Urban	F	1011101000001001	0000000000000000	-	car	841.892	142.498	0.000	0.000	180.000	696.000	987.000	-0.000	Terminate	
"Student1mode3"	"Tanvi_6"	"Nov 22, 2016 07:56:34 AM"	Unknown	23.98381	10/22/0116 07:57.01	00001439	20.934	Inter614t1-0	0.467	1	2	0.000	11.111	1.6	0.332	0.000	D	F	2018.6	359.935	0.190	-0.010	1504.060	763.220	0.025	-	0.066	0.425	-	-	-	-	-	-	-	PAVEMENT_GENERAL	Urban	F	1111101000001001	0000000000000000	-	car	836.114	149.041	0.000	0.000	180.000	696.000	987.000	-0.000	Terminate	
"Student1mode3"	"Tanvi_6"	"Nov 22, 2016 07:56:34 AM"	Unknown	24.98383	10/22/0116 07:57.02	00001499	21.459	Inter614t1-0	0.473	1	2	0.000	11.111	-0.0	0.372	0.000	D	F	2451.2	0.048	0.191	-0.001	1504.066	784.394	0.024	-	-0.001	0.628	-	-	-	-	-	-	-	PAVEMENT_GENERAL	Urban	F	1011101000001001	0000000000000000	-	car	830.719	159.708	0.000	0.000	180.000	696.000	987.000	-0.000	Terminate	
"Student1mode3"	"Tanvi_6"	"Nov 22, 2016 07:56:34 AM"	Unknown	25.98385	10/22/0116 07:57.03	00001559	22.093	Inter612t1-0	0.455	1	2	0.000	11.111	-2.4	0.376	0.000	D	F	2519.0	359.661	0.190	0.026	1504.048	806.170	0.024	-	-0.212	0.633	-	-	-	-	-	-	-	PAVEMENT_GENERAL	Urban	F	1011101000001001	0000000000000000	-	car	825.675	166.732	0.000	0.000	180.000	696.000	987.000	-0.000	Terminate	
"Student1mode3"	"Tanvi_6"	"Nov 22, 2016 07:56:34 AM"	Unknown	26.98387	10/22/0116 07:57.04	00001619	22.719	Inter612t1-0	0.309	1	2	0.000	11.111	2.3	0.381	0.000	D	F	2569.9	359.875	0.189	-0.039	1503.902	828.577	0.024	-	0.261	0.622	-	-	-	-	-	-	-	PAVEMENT_GENERAL	Urban	F	1111101000001001	0000000000000000	-	car	820.929	185.704	0.000	0.000	180.000	696.000	987.000	-0.000	Terminate	
"Student1mode3"	"Tanvi_6"	"Nov 22, 2016 07:56:34 AM"	Unknown	27.98389	10/22/0116 07:57.05	00001679	23.341	Inter612t1-0	0.251	1	2	0.000	11.111	1.5	0.392	0.000	D	F	2621.0	359.787	0.187	-0.005	1503.844	851.607	0.024	-	0.005	0.619	-	-	-	-	-	-	-	PAVEMENT_GENERAL	Urban	F	1111101000001001	0000000000000000	-	car	816.751	207.093	0.000	0.000	180.000	696.000	987.000	-0.000	Terminate	
"Student1mode3"	"Tanvi_6"	"Nov 22, 2016 07:56:34 AM"	Unknown	28.98391	10/22/0116 07:57.06	00001739	23.948	Inter612t1-0	0.255	1	2	0.000	11.111	-2.2	0.374	0.000	D	F	2669.4	0.195	0.186	0.010	1503.849	875.255	0.024	-	-0.041	0.597	-	-	-	-	-	-	-	PAVEMENT_GENERAL	Urban	F	1011101000001001	0000000000000000	-	car	813.181	254.058	0.000	0.000	180.000	696.000	987.000	-0.000	Terminate	
"Student1mode3"	"Tanvi_6"	"Nov 22, 2016 07:56:34 AM"	Unknown	29.98393	10/22/0116 07:57.07	00001799	24.529	Inter612t1-0	0.273	1	2	0.000	11.111	0.5	0.349	0.000	D	F	2721.6	0.042	0.185	-0.007	1503.867	899.496	0.024	-	0.059	0.567	-	-	-	-	-	-	-	PAVEMENT_GENERAL	Urban	F	1011101000001001	0000000000000000	-	car	810.232	308.818	0.000	0.000	180.000	696.000	987.000	-0.000	Terminate	
"Student1mode3"	"Tanvi_6"	"Nov 22, 2016 07:56:34 AM"	Unknown	30.98395	10/22/0116 07:57.08	00001859	24.683	Inter612t1-0	0.296	1	2	0.000	11.111	0.3	0.000	0.000	D	F	1771.5	0.000	0.159	0.009	1503.890	924.219	0.029	-	-0.049	-0.671	-	-	-	-	-	-	-	PAVEMENT_GENERAL	Urban	F	1011101000001001	0000000000000000	-	car	807.966	421.198	0.000	0.000	180.000	696.000	987.000	-0.000	Terminate	
"Student1mode3"	"Tanvi_6"	"Nov 22, 2016 07:56:34 AM"	Unknown	31.98397	10/22/0116 07:57.09	00001919	24.276	Inter612t1-0	0.292	1	2	0.000	11.111	-1.9	0.236	0.000	D	F	2039.2	359.883	0.182	0.017	1503.885	948.617	0.026	-	-0.125	0.104	-	-	-	-	-	-	-	PAVEMENT_GENERAL	Urban	F	1111101000001001	0000000000000000	-	car	806.437	671.078	0.000	0.000	180.000	696.000	987.000	-0.000	Terminate	
"Student1mode3"	"Tanvi_6"	"Nov 22, 2016 07:56:34 AM"	Unknown	32.98399	10/22/0116 07:57.10	00001979	24.251	Inter612t1-0	0.180	1	2	0.000	11.111	-0.2	0.000	0.000	D	F	1652.7	359.508	0.151	0.013	1503.773	972.945	0.029	-	-0.105	-0.687	-	-	-	-	-	-	-	PAVEMENT_GENERAL	Urban	F	1111101000001001	0000000000000000	-	car	805.536	1278.369	0.000	0.000	180.000	696.000	987.000	-0.000	Terminate	
"Student1mode3"	"Tanvi_6"	"Nov 22, 2016 07:56:34 AM"	Unknown	33.98401	10/22/0116 07:57.11	00002039	23.579	Inter612t1-0	0.070	1	2	0.000	11.111	2.3	0.000	0.003	D	F	1607.4	0.512	0.172	-0.072	1503.663	996.859	0.030	-	0.552	-0.674	-	-	-	-	-	-	-	PAVEMENT_GENERAL	Urban	F	1011101000001001	0000000000000000	-	car	805.364	-1615.879	0.000	0.000	180.000	696.000	987.000	-0.000	Terminate	
"Student1mode3"	"Tanvi_6"	"Nov 22, 2016 07:56:34 AM"	Unknown	34.98403	10/22/0116 07:57.12	00002099	22.478	Inter613t1-0	0.230	1	2	0.000	11.111	0.8	0.000	0.090	D	F	1513.0	0.000	0.153	0.028	1503.823	1020.016	0.032	-	-0.221	-1.772	-	-	-	-	-	-	-	PAVEMENT_GENERAL	Urban	F	1011101000001001	0000000000000000	-	car	806.138	-882.128	0.000	0.000	180.000	696.000	987.000	-0.000	Terminate	
"Student1mode3"	"Tanvi_6"	"Nov 22, 2016 07:56:34 AM"	Unknown	35.98405	10/22/0116 07:57.13	00002159	20.530	Inter613t1-0	0.253	1	2	0.000	11.111	-3.6	0.000	0.084	D	F	1383.5	359.844	0.161	0.033	1503.846	1041.528	0.033	-	-0.214	-1.763	-	-	-	-	-	-	-	PAVEMENT_GENERAL	Urban	F	1111101000001001	0000000000000000	-	car	807.325	-608.471	0.000	0.000	180.000	696.000	987.000	-0.000	Terminate	
"Student1mode3"	"Tanvi_6"	"Nov 22, 2016 07:56:34 AM"	Unknown	36.98407	10/22/0116 07:57.14	00002219	19.834	Inter613t1-0	0.138	1	2	0.000	11.111	2.5	0.000	0.000	D	F	1352.4	359.655	0.181	-0.017	1503.731	1061.669	0.029	-	0.134	-0.600	-	-	-	-	-	-	-	PAVEMENT_GENERAL	Urban	F	1011101000001001	0000000000000000	-	car	808.815	-473.909	0.000	0.000	180.000	696.000	987.000	-0.000	Terminate	
"Student1mode3"	"Tanvi_6"	"Nov 22, 2016 07:56:34 AM"	Unknown	37.98409	10/22/0116 07:57.15	00002279	19.238	Inter613t1-0	0.099	1	2	0.000	11.111	-2.4	0.000	0.000	D	F	1311.9	359.925	0.182	0.022	1503.692	1081.205	0.029	-	-0.145	-0.591	-	-	-	-	-	-	-	PAVEMENT_GENERAL	Urban	F	1111101000001001	0000000000000000	-	car	810.808	-367.943	0.000	0.000	180.000	696.000	987.000	-0.000	Terminate	
"Student1mode3"	"Tanvi_6"	"Nov 22, 2016 07:56:34 AM"	Unknown	38.98411	10/22/0116 07:57.16	00002339	18.651	Inter613t1-0	0.054	1	2	0.000	11.111	0.4	0.000	0.000	D	F	1271.8	359.926	0.183	-0.008	1503.647	1100.149	0.029	-	0.057	-0.583	-	-	-	-	-	-	-	PAVEMENT_GENERAL	Urban	F	1011101000001001	0000000000000000	-	car	813.175	-317.191	0.000	0.000	180.000	696.000	987.000	-0.000	Terminate	
"Student1mode3"	"Tanvi_6"	"Nov 22, 2016 07:56:34 AM"	Unknown	39.98413	10/22/0116 07:57.17	00002399	18.177	Inter613t1-0	0.031	1	2	0.000	11.111	-2.6	0.085	0.000	D	F	1434.2	359.887	0.198	0.013	1503.624	1118.544	0.029	-	-0.100	-0.232	-	-	-	-	-	-	-	PAVEMENT_GENERAL	Urban	F	1111101000001001	0000000000000000	-	car	815.907	-282.647	0.000	0.000	180.000	696.000	987.000	-0.000	Terminate	
"Student1mode3"	"Tanvi_6"	"Nov 22, 2016 07:56:34 AM"	Unknown	40.98415	10/22/0116 07:57.18	00002459	18.236	Inter613t1-0	-0.016	1	2	0.000	11.111	0.9	0.000	0.000	D	F	1167.3	0.000	0.162	-0.010	1503.577	1136.761	0.027	-	0.084	-0.612	-	-	-	-	-	-	-	PAVEMENT_GENERAL	Urban	F	1011101000001001	0000000000000000	-	car	818.986	-247.219	0.000	0.000	180.000	696.000	987.000	-0.000	Terminate	
"Student1mode3"	"Tanvi_6"	"Nov 22, 2016 07:56:34 AM"	Unknown	41.98417	10/22/0116 07:57.19	00002519	17.621	Inter613t1-0	0.006	1	2	0.000	11.111	1.3	0.000	0.000	D	F	1201.1	0.225	0.176	-0.010	1503.599	1154.703	0.030	-	0.091	-0.677	-	-	-	-	-	-	-	PAVEMENT_GENERAL	Urban	F	1011101000001001	0000000000000000	-	car	822.468	-225.301	0.000	0.000	180.000	696.000	987.000	-0.000	Terminate	
"Student1mode3"	"Tanvi_6"	"Nov 22, 2016 07:56:34 AM"	Unknown	42.98419	10/22/0116 07:57.20	00002579	17.057	Inter613t1-0	0.116	1	2	0.000	11.111	-1.1	0.000	0.000	D	F	1163.2	0.455	0.186	0.007	1503.709	1172.041	0.029	-	-0.034	-0.559	-	-	-	-	-	-	-	PAVEMENT_GENERAL	Urban	F	1111101000001001	0000000000000000	-	car	826.275	-209.670	0.000	0.000	180.000	696.000	987.000	-0.000	Terminate	
"Student1mode3"	"Tanvi_6"	"Nov 22, 2016 07:56:34 AM"	Unknown	43.98421	10/22/0116 07:57.21	00002639	16.502	Inter613t1-0	0.207	1	2	0.000	11.111	-1.1	0.000	0.000	D	F	1125.3	0.133	0.187	0.012	1503.800	1188.820	0.029	-	-0.087	-0.552	-	-	-	-	-	-	-	PAVEMENT_GENERAL	Urban	F	1011101000001001	0000000000000000	-	car	830.270	-205.666	0.000	0.000	180.000	696.000	987.000	-0.000	Terminate	
"Student1mode3"	"Tanvi_6"	"Nov 22, 2016 07:56:34 AM"	Unknown	44.98423	10/22/0116 07:57.22	00002699	14.863	Inter615t9-0	0.227	1	2	0.000	11.111	-1.4	0.000	0.158	D	F	992.2	0.015	0.146	0.009	1503.821	1204.675	0.033	-	-0.048	-2.469	-	-	-	-	-	-	-	PAVEMENT_GENERAL	Urban	F	1111101000001001	0000000000000000	-	car	834.275	-215.528	0.000	0.000	180.000	696.000	987.000	-0.000	Terminate	
"Student1mode3"	"Tanvi_6"	"Nov 22, 2016 07:56:34 AM"	Unknown	45.98425	10/22/0116 07:57.23	00002759	14.088	Inter615t33-0	0.219	1	1	0.068	11.111	-14.1	0.000	0.000	D	F	960.8	359.766	0.189	0.065	1503.815	1219.043	0.029	L	-0.504	-0.524	-	-	-	22	3.945	55.574	3.945	PAVEMENT_GENERAL	Urban	F	1011101000101001	0000000000000000	-	car	838.122	-218.603	0.000	0.000	180.000	696.000	987.000	-0.000	Terminate	
"Student1mode3"	"Tanvi_6"	"Nov 22, 2016 07:56:34 AM"	Unknown	46.98427	10/22/0116 07:57.24	00002819	13.100	Inter615t31-0	0.351	1	1	354.422	11.111	-39.2	0.000	0.057	D	F	887.5	352.773	0.162	0.282	1503.087	1232.667	0.031	L	-2.100	-1.235	-	-	-	22	3.201	41.931	3.201	PAVEMENT_GENERAL	Urban	F	1011101000101001	0000000000000000	-	car	841.288	-381.070	0.000	0.000	180.000	696.000	987.000	-0.000	Terminate	
"Student1mode3"	"Tanvi_6"	"Nov 22, 2016 07:56:34 AM"	Unknown	47.98429	10/22/0116 07:57.25	00002879	11.848	Inter615t31-0	-0.397	1	1	356.030	11.111	39.4	0.000	0.090	D	F	1145.3	351.855	0.171	-0.215	1501.143	1245.007	0.031	-	1.445	-1.503	-	-	-	22	2.493	29.533	2.493	PAVEMENT_GENERAL	Urban	F	1011101000001001	0000000000000000	-	car	843.112	-425.701	0.000	0.000	180.000	696.000	987.000	-0.000	Terminate	
"Student1mode3"	"Tanvi_6"	"Nov 22, 2016 07:56:34 AM"	Unknown	48.98431	10/22/0116 07:57.26	00002939	8.588	Inter615t31-0	-0.437	1	1	356.903	11.111	13.7	0.000	0.140	D	F	829.9	357.774	0.185	-0.050	1500.287	1255.294	0.035	-	0.448	-2.218	-	-	-	22	2.239	19.227	2.239	PAVEMENT_GENERAL	Urban	F	1111101000001001	0000000000000000	-	car	845.496	-352.411	0.000	0.000	180.000	696.000	987.000	-0.000	Terminate	
"Student1mode3"	"Tanvi_6"	"Nov 22, 2016 07:56:34 AM"	Unknown	49.98433	10/22/0116 07:57.27	00002999	5.738	Inter615t31-0	-0.237	1	1	356.903	11.111	3.1	0.000	0.233	D	F	546.6	358.688	0.147	-0.008	1500.091	1262.609	0.035	-	0.042	-3.399	-	-	-	22	2.076	11.912	2.076	PAVEMENT_GENERAL	Urban	F	1011101000001001	0000000000000000	-	car	847.654	-488.405	0.000	0.000	180.000	696.000	987.000	-0.000	Terminate	
"Student1mode3"	"Tanvi_6"	"Nov 22, 2016 07:56:34 AM"	Unknown	50.98435	10/22/0116 07:57.28	00003059	2.844	Inter615t31-0	-0.078	1	1	356.903	11.111	9.4	0.000	0.206	D	F	477.5	359.164	0.158	-0.003	1500.017	1266.917	0.034	-	0.020	-2.996	-	-	-	22	1.842	5.239	1.842	PAVEMENT_GENERAL	Urban	F	1011101000001001	0000000000000000	-	car	848.991	-947.887	0.000	0.000	180.000	696.000	987.000	-0.000	Terminate	
"Student1mode3"	"Tanvi_6"	"Nov 22, 2016 07:56:34 AM"	Unknown	51.98437	10/22/0116 07:57.29	00003119	0.219	Inter615t11-0	-0.055	LT1	2	0.000	11.111	9.7	0.000	0.206	D	F	477.5	359.443	0.209	0.002	1500.008	1268.328	0.033	L	-0.009	-1.428	-	-	-	22	28.248	6.198	28.248	PAVEMENT_GENERAL	Urban	F	1111101000101001	0000000000000000	-	car	849.447	-12057.834	0.000	0.000	180.000	696.000	987.000	-0.000	Terminate	
"Student1mode3"	"Tanvi_6"	"Nov 22, 2016 07:56:34 AM"	Unknown	52.98439	10/22/0116 07:57.30	00003179	0.187	Inter615t11-0	-0.055	LT1	2	0.000	11.111	8.1	0.000	0.000	D	F	477.5	359.463	0.216	0.000	1500.007	1268.438	0.027	L	0.001	0.219	-	-	-	22	32.620	6.088	32.620	PAVEMENT_GENERAL	Urban	F	1011101000101001	0000000000000000	-	car	849.483	-14156.288	0.000	0.000	180.000	696.000	987.000	-0.000	Terminate	
"Student1mode3"	"Tanvi_6"	"Nov 22, 2016 07:56:34 AM"	Unknown	53.98441	10/22/0116 07:57.31	00003239	0.372	Inter615t11-0	-0.057	LT1	2	0.000	11.111	8.9	0.000	0.000	D	F	477.5	359.515	0.205	-0.000	1500.006	1268.725	0.026	L	0.002	0.139	-	-	-	22	15.609	5.802	15.609	PAVEMENT_GENERAL	Urban	F	1111101000101001	0000000000000000	-	car	849.576	-7083.668	0.000	0.000	180.000	696.000	987.000	-0.000	Terminate	
"Student1mode3"	"Tanvi_6"	"Nov 22, 2016 07:56:34 AM"	Unknown	54.98443	10/22/0116 07:57.32	00003299	0.466	Inter615t11-0	-0.058	LT1	2	0.000	11.111	8.6	0.000	0.006	D	F	477.5	359.594	0.204	-0.000	1500.005	1269.150	0.026	L	0.001	0.061	-	-	-	22	11.528	5.376	11.528	PAVEMENT_GENERAL	Urban	F	1011101000101001	0000000000000000	-	car	849.716	-5615.875	0.000	0.000	180.000	696.000	987.000	-0.000	Terminate	
"Student1mode3"	"Tanvi_6"	"Nov 22, 2016 07:56:34 AM"	Unknown	55.98445	10/22/0116 07:57.33	00003359	0.094	Inter615t11-0	-0.058	LT1	2	0.000	11.111	7.8	0.000	0.107	D	F	477.5	359.646	0.199	0.000	1500.004	1269.446	0.027	L	-0.001	-0.290	-	-	-	22	54.112	5.080	54.112	PAVEMENT_GENERAL	Urban	F	1011101000101001	0000000000000000	-	car	849.813	-27799.305	0.000	0.000	180.000	696.000	987.000	-0.000	Terminate	
"Student1mode3"	"Tanvi_6"	"Nov 22, 2016 07:56:34 AM"	Unknown	56.98447	10/22/0116 07:57.34	00003419	0.101	Inter615t11-0	-0.058	LT1	2	0.000	11.111	7.6	0.000	0.000	D	F	477.5	359.656	0.208	-0.000	1500.004	1269.505	0.026	L	0.001	0.183	-	-	-	22	51.152	5.162	-	PAVEMENT_GENERAL	Urban	F	1111101000101001	0000000000000000	-	car	849.833	-25843.113	0.000	0.000	180.000	696.000	987.000	-0.000	Terminate	
"Student1mode3"	"Tanvi_6"	"Nov 22, 2016 07:56:34 AM"	Unknown	57.98449	10/22/0116 07:57.35	00003479	1.464	Inter615t11-0	-0.059	LT1	2	0.000	11.111	7.3	0.176	0.000	D	F	1376.5	359.730	0.213	-0.002	1500.004	1269.950	0.017	L	0.016	3.033	-	-	-	22	4.417	6.467	-	PAVEMENT_GENERAL	Urban	F	1011101000101001	0000000000000000	-	car	849.980	-1772.479	0.000	0.000	180.000	696.000	987.000	-0.000	Terminate	
"Student1mode3"	"Tanvi_6"	"Nov 22, 2016 07:56:34 AM"	Unknown	58.98451	10/22/0116 07:57.36	00003539	4.751	Inter615t11-0	-0.056	LT1	2	0.000	11.111	1.7	0.219	0.000	D	F	1874.8	0.020	0.220	-0.003	1500.007	1273.069	0.011	L	0.014	2.908	-	-	-	22	1.496	7.108	-	PAVEMENT_GENERAL	Urban	F	1111101000101001	0000000000000000	-	car	851.023	-533.786	0.000	0.000	180.000	696.000	987.000	-0.000	Terminate	
"Student1mode3"	"Tanvi_6"	"Nov 22, 2016 07:56:34 AM"	Unknown	59.98453	10/22/0116 07:57.37	00003599	5.137	Inter615t11-0	-0.052	LT1	2	0.000	11.111	-2.8	0.000	0.000	D	F	814.5	0.002	0.194	0.005	1500.010	1278.294	0.028	L	-0.036	-0.452	-	-	-	22	1.487	7.639	-	PAVEMENT_GENERAL	Urban	F	1111101000101001	0000000000000000	-	car	852.793	-487.324	0.000	0.000	180.000	696.000	987.000	-0.000	Terminate	
"Student1mode3"	"Tanvi_6"	"Nov 22, 2016 07:56:34 AM"	Unknown	60.98455	10/22/0116 07:57.38	00003659	5.003	Inter615t65-0	-0.023	1	1	353.568	11.111	-14.1	0.300	0.000	D	F	1777.2	359.238	0.264	0.018	1499.968	1283.227	0.024	L	-0.156	2.244	-	-	-	22	2.089	10.451	-	PAVEMENT_GENERAL	Urban	F	1011101000101001	0000000000000000	-	car	854.445	-512.482	0.000	0.000	180.000	696.000	987.000	-0.000	Terminate	
"Student1mode3"	"Tanvi_6"	"Nov 22, 2016 07:56:34 AM"	Unknown	61.98457	10/22/0116 07:57.39	00003719	7.716	Inter615t65-0	1.129	1	1	337.546	11.111	-96.0	0.354	0.000	D	F	2513.1	353.995	0.233	0.253	1499.567	1289.565	0.014	L	-1.839	2.669	-	-	-	22	1.792	13.828	-	PAVEMENT_GENERAL	Urban	F	1011101000101001	0000000000000000	-	car	856.282	-439.412	0.000	0.000	180.000	696.000	987.000	-0.000	Terminate	
"Student1mode3"	"Tanvi_6"	"Nov 22, 2016 07:56:34 AM"	Unknown	62.98459	10/22/0116 07:57.40	00003779	10.210	-Inter615t59-0	-1.709	-1	1	89.733	11.111	-196.8	0.347	0.000	D	F	2426.3	333.276	0.313	0.650	1496.862	1298.110	0.022	L	-5.016	1.739	-	-	-	-	-	-	-	PAVEMENT_GENERAL	Urban	F	1111101000101001	0000000000000000	-	car	856.808	876.504	0.000	0.000	180.000	696.000	987.000	-0.000	Terminate	
"Student1mode3"	"Tanvi_6"	"Nov 22, 2016 07:56:34 AM"	Unknown	63.98461	10/22/0116 07:57.41	00003839	10.963	Inter615t77-0	-1.551	1	1	269.734	11.111	-241.5	0.178	0.000	D	F	1972.9	298.372	0.159	1.006	1489.412	1305.616	0.040	L	-6.926	0.072	-	-	-	22	2.237	24.522	-	PAVEMENT_GENERAL	Urban	F	1011101000101001	0000000000000000	-	car	852.637	121.636	0.000	0.000	180.000	696.000	987.000	-0.000	Terminate	
"Student1mode3"	"Tanvi_6"	"Nov 22, 2016 07:56:34 AM"	Unknown	64.98463	10/22/0116 07:57.42	00003899	10.971	Inter615t3-4	0.567	2	2	270.000	11.111	-74.3	0.155	0.000	D	F	1599.6	266.851	0.084	0.459	1478.840	1307.698	0.029	-	-3.789	0.406	-	-	-	-	-	-	-	PAVEMENT_GENERAL	Urban	F	1111101000001001	0000000000000000	-	car	843.623	81.388	0.000	0.000	180.000	696.000	987.000	-0.000	Terminate	
"Student1mode3"	"Tanvi_6"	"Nov 22, 2016 07:56:34 AM"	Unknown	65.98465	10/22/0116 07:57.43	00003959	11.552	Inter615t3-4	-0.482	2	2	270.000	11.111	40.9	0.205	0.000	D	F	1751.0	267.044	0.201	-0.235	1467.646	1306.648	0.024	-	1.665	0.692	-	-	-	-	-	-	-	PAVEMENT_GENERAL	Urban	F	1011101000001001	0000000000000000	-	car	832.873	76.503	0.000	0.000	180.000	696.000	987.000	-0.000	Terminate	
"Student1mode3"	"Tanvi_6"	"Nov 22, 2016 07:56:34 AM"	Unknown	66.98467	10/22/0116 07:57.44	00004019	12.315	Inter615t17-0	-0.628	1	1	270.097	11.111	2.3	0.210	0.000	D	F	1798.2	270.259	0.205	-0.013	1455.716	1306.515	0.023	-	0.136	0.767	-	-	-	-	-	-	-	PAVEMENT_GENERAL	Urban	F	1011101000001001	0000000000000000	-	car	821.812	72.531	0.000	0.000	180.000	696.000	987.000	-0.000	Terminate	
"Student1mode3"	"Tanvi_6"	"Nov 22, 2016 07:56:34 AM"	Unknown	67.98470	10/22/0116 07:57.45	00004079	13.029	Inter615t17-0	-0.597	1	1	270.090	11.111	0.8	0.208	0.000	D	F	1821.7	270.067	0.204	-0.000	1443.038	1306.567	0.023	-	-0.016	0.687	-	-	-	-	-	-	-	PAVEMENT_GENERAL	Urban	F	1111101000001001	0000000000000000	-	car	810.161	67.663	0.000	0.000	180.000	696.000	987.000	-0.000	Terminate	
"Student1mode3"	"Tanvi_6"	"Nov 22, 2016 07:56:34 AM"	Unknown	68.98471	10/22/0116 07:57.46	00004139	13.701	Inter615t17-0	-0.508	1	1	270.061	11.111	7.3	0.206	0.000	D	F	1841.5	271.121	0.202	-0.045	1429.669	1306.679	0.023	-	0.341	0.620	-	-	-	-	-	-	-	PAVEMENT_GENERAL	Urban	F	1111101000001001	0000000000000000	-	car	797.931	64.085	0.000	0.000	180.000	696.000	987.000	-0.000	Terminate	
"Student1mode3"	"Tanvi_6"	"Nov 22, 2016 07:56:34 AM"	Unknown	69.98473	10/22/0116 07:57.47	00004199	14.306	Inter615t1-3	-0.175	2	2	270.000	11.111	-13.2	0.208	0.000	D	F	1875.9	271.156	0.201	0.076	1415.667	1307.025	0.024	-	-0.504	0.585	-	-	-	-	-	-	-	PAVEMENT_GENERAL	Urban	F	1111101000001001	0000000000000000	-	car	785.255	60.628	0.000	0.000	180.000	696.000	987.000	-0.000	Terminate	
"Student1mode3"	"Tanvi_6"	"Nov 22, 2016 07:56:34 AM"	Unknown	70.98476	10/22/0116 07:57.48	00004259	14.920	Inter615t1-3	-0.164	2	2	270.000	11.111	-1.0	0.217	0.000	D	F	1930.3	269.250	0.200	0.013	1401.056	1307.036	0.024	-	-0.147	0.607	-	-	-	-	-	-	-	PAVEMENT_GENERAL	Urban	F	1011101000001001	0000000000000000	-	car	771.932	56.487	0.000	0.000	180.000	696.000	987.000	-0.000	Terminate	
"Student1mode3"	"Tanvi_6"	"Nov 22, 2016 07:56:34 AM"	Unknown	71.98477	10/22/0116 07:57.49	00004319	15.499	Inter616t1-3	-0.374	2	2	270.000	11.111	1.7	0.215	0.000	D	F	1947.7	269.299	0.199	-0.011	1385.842	1306.832	0.024	-	0.077	0.542	-	-	-	-	-	-	-	PAVEMENT_GENERAL	Urban	F	1011101000001001	0000000000000000	-	car	758.019	53.609	0.000	0.000	180.000	696.000	987.000	-0.000	Terminate	
"Student1mode3"	"Tanvi_6"	"Nov 22, 2016 07:56:34 AM"	Unknown	72.98479	10/22/0116 07:57.50	00004379	16.018	Inter616t1-3	-0.480	2	2	270.000	11.111	4.2	0.215	0.000	D	F	1968.5	270.201	0.198	-0.043	1370.080	1306.727	0.024	-	0.317	0.501	-	-	-	-	-	-	-	PAVEMENT_GENERAL	Urban	F	1011101000001001	0000000000000000	-	car	743.703	51.473	0.000	0.000	180.000	696.000	987.000	-0.000	Terminate	
"Student1mode3"	"Tanvi_6"	"Nov 22, 2016 07:56:34 AM"	Unknown	73.98481	10/22/0116 07:57.51	00004439	16.499	Inter616t1-3	-0.384	2	2	270.000	11.111	-0.4	0.213	0.000	D	F	1989.4	270.251	0.198	0.004	1353.819	1306.822	0.024	-	-0.070	0.464	-	-	-	-	-	-	-	PAVEMENT_GENERAL	Urban	F	1011101000001001	0000000000000000	-	car	729.086	49.242	0.000	0.000	180.000	696.000	987.000	-0.000	Terminate	
"Student1mode3"	"Tanvi_6"	"Nov 22, 2016 07:56:34 AM"	Unknown	74.98483	10/22/0116 07:57.52	00004499	16.949	Inter616t1-3	-0.371	2	2	270.000	11.111	0.0	0.210	0.000	D	F	2007.6	269.708	0.196	0.007	1337.092	1306.836	0.025	-	-0.096	0.437	-	-	-	-	-	-	-	PAVEMENT_GENERAL	Urban	F	1011101000001001	0000000000000000	-	car	714.086	46.964	0.000	0.000	180.000	696.000	987.000	-0.000	Terminate	
"Student1mode3"	"Tanvi_6"	"Nov 22, 2016 07:56:34 AM"	Unknown	75.98486	10/22/0116 07:57.53	00004559	17.363	Inter616t1-3	-0.444	2	2	270.000	11.111	3.2	0.208	0.000	D	F	2023.6	269.812	0.195	-0.013	1319.932	1306.763	0.025	-	0.104	0.379	-	-	-	-	-	-	-	PAVEMENT_GENERAL	Urban	F	1011101000001001	0000000000000000	-	car	698.739	45.144	0.000	0.000	180.000	696.000	987.000	-0.000	Terminate	
"Student1mode3"	"Tanvi_6"	"Nov 22, 2016 07:56:34 AM"	Unknown	76.98487	10/22/0116 07:57.54	00004619	17.683	Inter616t1-3	-0.395	2	2	270.000	11.111	2.4	0.192	0.000	D	F	2027.4	270.591	0.194	-0.031	1302.402	1306.812	0.025	-	0.192	0.306	-	-	-	-	-	-	-	PAVEMENT_GENERAL	Urban	F	1111101000001001	0000000000000000	-	car	683.208	43.920	0.000	0.000	180.000	696.000	987.000	-0.000	Terminate	
"Student1mode3"	"Tanvi_6"	"Nov 22, 2016 07:56:34 AM"	Unknown	77.98489	10/22/0116 07:57.55	00004679	17.942	Inter616t1-3	-0.234	2	2	270.000	11.111	-2.0	0.220	0.000	D	F	2093.1	270.244	0.198	0.019	1284.596	1306.973	0.025	-	-0.165	0.444	-	-	-	-	-	-	-	PAVEMENT_GENERAL	Urban	F	1111101000001001	0000000000000000	-	car	667.587	42.448	0.000	0.000	180.000	696.000	987.000	-0.000	Terminate	
"Student1mode3"	"Tanvi_6"	"Nov 22, 2016 07:56:34 AM"	Unknown	78.98492	10/22/0116 07:57.56	00004739	18.310	Inter616t1-3	-0.205	2	2	270.000	11.111	1.9	0.208	0.000	D	F	2091.9	269.999	0.193	-0.015	1266.462	1307.002	0.025	-	0.064	0.330	-	-	-	-	-	-	-	PAVEMENT_GENERAL	Urban	F	1011101000001001	0000000000000000	-	car	651.726	40.810	0.000	0.000	180.000	696.000	987.000	-0.000	Terminate	
"Student1mode3"	"Tanvi_6"	"Nov 22, 2016 07:56:34 AM"	Unknown	79.98493	10/22/0116 07:57.57	00004799	18.632	Inter616t1-3	-0.149	2	2	270.000	11.111	2.0	0.205	0.000	D	F	2110.9	270.316	0.193	-0.011	1247.989	1307.057	0.025	-	0.081	0.314	-	-	-	-	-	-	-	PAVEMENT_GENERAL	Urban	F	1111101000001001	0000000000000000	-	car	635.707	39.566	0.000	0.000	180.000	696.000	987.000	-0.000	Terminate	
"Student1mode3"	"Tanvi_6"	"Nov 22, 2016 07:56:34 AM"	Unknown	80.98495	10/22/0116 07:57.58	00004859	18.931	Inter616t1-3	-0.002	2	2	270.000	11.111	0.1	0.199	0.000	D	F	2128.7	270.568	0.192	-0.002	1229.206	1307.205	0.025	-	0.024	0.291	-	-	-	-	-	-	-	PAVEMENT_GENERAL	Urban	F	1111101000001001	0000000000000000	-	car	619.605	38.408	0.000	0.000	180.000	696.000	987.000	-0.000	Terminate	
"Student1mode3"	"Tanvi_6"	"Nov 22, 2016 07:56:34 AM"	Unknown	81.98497	10/22/0116 07:57.59	00004919	19.222	Inter616t1-3	0.181	2	2	270.000	11.111	-2.7	0.201	0.000	D	F	2149.1	270.413	0.191	0.019	1210.130	1307.388	0.025	-	-0.150	0.285	-	-	-	-	-	-	-	PAVEMENT_GENERAL	Urban	F	1011101000001001	0000000000000000	-	car	603.427	37.157	0.000	0.000	180.000	696.000	987.000	-0.000	Terminate	
"Student1mode3"	"Tanvi_6"	"Nov 22, 2016 07:56:34 AM"	Unknown	82.98499	10/22/0116 07:58.00	00004979	19.486	Inter617t1-3	0.258	2	2	270.000	11.111	-0.7	0.198	0.000	D	F	2162.7	270.033	0.191	0.008	1190.774	1307.464	0.025	-	-0.067	0.261	-	-	-	-	-	-	-	PAVEMENT_GENERAL	Urban	F	1011101000001001	0000000000000000	-	car	587.131	35.913	0.000	0.000	180.000	696.000	987.000	-0.000	Terminate	
"Student1mode3"	"Tanvi_6"	"Nov 22, 2016 07:56:34 AM"	Unknown	83.98502	10/22/0116 07:58.01	00005039	19.693	Inter617t1-3	0.267	2	2	270.000	11.111	0.9	0.171	0.000	D	F	2151.1	270.041	0.188	-0.007	1171.170	1307.474	0.026	-	0.037	0.129	-	-	-	-	-	-	-	PAVEMENT_GENERAL	Urban	F	1111101000001001	0000000000000000	-	car	570.781	34.976	0.000	0.000	180.000	696.000	987.000	-0.000	Terminate	
"Student1mode3"	"Tanvi_6"	"Nov 22, 2016 07:56:34 AM"	Unknown	84.98503	10/22/0116 07:58.02	00005099	19.776	Inter617t1-3	0.306	2	2	270.000	11.111	-0.3	0.116	0.000	D	F	1841.6	270.180	0.189	-0.003	1151.427	1307.513	0.026	-	0.013	0.014	-	-	-	-	-	-	-	PAVEMENT_GENERAL	Urban	F	1111101000001001	0000000000000000	-	car	554.544	34.365	0.000	0.000	180.000	696.000	987.000	-0.000	Terminate	
"Student1mode3"	"Tanvi_6"	"Nov 22, 2016 07:56:34 AM"	Unknown	85.98505	10/22/0116 07:58.03	00005159	19.478	Inter617t1-3	0.324	2	2	270.000	11.111	0.8	0.000	0.000	D	F	1333.3	269.778	0.180	0.011	1131.750	1307.531	0.029	-	-0.100	-0.592	-	-	-	-	-	-	-	PAVEMENT_GENERAL	Urban	F	1111101000001001	0000000000000000	-	car	538.582	34.228	0.000	0.000	180.000	696.000	987.000	-0.000	Terminate	
"Student1mode3"	"Tanvi_6"	"Nov 22, 2016 07:56:34 AM"	Unknown	86.98507	10/22/0116 07:58.04	00005219	18.888	Inter617t1-3	0.307	2	2	270.000	11.111	-3.0	0.000	0.000	D	F	1288.0	270.045	0.183	0.015	1112.567	1307.514	0.029	-	-0.097	-0.585	-	-	-	-	-	-	-	PAVEMENT_GENERAL	Urban	F	1011101000001001	0000000000000000	-	car	523.243	34.975	0.000	0.000	180.000	696.000	987.000	-0.000	Terminate	
"Student1mode3"	"Tanvi_6"	"Nov 22, 2016 07:56:34 AM"	Unknown	87.98509	10/22/0116 07:58.05	00005279	17.262	Inter617t1-3	0.237	2	2	270.000	11.111	-0.3	0.000	0.152	D	F	1152.5	269.563	0.153	0.006	1094.272	1307.444	0.033	-	-0.058	-2.465	-	-	-	-	-	-	-	PAVEMENT_GENERAL	Urban	F	1111101000001001	0000000000000000	-	car	508.820	37.603	0.000	0.000	180.000	696.000	987.000	-0.000	Terminate	
"Student1mode3"	"Tanvi_6"	"Nov 22, 2016 07:56:34 AM"	Unknown	88.98512	10/22/0116 07:58.06	00005339	14.694	Inter617t1-3	0.116	2	2	270.000	11.111	-4.9	0.000	0.000	D	F	996.7	269.510	0.172	0.016	1078.285	1307.323	0.034	L	-0.137	-1.645	-	-	-	-	-	-	-	PAVEMENT_GENERAL	Urban	F	1011101000101001	0000000000000000	-	car	496.387	43.762	0.000	0.000	180.000	696.000	987.000	-0.000	Terminate	
"Student1mode3"	"Tanvi_6"	"Nov 22, 2016 07:56:34 AM"	Unknown	89.98513	10/22/0116 07:58.07	00005399	14.278	Inter617t1-3	-0.291	2	2	270.000	11.111	-7.6	0.000	0.131	D	F	1349.0	266.827	0.167	0.084	1063.767	1306.916	0.029	L	-0.582	-1.781	-	-	-	-	-	-	-	PAVEMENT_GENERAL	Urban	F	1111101000101001	0000000000000000	-	car	485.082	43.024	0.000	0.000	180.000	696.000	987.000	-0.000	Terminate	
"Student1mode3"	"Tanvi_6"	"Nov 22, 2016 07:56:34 AM"	Unknown	90.98515	10/22/0116 07:58.08	00005459	10.491	Inter617t1-3	-0.826	2	2	270.000	11.111	40.3	0.000	0.337	D	F	984.9	269.959	0.110	-0.183	1051.257	1306.381	0.038	-	1.358	-4.455	-	-	-	-	-	-	-	PAVEMENT_GENERAL	Urban	F	1111101000001001	0000000000000000	-	car	475.355	60.890	0.000	0.000	180.000	696.000	987.000	-0.000	Terminate	
"Student1mode3"	"Tanvi_6"	"Nov 22, 2016 07:56:34 AM"	Unknown	91.98518	10/22/0116 07:58.09	00005519	6.298	Inter617t1-3	-0.471	2	2	270.000	11.111	-14.8	0.000	0.101	D	F	613.6	273.451	0.179	0.039	1042.964	1306.735	0.037	-	-0.243	-2.298	-	-	-	-	-	-	-	PAVEMENT_GENERAL	Urban	F	1011101000001001	0000000000000000	-	car	469.461	107.530	0.000	0.000	180.000	696.000	987.000	-0.000	Terminate	
"Student1mode3"	"Tanvi_6"	"Nov 22, 2016 07:56:34 AM"	Unknown	92.98519	10/22/0116 07:58.10	00005579	5.765	Inter617t1-3	-0.248	2	2	270.000	11.111	-2.1	0.000	0.000	D	F	566.6	271.690	0.198	-0.013	1036.969	1306.958	0.028	-	0.035	-0.462	-	-	-	-	-	-	-	PAVEMENT_GENERAL	Urban	F	1111101000001001	0000000000000000	-	car	465.223	113.865	0.000	0.000	180.000	696.000	987.000	-0.000	Terminate	
"Student1mode3"	"Tanvi_6"	"Nov 22, 2016 07:56:34 AM"	Unknown	93.98521	10/22/0116 07:58.11	00005639	5.304	Inter617t1-3	-0.099	2	2	270.000	11.111	-0.8	0.000	0.000	D	F	521.4	271.518	0.199	0.001	1031.437	1307.108	0.028	-	-0.008	-0.460	-	-	-	-	-	-	-	PAVEMENT_GENERAL	Urban	F	1111101000001001	0000000000000000	-	car	461.307	123.378	0.000	0.000	180.000	696.000	987.000	-0.000	Terminate	
"Student1mode3"	"Tanvi_6"	"Nov 22, 2016 07:56:34 AM"	Unknown	94.98523	10/22/0116 07:58.12	00005699	5.213	Inter617t1-3	0.030	2	2	270.000	11.111	-2.5	0.254	0.000	D	F	1715.3	271.416	0.244	0.006	1026.327	1307.237	0.023	-	-0.033	1.950	-	-	-	-	-	-	-	PAVEMENT_GENERAL	Urban	F	1011101000001001	0000000000000000	-	car	457.714	125.326	0.000	0.000	180.000	696.000	987.000	-0.000	Terminate	
"Student1mode3"	"Tanvi_6"	"Nov 22, 2016 07:56:34 AM"	Unknown	95.98525	10/22/0116 07:58.13	00005759	7.365	Inter617t1-3	0.164	2	2	270.000	11.111	-0.9	0.310	0.000	D	F	2387.3	271.165	0.226	0.001	1020.049	1307.371	0.016	-	-0.014	2.334	-	-	-	-	-	-	-	PAVEMENT_GENERAL	Urban	F	1011101000001001	0000000000000000	-	car	453.322	88.342	0.000	0.000	180.000	696.000	987.000	-0.000	Terminate	
"Student1mode3"	"Tanvi_6"	"Nov 22, 2016 07:56:34 AM"	Unknown	96.98528	10/22/0116 07:58.14	00005819	10.031	Inter617t1-3	0.336	2	2	270.000	11.111	1.0	0.376	0.000	D	F	3116.9	271.147	0.225	-0.002	1011.354	1307.542	0.014	-	0.025	2.638	-	-	-	-	-	-	-	PAVEMENT_GENERAL	Urban	F	1011101000001001	0000000000000000	-	car	447.302	64.916	0.000	0.000	180.000	696.000	987.000	-0.000	Terminate	
"Student1mode3"	"Tanvi_6"	"Nov 22, 2016 07:56:34 AM"	Unknown	97.98529	10/22/0116 07:58.15	00005879	11.992	Inter617t1-3	0.610	2	2	270.000	11.111	0.5	0.381	0.000	D	F	2286.1	271.741	0.211	-0.010	1000.221	1307.817	0.019	-	0.073	1.517	-	-	-	31	2.397	28.751	51.478	PAVEMENT_GENERAL	Urban	F	1011101000001001	0000000000000000	-	car	439.765	55.085	0.000	0.000	180.000	696.000	987.000	-0.000	Terminate	
"Student1mode3"	"Tanvi_6"	"Nov 22, 2016 07:56:34 AM"	Unknown	98.98531	10/22/0116 07:58.16	00005939	13.415	Inter618t1-1	0.229	2	2	269.940	24.444	-11.2	0.339	0.000	D	F	2419.0	270.669	0.324	-0.041	987.506	1308.127	0.034	-	-0.484	1.368	-	-	-	31	2.283	30.623	-	FREEWAY_SMOOTH	Urban	F	1011101000001001	0000000000000000	-	car	431.344	48.464	0.000	0.000	180.000	696.000	987.000	-0.000	Terminate	
"Student1mode3"	"Tanvi_6"	"Nov 22, 2016 07:56:34 AM"	Unknown	99.98534	10/22/0116 07:58.17	00005999	14.737	Inter618t1-1	0.234	2	2	269.518	24.444	3.1	0.319	0.000	D	F	2562.5	269.440	0.317	-0.319	973.422	1308.075	0.062	-	0.066	1.266	-	-	-	31	2.093	30.845	-	FREEWAY_SMOOTH	Urban	F	1011101000001001	0000000000000000	-	car	421.966	43.307	0.000	0.000	180.000	696.000	987.000	-0.000	Terminate	
"Student1mode3"	"Tanvi_6"	"Nov 22, 2016 07:56:34 AM"	Unknown	100.98535	10/22/0116 07:58.18	00006059	15.889	Inter618t1-1	0.305	2	2	268.623	24.444	-3.8	0.293	0.000	D	F	2713.0	269.139	0.321	-0.485	958.100	1307.912	0.093	-	-0.240	1.103	-	-	-	31	1.987	31.571	-	FREEWAY_SMOOTH	Urban	F	1011101000001001	0000000000000000	-	car	411.985	40.255	0.000	0.000	180.000	696.000	987.000	-0.000	Terminate	
"Student1mode3"	"Tanvi_6"	"Nov 22, 2016 07:56:34 AM"	Unknown	101.98537	10/22/0116 07:58.19	00006119	16.950	Inter618t1-1	0.453	2	2	267.163	24.444	-11.9	0.287	0.000	D	F	2856.9	267.591	0.320	-0.658	941.682	1307.476	0.127	-	-0.658	1.034	-	-	-	31	1.893	32.094	-	FREEWAY_SMOOTH	Urban	F	1011101000001001	0000000000000000	-	car	401.453	36.937	0.000	0.000	180.000	696.000	987.000	-0.000	Terminate	
"Student1mode3"	"Tanvi_6"	"Nov 22, 2016 07:56:34 AM"	Unknown	102.98539	10/22/0116 07:58.20	00006179	17.909	Inter618t1-1	0.431	2	2	265.050	24.444	-14.8	0.289	0.000	D	F	2243.0	264.223	0.291	-0.843	924.267	1306.292	0.163	-	-1.111	0.696	-	-	-	31	1.795	32.150	239.874	FREEWAY_SMOOTH	Urban	F	1011101000001001	0000000000000000	-	car	390.137	32.981	0.000	0.000	180.000	696.000	987.000	-0.000	Terminate	
"Student1mode3"	"Tanvi_6"	"Nov 22, 2016 07:56:34 AM"	Unknown	103.98541	10/22/0116 07:58.21	00006239	18.529	Inter618t1-1	0.171	2	2	262.211	24.444	-12.8	0.293	0.000	D	F	2192.9	261.489	0.284	-1.122	906.183	1304.044	0.194	-	-0.891	0.597	-	-	-	31	1.689	31.298	48.317	FREEWAY_SMOOTH	Urban	F	1011101000001001	0000000000000000	-	car	378.027	30.459	0.000	0.000	180.000	696.000	987.000	-0.000	Terminate	
"Student1mode3"	"Tanvi_6"	"Nov 22, 2016 07:56:34 AM"	Unknown	104.98544	10/22/0116 07:58.22	00006299	19.109	Inter618t1-1	0.001	2	2	258.620	24.444	-12.5	0.279	0.000	D	F	2221.8	258.339	0.288	-1.362	887.642	1300.786	0.225	-	-1.024	0.537	-	-	-	31	1.582	30.238	24.616	FREEWAY_SMOOTH	Urban	F	1111101000001001	0000000000000000	-	car	365.320	27.992	0.000	0.000	180.000	696.000	987.000	-0.000	Terminate	
"Student1mode3"	"Tanvi_6"	"Nov 22, 2016 07:56:34 AM"	Unknown	105.98545	10/22/0116 07:58.23	00006359	19.611	Inter618t1-1	0.041	2	2	254.289	24.444	-20.2	0.259	0.000	D	F	2245.1	254.395	0.292	-1.540	868.796	1296.342	0.262	-	-1.625	0.486	-	-	-	31	1.475	28.934	16.727	FREEWAY_SMOOTH	Urban	F	1111101000001001	0000000000000000	-	car	351.972	25.475	0.000	0.000	180.000	696.000	987.000	-0.000	Terminate	
"Student1mode3"	"Tanvi_6"	"Nov 22, 2016 07:56:34 AM"	Unknown	106.98547	10/22/0116 07:58.24	00006419	20.026	Inter618t1-1	0.077	2	2	249.528	24.444	-19.7	0.198	0.000	D	F	2204.6	249.133	0.170	-1.521	849.946	1290.256	0.264	-	-1.814	0.386	-	-	-	31	1.359	27.213	12.684	FREEWAY_SMOOTH	Urban	F	1011101000001001	0000000000000000	-	car	337.735	22.772	0.000	0.000	180.000	696.000	987.000	-0.000	Terminate	
"Student1mode3"	"Tanvi_6"	"Nov 22, 2016 07:56:34 AM"	Unknown	107.98550	10/22/0116 07:58.25	00006479	19.577	Inter618t1-1	-0.054	2	2	244.760	24.444	-18.7	0.000	0.000	D	F	1348.4	243.692	0.134	-1.512	831.685	1282.448	0.265	-	-1.880	-0.612	-	-	-	31	1.300	25.457	15.012	FREEWAY_SMOOTH	Urban	F	1011101000001001	0000000000000000	-	car	322.756	21.222	0.000	0.000	180.000	696.000	987.000	-0.000	Terminate	
"Student1mode3"	"Tanvi_6"	"Nov 22, 2016 07:56:34 AM"	Unknown	108.98551	10/22/0116 07:58.26	00006539	18.996	Inter618t1-1	-0.380	2	2	240.119	24.444	-6.5	0.136	0.000	D	F	1726.6	239.079	0.147	-1.627	814.745	1273.267	0.255	-	-1.048	-0.183	-	-	-	31	1.252	23.778	21.324	FREEWAY_SMOOTH	Urban	F	1111101000001001	0000000000000000	-	car	307.559	20.154	0.000	0.000	180.000	696.000	987.000	-0.000	Terminate	
"Student1mode3"	"Tanvi_6"	"Nov 22, 2016 07:56:34 AM"	Unknown	109.98553	10/22/0116 07:58.27	00006599	18.912	Inter618t1-1	-0.346	2	2	235.532	24.444	-17.7	0.132	0.000	D	F	1612.0	236.342	0.202	-1.580	798.672	1263.225	0.254	-	-1.317	-0.073	-	-	-	31	1.203	22.756	22.064	FREEWAY_SMOOTH	Urban	F	1011101000001001	0000000000000000	-	car	292.330	19.094	0.000	0.000	180.000	696.000	987.000	-0.000	Terminate	
"Student1mode3"	"Tanvi_6"	"Nov 22, 2016 07:56:34 AM"	Unknown	110.98555	10/22/0116 07:58.28	00006659	19.020	Inter618t1-1	-0.100	2	2	230.930	24.444	-18.8	0.235	0.000	D	F	1867.8	231.291	0.196	-1.546	783.340	1252.119	0.260	-	-1.621	0.348	-	-	-	31	1.141	21.709	19.063	FREEWAY_SMOOTH	Urban	F	1011101000001001	0000000000000000	-	car	276.775	17.363	0.000	0.000	180.000	696.000	987.000	-0.000	Terminate	
"Student1mode3"	"Tanvi_6"	"Nov 22, 2016 07:56:34 AM"	Unknown	111.98557	10/22/0116 07:58.29	00006719	19.287	Inter618t1-1	0.003	2	2	226.357	24.444	-19.2	0.210	0.000	D	F	1841.7	226.081	0.163	-1.523	768.870	1239.564	0.263	-	-1.773	0.257	-	-	-	31	1.079	20.803	14.791	FREEWAY_SMOOTH	Urban	F	1011101000001001	0000000000000000	-	car	260.507	15.594	0.000	0.000	180.000	696.000	987.000	-0.000	Terminate	
"Student1mode3"	"Tanvi_6"	"Nov 22, 2016 07:56:34 AM"	Unknown	112.98560	10/22/0116 07:58.30	00006779	19.518	Inter618t1-1	-0.067	2	2	221.666	24.444	-18.7	0.210	0.000	D	F	1835.3	221.008	0.156	-1.532	755.420	1225.584	0.261	-	-1.724	0.224	-	-	-	31	0.990	19.328	11.808	FREEWAY_SMOOTH	Urban	F	1111101000001001	0000000000000000	-	car	243.512	14.005	0.000	0.000	180.000	696.000	987.000	-0.000	Terminate	
"Student1mode3"	"Tanvi_6"	"Nov 22, 2016 07:56:34 AM"	Unknown	113.98561	10/22/0116 07:58.31	00006839	19.724	Inter618t1-1	-0.203	2	2	216.922	24.444	-14.9	0.203	0.000	D	F	1833.6	216.664	0.168	-1.583	743.073	1210.337	0.257	-	-1.336	0.208	-	-	-	31	0.874	17.237	9.354	FREEWAY_SMOOTH	Urban	F	1111101000001001	0000000000000000	-	car	225.885	12.612	0.000	0.000	180.000	696.000	987.000	-0.000	Terminate	
"Student1mode3"	"Tanvi_6"	"Nov 22, 2016 07:56:34 AM"	Unknown	114.98563	10/22/0116 07:58.32	00006899	19.774	Inter618t1-1	-0.121	2	2	212.165	24.444	-18.0	0.000	0.000	D	F	1327.4	212.440	0.159	-1.543	731.751	1194.098	0.261	-	-1.638	-0.649	-	-	-	31	0.785	15.527	8.200	FREEWAY_SMOOTH	Urban	F	1011101000001001	0000000000000000	-	car	207.802	11.386	0.000	0.000	180.000	696.000	987.000	-0.000	Terminate	
"Student1mode3"	"Tanvi_6"	"Nov 22, 2016 07:56:34 AM"	Unknown	115.98566	10/22/0116 07:58.33	00006959	18.866	Inter618t1-1	-0.043	2	2	207.508	24.444	-15.1	0.000	0.000	D	F	1286.7	207.216	0.175	-1.546	722.029	1177.366	0.266	-	-1.615	-0.584	-	-	-	31	0.755	14.250	14.469	FREEWAY_SMOOTH	Urban	F	1011101000001001	0000000000000000	-	car	189.778	10.667	0.000	0.000	180.000	696.000	987.000	-0.000	Terminate	
"Student1mode3"	"Tanvi_6"	"Nov 22, 2016 07:56:34 AM"	Unknown	116.98567	10/22/0116 07:58.34	00007019	18.633	Inter618t1-1	-0.026	2	2	203.007	24.444	-15.5	0.143	0.000	D	F	1637.8	203.178	0.193	-1.584	714.009	1160.474	0.264	-	-1.327	-0.066	-	-	-	31	0.728	13.558	15.604	FREEWAY_SMOOTH	Urban	F	1011101000001001	0000000000000000	-	car	172.047	9.668	0.000	0.000	180.000	696.000	987.000	-0.000	Terminate	
"Student1mode3"	"Tanvi_6"	"Nov 22, 2016 07:56:34 AM"	Unknown	117.98569	10/22/0116 07:58.35	00007079	17.358	Inter618t1-1	0.056	2	2	198.552	24.444	-18.5	0.000	0.272	D	F	1141.1	198.407	0.085	-1.566	707.395	1143.368	0.273	-	-1.456	-3.821	-	-	-	31	0.741	12.866	-	FREEWAY_SMOOTH	Urban	F	1011101000001001	0000000000000000	-	car	154.423	9.178	0.000	0.000	180.000	696.000	987.000	-0.000	Terminate	
"Student1mode3"	"Tanvi_6"	"Nov 22, 2016 07:56:34 AM"	Unknown	118.98571	10/22/0116 07:58.36	00007139	14.541	Inter618t1-1	-0.023	2	2	194.829	24.444	-13.6	0.000	0.000	D	F	991.9	194.255	0.041	-1.605	702.976	1128.464	0.261	-	-0.943	-0.551	-	-	-	31	1.021	14.851	-	FREEWAY_SMOOTH	Urban	F	1011101000001001	0000000000000000	-	car	139.277	9.772	0.000	0.000	180.000	696.000	987.000	-0.000	Terminate	
"Student1mode3"	"Tanvi_6"	"Nov 22, 2016 07:56:34 AM"	Unknown	119.98573	10/22/0116 07:58.37	00007199	14.661	Inter618t1-1	-0.212	2	2	191.615	24.444	-10.1	0.175	0.000	D	F	1801.9	191.108	0.061	-1.441	699.830	1114.318	0.225	-	-0.649	0.349	-	-	-	31	1.251	18.344	-	FREEWAY_SMOOTH	Urban	F	1111101000001001	0000000000000000	-	car	125.017	8.643	0.000	0.000	180.000	696.000	987.000	-0.000	Terminate	
"Student1mode3"	"Tanvi_6"	"Nov 22, 2016 07:56:34 AM"	Unknown	120.98576	10/22/0116 07:58.38	00007259	14.708	Inter618t1-1	-0.308	2	2	188.754	24.444	-14.0	0.000	0.000	D	F	1440.7	188.542	0.065	-1.209	697.303	1099.756	0.200	-	-0.834	-0.595	-	-	-	31	1.471	21.634	-	FREEWAY_SMOOTH	Urban	F	1011101000001001	0000000000000000	-	car	110.405	7.578	0.000	0.000	180.000	696.000	987.000	-0.000	Terminate	
"Student1mode3"	"Tanvi_6"	"Nov 22, 2016 07:56:34 AM"	Unknown	121.98577	10/22/0116 07:58.39	00007319	14.601	Inter618t1-1	-0.435	2	2	186.279	24.444	-4.8	0.175	0.000	D	F	1831.3	185.989	0.080	-1.079	695.517	1085.291	0.170	-	-0.365	0.227	-	-	-	31	1.709	24.957	-	FREEWAY_SMOOTH	Urban	F	1011101000001001	0000000000000000	-	car	95.933	6.610	0.000	0.000	180.000	696.000	987.000	-0.000	Terminate	
"Student1mode3"	"Tanvi_6"	"Nov 22, 2016 07:56:34 AM"	Unknown	122.98579	10/22/0116 07:58.40	00007379	14.236	Inter618t1-1	-0.442	2	2	184.236	24.444	-8.8	0.000	0.000	D	F	1398.5	184.463	0.089	-0.852	694.192	1070.861	0.147	-	-0.506	-0.578	-	-	-	31	1.999	28.464	-	FREEWAY_SMOOTH	Urban	F	1011101000001001	0000000000000000	-	car	81.521	5.755	0.000	0.000	180.000	696.000	987.000	-0.000	Terminate	
"Student1mode3"	"Tanvi_6"	"Nov 22, 2016 07:56:34 AM"	Unknown	123.98581	10/22/0116 07:58.41	00007439	11.873	Inter618t1-1	-0.452	2	2	182.680	24.444	-14.1	0.000	0.418	D	F	1099.0	182.323	-0.022	-0.661	693.385	1057.384	0.132	-	-0.549	-5.116	-	-	-	31	2.757	32.732	-	FREEWAY_SMOOTH	Urban	F	1011101000001001	0000000000000000	-	car	68.073	5.751	0.000	0.000	180.000	696.000	987.000	-0.000	Terminate	
"Student1mode3"	"Tanvi_6"	"Nov 22, 2016 07:56:34 AM"	Unknown	124.98583	10/22/0116 07:58.42	00007499	7.599	Inter618t1-1	-0.628	2	2	181.808	24.444	-6.0	0.000	0.039	D	F	745.8	180.589	0.102	-0.585	693.189	1047.949	0.109	L	-0.132	-1.120	-	-	-	31	5.441	41.347	-	FREEWAY_SMOOTH	Urban	F	1011101000101001	0000000000000000	-	car	58.654	7.731	0.000	0.000	180.000	696.000	987.000	-0.000	Terminate	
"Student1mode3"	"Tanvi_6"	"Nov 22, 2016 07:56:34 AM"	Unknown	125.98586	10/22/0116 07:58.43	00007559	7.225	Inter618t1-1	-0.955	2	2	181.256	24.444	-24.9	0.118	0.000	D	F	1367.4	177.789	0.098	-0.440	693.320	1040.667	0.085	L	-0.424	0.576	-	-	-	-	-	-	-	FREEWAY_SMOOTH	Urban	F	1111101000101001	0000000000000000	-	car	51.375	7.111	0.000	0.000	180.000	696.000	987.000	-0.000	Terminate	
"Student1mode3"	"Tanvi_6"	"Nov 22, 2016 07:56:34 AM"	Unknown	126.98587	10/22/0116 07:58.44	00007619	8.253	Inter618t1-1	-1.692	2	2	180.773	24.444	-18.4	0.194	0.000	D	F	1768.8	174.370	0.085	-0.333	693.921	1033.015	0.063	L	-0.387	1.228	-	-	-	-	-	-	-	FREEWAY_SMOOTH	Urban	F	1111101000101001	0000000000000000	-	car	43.703	5.303	0.000	0.000	180.000	696.000	987.000	-0.000	Terminate	
"Student1mode3"	"Tanvi_6"	"Nov 22, 2016 07:56:34 AM"	Unknown	127.98589	10/22/0116 07:58.45	00007679	9.345	Inter618t1-0	0.896	1	2	180.365	24.444	22.8	0.157	0.000	D	F	1763.8	174.832	0.109	-0.347	694.846	1024.230	0.046	-	0.585	0.827	-	-	-	-	-	-	-	FREEWAY_SMOOTH	Urban	F	1111101000001001	0000000000000000	-	car	34.964	3.990	0.567	2.000	179.897	696.000	986.924	-0.000	Terminate	
"Student1mode3"	"Tanvi_6"	"Nov 22, 2016 07:56:34 AM"	Unknown	128.98592	10/22/0116 07:58.46	00007739	9.026	Inter618t1-0	0.289	1	2	180.103	24.444	9.8	0.000	0.033	D	F	896.8	177.356	0.122	-0.179	695.417	1014.984	0.040	-	0.265	-0.680	-	-	-	-	-	-	-	FREEWAY_SMOOTH	Urban	F	1011101000001001	0000000000000000	-	car	27.255	4.220	2.567	2.000	176.644	696.088	985.377	-0.000	Terminate	
"Student1mode3"	"Tanvi_6"	"Nov 22, 2016 07:56:34 AM"	Unknown	129.98593	10/22/0116 07:58.47	00007799	7.319	Inter618t1-0	0.004	1	2	180.005	24.444	2.4	0.000	0.158	D	F	704.2	178.448	0.096	-0.034	695.697	1006.734	0.034	-	0.055	-2.358	-	-	-	-	-	-	-	FREEWAY_SMOOTH	Urban	F	1011101000001001	0000000000000000	-	car	22.550	8.188	4.567	2.000	177.312	696.272	981.831	-0.000	Terminate	
"Student1mode3"	"Tanvi_6"	"Nov 22, 2016 07:56:34 AM"	Unknown	130.98595	10/22/0116 07:58.48	00007859	6.718	Inter686t1-0	0.527	1	1	180.000	11.111	-0.8	0.182	0.000	D	F	1466.5	178.573	0.228	-0.003	695.870	999.943	0.025	-	-0.017	0.739	-	-	-	-	-	-	-	PAVEMENT_GENERAL	Urban	F	1011101000001001	0000000000000000	-	car	21.306	140.580	6.567	2.000	179.356	696.386	976.282	-0.000	Terminate	
"Student1mode3"	"Tanvi_6"	"Nov 22, 2016 07:56:34 AM"	Unknown	131.98598	10/22/0116 07:58.49	00007919	8.237	Inter686t1-0	0.321	1	1	180.000	11.111	0.4	0.238	0.000	D	F	1849.8	178.317	0.215	-0.001	696.075	992.501	0.019	-	0.008	1.525	-	-	-	car	2.313	19.049	-	PAVEMENT_GENERAL	Urban	F	1011101000001001	0000000000000000	-	car	21.411	-64.874	8.567	2.000	180.020	696.399	968.732	-0.000	Terminate	
"Student1mode3"	"Tanvi_6"	"Nov 22, 2016 07:56:34 AM"	Unknown	132.98599	10/22/0116 07:58.50	00007979	9.685	Inter686t1-0	0.107	1	1	180.000	11.111	5.7	0.231	0.000	D	F	1956.7	178.987	0.212	-0.017	696.289	983.515	0.020	-	0.154	1.299	-	-	-	car	2.025	19.614	-	PAVEMENT_GENERAL	Urban	F	1111101000001001	0000000000000000	-	car	21.974	-24.891	10.567	2.000	180.004	696.397	959.182	-0.000	Terminate	
"Student1mode3"	"Tanvi_6"	"Nov 22, 2016 07:56:34 AM"	Unknown	133.98601	10/22/0116 07:58.51	00008039	10.656	Inter686t1-0	0.018	1	1	180.000	11.111	3.6	0.219	0.000	D	F	1980.4	179.866	0.211	-0.022	696.378	973.298	0.022	-	0.132	0.904	-	-	-	car	1.966	20.948	-	PAVEMENT_GENERAL	Urban	F	1011101000001001	0000000000000000	-	car	23.307	-12.196	12.567	2.000	180.003	696.397	947.631	-0.000	Terminate	
"Student1mode3"	"Tanvi_6"	"Nov 22, 2016 07:56:34 AM"	Unknown	134.98604	10/22/0116 07:58.52	00008099	11.856	Inter686t1-0	0.036	1	1	180.000	11.111	0.5	0.272	0.000	D	F	2168.1	180.199	0.210	-0.006	696.360	962.036	0.021	-	0.029	1.161	-	-	-	car	1.960	23.236	-	PAVEMENT_GENERAL	Urban	F	1011101000001001	0000000000000000	-	car	25.596	-9.440	14.567	2.000	180.003	696.397	934.081	-0.000	Terminate	
"Student1mode3"	"Tanvi_6"	"Nov 22, 2016 07:56:34 AM"	Unknown	135.98605	10/22/0116 07:58.53	00008159	13.040	Inter686t1-0	0.074	1	1	180.000	11.111	1.6	0.307	0.000	D	F	2343.3	180.135	0.209	-0.010	696.322	949.596	0.021	-	0.036	1.226	-	-	-	car	2.020	26.347	-	PAVEMENT_GENERAL	Urban	F	1011101000001001	0000000000000000	-	car	28.706	-8.139	16.567	2.000	180.002	696.397	918.530	-0.000	Terminate	
"Student1mode3"	"Tanvi_6"	"Nov 22, 2016 07:56:34 AM"	Unknown	136.98607	10/22/0116 07:58.54	00008219	14.347	Inter686t1-0	0.132	1	1	180.000	11.111	0.3	0.325	0.000	D	F	2522.4	180.287	0.207	-0.005	696.264	935.906	0.020	-	0.013	1.275	-	-	-	car	2.104	30.185	-	PAVEMENT_GENERAL	Urban	F	1011101000001001	0000000000000000	-	car	32.545	-8.129	18.350	1.000	180.002	696.397	901.001	-0.000	Terminate	
"Student1mode3"	"Tanvi_6"	"Nov 22, 2016 07:56:34 AM"	Unknown	137.98610	10/22/0116 07:58.55	00008279	15.634	Inter686t1-0	0.214	1	1	180.000	11.111	0.5	0.332	0.000	D	F	2704.6	180.356	0.207	-0.004	696.182	920.916	0.021	-	0.026	1.276	-	-	-	car	2.176	34.025	-	PAVEMENT_GENERAL	Urban	F	1011101000001001	0000000000000000	-	car	36.385	-10.105	19.234	0.500	180.002	696.397	882.172	-0.000	Terminate	
"Student1mode3"	"Tanvi_6"	"Nov 22, 2016 07:56:34 AM"	Unknown	138.98611	10/22/0116 07:58.56	00008339	16.850	Inter686t1-0	0.326	1	1	180.000	11.111	0.9	0.307	0.000	D	F	2860.7	180.421	0.203	-0.002	696.070	904.659	0.021	-	0.024	1.126	-	-	-	car	2.211	37.248	-	PAVEMENT_GENERAL	Urban	F	1111101000001001	0000000000000000	-	car	39.609	-13.728	19.734	0.500	180.002	696.397	862.692	-0.000	Terminate	
"Student1mode3"	"Tanvi_6"	"Nov 22, 2016 07:56:34 AM"	Unknown	139.98613	10/22/0116 07:58.57	00008399	17.911	Inter686t1-0	0.369	1	1	180.000	11.111	-5.0	0.295	0.000	D	F	2602.0	179.421	0.206	0.056	696.027	887.279	0.022	-	-0.422	1.107	-	-	-	car	2.224	39.835	-	PAVEMENT_GENERAL	Urban	F	1011101000001001	0000000000000000	-	car	42.196	-19.143	20.116	0.000	180.002	696.397	842.725	-0.000	Terminate	
"Student1mode3"	"Tanvi_6"	"Nov 22, 2016 07:56:34 AM"	Unknown	140.98616	10/22/0116 07:58.58	00008459	18.604	Inter686t1-0	0.146	1	1	180.000	11.111	1.7	0.293	0.000	D	F	2207.3	179.432	0.195	-0.014	696.250	868.994	0.024	-	0.135	0.595	-	-	-	car	2.240	41.667	-	PAVEMENT_GENERAL	Urban	F	1011101000001001	0000000000000000	-	car	44.026	-29.106	20.116	0.000	180.002	696.397	822.609	-0.000	Terminate	
"Student1mode3"	"Tanvi_6"	"Nov 22, 2016 07:56:34 AM"	Unknown	141.98618	10/22/0116 07:58.59	00008519	19.182	Inter686t1-0	0.012	1	1	180.000	11.111	0.7	0.295	0.000	D	F	2244.2	179.909	0.194	-0.019	696.384	850.100	0.024	-	0.148	0.564	-	-	-	car	2.236	42.888	-	PAVEMENT_GENERAL	Urban	F	1011101000001001	0000000000000000	-	car	45.247	-48.442	20.116	0.000	179.980	696.400	802.493	-0.000	Terminate	
"Student1mode3"	"Tanvi_6"	"Nov 22, 2016 07:56:34 AM"	Unknown	142.98619	10/22/0116 07:59.00	00008579	19.731	Inter686t1-0	-0.060	1	1	180.000	11.111	2.7	0.268	0.000	D	F	2265.8	179.669	0.191	-0.015	696.456	830.639	0.024	-	0.060	0.480	-	-	-	car	2.207	43.543	-	PAVEMENT_GENERAL	Urban	F	1011101000001001	0000000000000000	-	car	45.902	-119.142	20.116	0.000	179.995	696.403	782.377	-0.000	Terminate	
"Student1mode3"	"Tanvi_6"	"Nov 22, 2016 07:56:34 AM"	Unknown	143.98621	10/22/0116 07:59.01	00008639	20.202	Inter686t1-0	-0.085	1	1	180.000	11.111	1.5	0.270	0.000	D	F	2304.7	180.192	0.192	-0.016	696.481	810.672	0.025	-	0.123	0.476	-	-	-	car	2.163	43.692	507.516	PAVEMENT_GENERAL	Urban	F	1111101000001001	0000000000000000	-	car	46.052	534.930	20.116	0.000	179.996	696.403	762.261	-0.000	Terminate	
"Student1mode3"	"Tanvi_6"	"Nov 22, 2016 07:56:34 AM"	Unknown	144.98624	10/22/0116 07:59.02	00008699	20.677	Inter682t1-1	-0.009	1	1	180.000	11.111	-1.5	0.272	0.000	D	F	2342.8	180.068	0.191	0.015	696.412	790.232	0.025	-	-0.118	0.470	-	-	-	car	2.097	43.368	77.319	PAVEMENT_GENERAL	Urban	F	1011101000001001	0000000000000000	-	car	45.727	81.527	20.116	0.000	179.996	696.403	742.145	-0.000	Terminate	
"Student1mode3"	"Tanvi_6"	"Nov 22, 2016 07:56:34 AM"	Unknown	145.98625	10/22/0116 07:59.03	00008759	21.142	Inter682t1-1	-0.010	1	1	180.000	11.111	0.3	0.270	0.000	D	F	2374.5	179.949	0.190	-0.001	696.414	769.321	0.025	-	0.007	0.453	-	-	-	car	2.014	42.573	41.496	PAVEMENT_GENERAL	Urban	F	1011101000001001	0000000000000000	-	car	44.933	43.797	20.116	0.000	179.996	696.403	722.029	-0.000	Terminate	
"Student1mode3"	"Tanvi_6"	"Nov 22, 2016 07:56:34 AM"	Unknown	146.98627	10/22/0116 07:59.04	00008819	21.213	Inter682t1-1	-0.019	1	1	180.000	11.111	0.4	0.011	0.000	D	F	1537.5	180.007	0.171	-0.003	696.423	748.044	0.029	-	0.022	-0.544	-	-	-	car	1.952	41.412	37.735	PAVEMENT_GENERAL	Urban	F	1011101000001001	0000000000000000	-	car	43.772	39.885	20.116	0.000	179.996	696.403	701.913	-0.000	Terminate	
"Student1mode3"	"Tanvi_6"	"Nov 22, 2016 07:56:34 AM"	Unknown	147.98630	10/22/0116 07:59.05	00008879	20.600	Inter682t1-1	0.004	1	1	180.000	11.111	0.1	0.000	0.000	D	F	1406.2	180.136	0.180	-0.003	696.400	727.137	0.030	-	0.026	-0.613	-	-	-	car	1.972	40.621	83.955	PAVEMENT_GENERAL	Urban	F	1111101000001001	0000000000000000	-	car	42.980	88.843	20.116	0.000	179.996	696.403	681.797	-0.000	Terminate	
"Student1mode3"	"Tanvi_6"	"Nov 22, 2016 07:56:34 AM"	Unknown	148.98631	10/22/0116 07:59.06	00008939	20.120	Inter682t1-1	0.041	1	1	180.000	11.111	-2.1	0.032	0.000	D	F	1424.8	179.990	0.182	0.019	696.363	706.799	0.029	-	-0.129	-0.439	-	-	-	car	2.008	40.398	-	PAVEMENT_GENERAL	Urban	F	1111101000001001	0000000000000000	-	car	42.758	10017.248	20.116	0.000	179.996	696.403	661.681	-0.000	Terminate	
"Student1mode3"	"Tanvi_6"	"Nov 22, 2016 07:56:34 AM"	Unknown	149.98633	10/22/0116 07:59.07	00008999	19.731	Inter682t1-1	-0.024	1	1	180.000	11.111	-0.3	0.166	0.000	D	F	1723.5	179.622	0.188	0.001	696.427	686.899	0.028	-	-0.054	-0.090	-	-	-	car	2.058	40.615	-	PAVEMENT_GENERAL	Urban	F	1011101000001001	0000000000000000	-	car	42.974	-111.560	20.116	0.000	179.996	696.403	641.565	-0.000	Terminate	
"Student1mode3"	"Tanvi_6"	"Nov 22, 2016 07:56:34 AM"	Unknown	150.98636	10/22/0116 07:59.08	00009059	19.756	Inter682t1-1	-0.119	1	1	180.000	11.111	2.4	0.185	0.000	D	F	1797.4	179.977	0.192	-0.025	696.523	667.148	0.027	-	0.186	0.117	-	-	-	car	2.074	40.980	-	PAVEMENT_GENERAL	Urban	F	1111101000001001	0000000000000000	-	car	43.340	-120.252	20.116	0.000	179.996	696.403	621.449	-0.000	Terminate	
"Student1mode3"	"Tanvi_6"	"Nov 22, 2016 07:56:34 AM"	Unknown	151.98637	10/22/0116 07:59.09	00009119	19.940	Inter682t1-1	-0.121	1	1	180.000	11.111	0.2	0.166	0.000	D	F	1774.3	179.905	0.189	0.009	696.524	647.305	0.026	-	-0.053	0.167	-	-	-	car	2.069	41.253	-	PAVEMENT_GENERAL	Urban	F	1111101000001001	0000000000000000	-	car	43.613	-247.671	20.116	0.000	180.014	696.399	601.333	-0.000	Terminate	
"Student1mode3"	"Tanvi_6"	"Nov 22, 2016 07:56:34 AM"	Unknown	152.98639	10/22/0116 07:59.10	00009179	19.906	Inter682t1-1	-0.119	1	1	180.000	11.111	-0.5	0.000	0.000	D	F	1286.4	180.161	0.187	-0.003	696.523	627.357	0.027	-	0.041	-0.378	-	-	-	car	2.063	41.058	26.960	PAVEMENT_GENERAL	Urban	F	1011101000001001	0000000000000000	-	car	43.418	28.496	18.383	-4.000	180.466	696.623	581.580	-0.000	Terminate	
"Student1mode3"	"Tanvi_6"	"Nov 22, 2016 07:56:34 AM"	Unknown	153.98642	10/22/0116 07:59.11	00009239	18.101	Inter682t1-1	-0.100	1	1	180.000	11.111	-1.2	0.000	0.260	D	F	1190.3	179.837	0.119	0.016	696.504	608.010	0.036	-	-0.125	-3.725	-	-	-	car	2.106	38.128	10.254	PAVEMENT_GENERAL	Urban	F	1011101000001001	0000000000000000	-	car	40.487	10.889	14.383	-4.000	180.158	696.425	565.164	-0.000	Terminate	
