"Name"	"Project"	"Time"	ZoneName	Time	SystemTime	Frame	Velocity	LaneName	LanePos	LaneIndex	LaneCount	LaneHeading	SpeedLimit	Steer	Accel	Brake	Gear	Horn	SubjectEngineRPM	SubjectHeading	SubjectPitch	SubjectRoll	SubjectX	SubjectY	SubjectZ	Signal	LatAccel	LongAccel	Collision	CollisionAngle	CollisionVelocity	VehAhead	HeadwayTime	HeadwayDist	TTC	TerrainType	CultureType	Slip	DigitalInputs	DigitalInputs2	ActiveTrigger	EntityName	DistToEntity	TimeToEntity	EntityVelocity	EntityAccel	EntityHeading	EntityX	EntityY	EntityZ	GrabData	
"Student1mode3"	"Tanvi_6"	"Nov 22, 2016 07:59:47 AM"	Unknown	0.98335	10/22/0116 07:59.51	00000059	0.002	Inter625t13-0	-0.088	1	2	0.000	11.111	3.5	0.000	0.000	P	F	0.0	0.001	0.153	-0.001	1503.500	523.206	0.019	-	-0.000	0.000	-	-	-	-	-	-	-	PAVEMENT_GENERAL	Urban	F	1011101000001001	0000000000000000	-	car	928.855	774729.875	0.000	0.000	180.000	696.000	987.000	-0.000	Terminate	
"Student1mode3"	"Tanvi_6"	"Nov 22, 2016 07:59:47 AM"	Unknown	1.98337	10/22/0116 07:59.52	00000119	0.000	Inter625t13-0	-0.088	1	2	0.000	11.111	3.5	0.000	0.000	P	F	0.0	0.001	0.197	-0.000	1503.500	523.208	0.026	-	0.000	-0.001	-	-	-	-	-	-	-	PAVEMENT_GENERAL	Urban	F	1011101000001001	0000000000000000	-	car	928.855	4213588.000	0.000	0.000	180.000	696.000	987.000	-0.000	Terminate	
"Student1mode3"	"Tanvi_6"	"Nov 22, 2016 07:59:47 AM"	Unknown	2.98339	10/22/0116 07:59.53	00000179	-0.000	Inter625t13-0	-0.088	1	2	0.000	11.111	3.5	0.000	0.000	P	F	0.0	0.001	0.207	-0.000	1503.500	523.208	0.028	-	0.000	-0.000	-	-	-	-	-	-	-	PAVEMENT_GENERAL	Urban	F	1011101000001001	0000000000000000	-	car	928.854	-116069344.000	0.000	0.000	180.000	696.000	987.000	-0.000	Terminate	
"Student1mode3"	"Tanvi_6"	"Nov 22, 2016 07:59:47 AM"	Unknown	3.98341	10/22/0116 07:59.54	00000239	-0.000	Inter625t13-0	-0.088	1	2	0.000	11.111	3.5	0.000	0.937	P	F	0.0	0.001	0.209	-0.000	1503.500	523.208	0.028	-	0.000	0.000	-	-	-	-	-	-	-	PAVEMENT_GENERAL	Urban	F	1011101000001001	0000000000000000	-	car	928.854	-71039216.000	0.000	0.000	180.000	696.000	987.000	-0.000	Terminate	
"Student1mode3"	"Tanvi_6"	"Nov 22, 2016 07:59:47 AM"	Unknown	4.98343	10/22/0116 07:59.55	00000299	-0.000	Inter625t13-0	-0.088	1	2	0.000	11.111	3.5	0.000	0.934	P	F	244.4	0.001	0.209	-0.000	1503.500	523.208	0.028	-	0.000	0.000	-	-	-	-	-	-	-	PAVEMENT_GENERAL	Urban	F	1111101000001011	0000000000000000	-	car	928.854	-157072656.000	0.000	0.000	180.000	696.000	987.000	-0.000	Terminate	
"Student1mode3"	"Tanvi_6"	"Nov 22, 2016 07:59:47 AM"	Unknown	5.98345	10/22/0116 07:59.56	00000359	-0.000	Inter625t13-0	-0.088	1	2	0.000	11.111	3.5	0.000	0.934	P	F	477.5	0.001	0.209	-0.000	1503.500	523.208	0.028	-	0.000	0.000	-	-	-	-	-	-	-	PAVEMENT_GENERAL	Urban	F	1011101000001001	0000000000000000	-	car	928.854	-415213664.000	0.000	0.000	180.000	696.000	987.000	-0.000	Terminate	
"Student1mode3"	"Tanvi_6"	"Nov 22, 2016 07:59:47 AM"	Unknown	6.98347	10/22/0116 07:59.57	00000419	0.000	Inter625t13-0	-0.088	1	2	0.000	11.111	3.5	0.000	0.000	D	F	477.5	0.001	0.209	-0.000	1503.500	523.208	0.028	-	0.000	0.000	-	-	-	-	-	-	-	PAVEMENT_GENERAL	Urban	F	1011101000001001	0000000000000000	-	car	928.854	-	0.000	0.000	180.000	696.000	987.000	-0.000	Terminate	
"Student1mode3"	"Tanvi_6"	"Nov 22, 2016 07:59:47 AM"	Unknown	7.98349	10/22/0116 07:59.58	00000479	1.372	Inter625t13-0	-0.086	1	2	0.000	11.111	7.4	0.386	0.000	D	F	1699.2	0.055	0.009	-0.005	1503.502	523.425	0.000	-	0.029	4.623	-	-	-	-	-	-	-	PAVEMENT_GENERAL	Urban	T	1011101000001001	0000000000000000	-	car	928.748	1361.699	0.000	0.000	180.000	696.000	987.000	-0.000	Terminate	
"Student1mode3"	"Tanvi_6"	"Nov 22, 2016 07:59:47 AM"	Unknown	8.98351	10/22/0116 07:59.59	00000539	5.598	Inter625t13-0	-0.055	1	2	0.000	11.111	-0.9	0.515	0.000	D	F	2164.6	0.479	0.228	0.005	1503.533	527.031	0.009	-	-0.028	3.516	-	-	-	-	-	-	-	PAVEMENT_GENERAL	Urban	F	1011101000001001	0000000000000000	-	car	926.985	339.544	0.000	0.000	180.000	696.000	987.000	-0.000	Terminate	
"Student1mode3"	"Tanvi_6"	"Nov 22, 2016 07:59:47 AM"	Unknown	9.98353	10/22/0116 08:00.00	00000599	8.784	Inter625t49-0	-0.015	1	1	0.005	11.111	1.4	0.635	0.000	D	F	2845.4	0.282	0.230	-0.006	1503.573	534.256	0.012	-	0.031	3.075	-	-	-	-	-	-	-	PAVEMENT_GENERAL	Urban	F	1011101000001001	0000000000000000	-	car	923.465	216.878	0.000	0.000	180.000	696.000	987.000	-0.000	Terminate	
"Student1mode3"	"Tanvi_6"	"Nov 22, 2016 07:59:47 AM"	Unknown	10.98355	10/22/0116 08:00.01	00000659	11.797	Inter625t49-0	0.028	1	1	0.007	11.111	-3.0	0.616	0.000	D	F	3637.9	0.102	0.226	0.014	1503.617	544.559	0.013	-	-0.104	2.938	-	-	-	-	-	-	-	PAVEMENT_GENERAL	Urban	F	1011101000001001	0000000000000000	-	car	918.509	162.579	0.000	0.000	180.000	696.000	987.000	-0.000	Terminate	
"Student1mode3"	"Tanvi_6"	"Nov 22, 2016 07:59:47 AM"	Unknown	11.98357	10/22/0116 08:00.02	00000719	14.106	Inter625t49-0	0.017	1	1	0.006	11.111	4.2	0.520	0.000	D	F	2592.9	0.079	0.207	-0.025	1503.608	557.673	0.019	-	0.174	1.578	-	-	-	-	-	-	-	PAVEMENT_GENERAL	Urban	F	1011101000001001	0000000000000000	-	car	912.272	138.132	0.000	0.000	180.000	696.000	987.000	-0.000	Terminate	
"Student1mode3"	"Tanvi_6"	"Nov 22, 2016 07:59:47 AM"	Unknown	12.98359	10/22/0116 08:00.03	00000779	15.601	Inter625t49-0	0.093	1	1	0.005	11.111	-1.5	0.538	0.000	D	F	2728.0	0.315	0.209	0.010	1503.685	572.533	0.020	-	-0.066	1.470	-	-	-	-	-	-	-	PAVEMENT_GENERAL	Urban	F	1111101000001001	0000000000000000	-	car	905.461	128.505	0.000	0.000	180.000	696.000	987.000	-0.000	Terminate	
"Student1mode3"	"Tanvi_6"	"Nov 22, 2016 07:59:47 AM"	Unknown	13.98361	10/22/0116 08:00.04	00000839	16.622	Inter625t15-0	0.148	1	2	0.000	11.111	-2.2	0.000	0.000	D	F	1921.9	0.099	0.146	0.015	1503.741	588.812	0.026	-	-0.096	-0.534	-	-	-	-	-	-	-	PAVEMENT_GENERAL	Urban	F	1011101000001001	0000000000000000	-	car	898.196	122.643	0.000	0.000	180.000	696.000	987.000	-0.000	Terminate	
"Student1mode3"	"Tanvi_6"	"Nov 22, 2016 07:59:47 AM"	Unknown	14.98363	10/22/0116 08:00.05	00000899	16.038	Inter614t1-0	0.111	1	2	0.000	11.111	0.4	0.000	0.000	D	F	1579.9	359.644	0.187	0.007	1503.704	605.145	0.029	-	-0.042	-0.591	-	-	-	-	-	-	-	PAVEMENT_GENERAL	Urban	F	1011101000001001	0000000000000000	-	car	891.060	128.310	0.000	0.000	180.000	696.000	987.000	-0.000	Terminate	
"Student1mode3"	"Tanvi_6"	"Nov 22, 2016 07:59:47 AM"	Unknown	15.98365	10/22/0116 08:00.06	00000959	15.450	Inter614t1-0	0.059	1	2	0.000	11.111	0.3	0.000	0.000	D	F	1517.3	359.903	0.189	-0.002	1503.652	620.888	0.029	-	0.009	-0.583	-	-	-	-	-	-	-	PAVEMENT_GENERAL	Urban	F	1011101000001001	0000000000000000	-	car	884.398	138.128	0.000	0.000	180.000	696.000	987.000	-0.000	Terminate	
"Student1mode3"	"Tanvi_6"	"Nov 22, 2016 07:59:47 AM"	Unknown	16.98367	10/22/0116 08:00.07	00001019	14.873	Inter614t1-0	0.047	1	2	0.000	11.111	0.9	0.000	0.000	D	F	1460.6	0.054	0.189	-0.008	1503.641	636.049	0.029	-	0.057	-0.573	-	-	-	-	-	-	-	PAVEMENT_GENERAL	Urban	F	1011101000001001	0000000000000000	-	car	878.237	148.493	0.000	0.000	180.000	696.000	987.000	-0.000	Terminate	
"Student1mode3"	"Tanvi_6"	"Nov 22, 2016 07:59:47 AM"	Unknown	17.98369	10/22/0116 08:00.08	00001079	14.304	Inter614t1-0	0.085	1	2	0.000	11.111	-0.7	0.000	0.000	D	F	1404.8	0.195	0.190	0.003	1503.678	650.637	0.029	-	-0.018	-0.564	-	-	-	-	-	-	-	PAVEMENT_GENERAL	Urban	F	1011101000001001	0000000000000000	-	car	872.560	159.976	0.000	0.000	180.000	696.000	987.000	-0.000	Terminate	
"Student1mode3"	"Tanvi_6"	"Nov 22, 2016 07:59:47 AM"	Unknown	18.98371	10/22/0116 08:00.09	00001139	13.745	Inter614t1-0	0.105	1	2	0.000	11.111	0.3	0.000	0.000	D	F	1350.0	359.930	0.191	0.000	1503.698	664.661	0.029	-	-0.023	-0.555	-	-	-	-	-	-	-	PAVEMENT_GENERAL	Urban	F	1111101000001001	0000000000000000	-	car	867.283	169.710	0.000	0.000	180.000	696.000	987.000	-0.000	Terminate	
"Student1mode3"	"Tanvi_6"	"Nov 22, 2016 07:59:47 AM"	Unknown	19.98373	10/22/0116 08:00.10	00001199	13.195	Inter614t1-0	0.102	1	2	0.000	11.111	2.3	0.000	0.000	D	F	1296.2	0.148	0.191	-0.016	1503.695	678.131	0.029	-	0.116	-0.546	-	-	-	-	-	-	-	PAVEMENT_GENERAL	Urban	F	1111101000001001	0000000000000000	-	car	862.378	184.223	0.000	0.000	180.000	696.000	987.000	-0.000	Terminate	
"Student1mode3"	"Tanvi_6"	"Nov 22, 2016 07:59:47 AM"	Unknown	20.98375	10/22/0116 08:00.11	00001259	12.653	Inter614t1-0	0.196	1	2	0.000	11.111	1.6	0.000	0.000	D	F	1243.0	0.692	0.192	-0.014	1503.790	691.053	0.029	-	0.100	-0.538	-	-	-	-	-	-	-	PAVEMENT_GENERAL	Urban	F	1011101000001001	0000000000000000	-	car	857.936	203.845	0.000	0.000	180.000	696.000	987.000	-0.000	Terminate	
"Student1mode3"	"Tanvi_6"	"Nov 22, 2016 07:59:47 AM"	Unknown	21.98377	10/22/0116 08:00.12	00001319	12.438	Inter614t1-0	0.318	1	2	0.000	11.111	-6.0	0.219	0.000	D	F	1813.6	0.222	0.220	0.032	1503.911	703.484	0.024	-	-0.226	0.809	-	-	-	-	-	-	-	PAVEMENT_GENERAL	Urban	F	1011101000001001	0000000000000000	-	car	853.854	209.632	0.000	0.000	180.000	696.000	987.000	-0.000	Terminate	
"Student1mode3"	"Tanvi_6"	"Nov 22, 2016 07:59:47 AM"	Unknown	22.98379	10/22/0116 08:00.13	00001379	13.247	Inter614t1-0	0.293	1	2	0.000	11.111	0.4	0.206	0.000	D	F	1824.4	359.838	0.203	-0.004	1503.886	716.337	0.023	-	0.024	0.699	-	-	-	-	-	-	-	PAVEMENT_GENERAL	Urban	F	1011101000001001	0000000000000000	-	car	849.661	200.229	0.000	0.000	180.000	696.000	987.000	-0.000	Terminate	
"Student1mode3"	"Tanvi_6"	"Nov 22, 2016 07:59:47 AM"	Unknown	23.98381	10/22/0116 08:00.14	00001439	13.985	Inter614t1-0	0.277	1	2	0.000	11.111	-1.3	0.252	0.000	D	F	1917.7	359.916	0.203	0.005	1503.870	729.936	0.023	-	-0.056	0.776	-	-	-	-	-	-	-	PAVEMENT_GENERAL	Urban	F	1011101000001001	0000000000000000	-	car	845.423	198.452	0.000	0.000	180.000	696.000	987.000	-0.000	Terminate	
"Student1mode3"	"Tanvi_6"	"Nov 22, 2016 07:59:47 AM"	Unknown	24.98383	10/22/0116 08:00.15	00001499	14.817	Inter614t1-0	0.254	1	2	0.000	11.111	0.6	0.325	0.000	D	F	2035.2	0.022	0.203	-0.007	1503.847	744.326	0.022	-	0.054	0.895	-	-	-	-	-	-	-	PAVEMENT_GENERAL	Urban	F	1111101000001001	0000000000000000	-	car	841.149	197.585	0.000	0.000	180.000	696.000	987.000	-0.000	Terminate	
"Student1mode3"	"Tanvi_6"	"Nov 22, 2016 07:59:47 AM"	Unknown	25.98385	10/22/0116 08:00.16	00001559	15.710	Inter614t1-0	0.261	1	2	0.000	11.111	-0.9	0.349	0.000	D	F	2096.6	0.000	0.203	0.007	1503.854	759.590	0.022	-	-0.052	0.881	-	-	-	-	-	-	-	PAVEMENT_GENERAL	Urban	F	1111101000001001	0000000000000000	-	car	836.892	196.210	0.000	0.000	180.000	696.000	987.000	-0.000	Terminate	
"Student1mode3"	"Tanvi_6"	"Nov 22, 2016 07:59:47 AM"	Unknown	26.98387	10/22/0116 08:00.17	00001619	16.566	Inter614t1-0	0.250	1	2	0.000	11.111	1.9	0.337	0.000	D	F	2139.1	0.025	0.201	-0.012	1503.843	775.732	0.023	-	0.084	0.830	-	-	-	-	-	-	-	PAVEMENT_GENERAL	Urban	F	1111101000001001	0000000000000000	-	car	832.652	198.988	0.000	0.000	180.000	696.000	987.000	-0.000	Terminate	
"Student1mode3"	"Tanvi_6"	"Nov 22, 2016 07:59:47 AM"	Unknown	27.98389	10/22/0116 08:00.18	00001679	17.260	Inter614t1-0	0.288	1	2	0.000	11.111	-1.3	0.067	0.000	D	F	1760.8	0.147	0.181	0.008	1503.881	792.680	0.024	-	-0.050	-0.014	-	-	-	-	-	-	-	PAVEMENT_GENERAL	Urban	F	1011101000001001	0000000000000000	-	car	828.563	207.481	0.000	0.000	180.000	696.000	987.000	-0.000	Terminate	
"Student1mode3"	"Tanvi_6"	"Nov 22, 2016 07:59:47 AM"	Unknown	28.98391	10/22/0116 08:00.19	00001739	16.724	Inter612t1-0	0.293	1	2	0.000	11.111	0.9	0.000	0.000	D	F	1642.4	0.000	0.186	-0.005	1503.886	809.698	0.029	-	0.036	-0.599	-	-	-	-	-	-	-	PAVEMENT_GENERAL	Urban	F	1011101000001001	0000000000000000	-	car	824.754	229.535	0.000	0.000	180.000	696.000	987.000	-0.000	Terminate	
"Student1mode3"	"Tanvi_6"	"Nov 22, 2016 07:59:47 AM"	Unknown	29.98393	10/22/0116 08:00.20	00001799	16.130	Inter612t1-0	0.292	1	2	0.000	11.111	0.3	0.000	0.000	D	F	1583.7	0.018	0.187	-0.003	1503.885	826.124	0.029	-	0.014	-0.588	-	-	-	-	-	-	-	PAVEMENT_GENERAL	Urban	F	1111101000001001	0000000000000000	-	car	821.388	261.164	0.000	0.000	180.000	696.000	987.000	-0.000	Terminate	
"Student1mode3"	"Tanvi_6"	"Nov 22, 2016 07:59:47 AM"	Unknown	30.98395	10/22/0116 08:00.21	00001859	15.541	Inter612t1-0	0.302	1	2	0.000	11.111	0.0	0.000	0.000	D	F	1526.1	0.061	0.188	-0.001	1503.895	841.959	0.029	-	0.008	-0.584	-	-	-	-	-	-	-	PAVEMENT_GENERAL	Urban	F	1111101000001001	0000000000000000	-	car	818.452	299.798	0.000	0.000	180.000	696.000	987.000	-0.000	Terminate	
"Student1mode3"	"Tanvi_6"	"Nov 22, 2016 07:59:47 AM"	Unknown	31.98397	10/22/0116 08:00.22	00001919	14.962	Inter612t1-0	0.320	1	2	0.000	11.111	-0.0	0.000	0.000	D	F	1469.3	0.074	0.189	-0.000	1503.914	857.210	0.029	-	0.000	-0.575	-	-	-	-	-	-	-	PAVEMENT_GENERAL	Urban	F	1111101000001001	0000000000000000	-	car	815.913	346.599	0.000	0.000	180.000	696.000	987.000	-0.000	Terminate	
"Student1mode3"	"Tanvi_6"	"Nov 22, 2016 07:59:47 AM"	Unknown	32.98399	10/22/0116 08:00.23	00001979	14.392	Inter612t1-0	0.337	1	2	0.000	11.111	-0.1	0.000	0.000	D	F	1413.5	0.055	0.190	0.001	1503.931	871.887	0.029	-	-0.006	-0.565	-	-	-	-	-	-	-	PAVEMENT_GENERAL	Urban	F	1011101000001001	0000000000000000	-	car	813.731	403.538	0.000	0.000	180.000	696.000	987.000	-0.000	Terminate	
"Student1mode3"	"Tanvi_6"	"Nov 22, 2016 07:59:47 AM"	Unknown	33.98401	10/22/0116 08:00.24	00002039	13.960	Inter612t1-0	0.351	1	2	0.000	11.111	0.9	0.143	0.000	D	F	1702.3	0.105	0.215	-0.006	1503.945	886.009	0.027	-	0.046	0.352	-	-	-	-	-	-	-	PAVEMENT_GENERAL	Urban	F	1111101000001001	0000000000000000	-	car	811.872	475.858	0.000	0.000	180.000	696.000	987.000	-0.000	Terminate	
"Student1mode3"	"Tanvi_6"	"Nov 22, 2016 07:59:47 AM"	Unknown	34.98403	10/22/0116 08:00.25	00002099	14.638	Inter612t1-0	0.384	1	2	0.000	11.111	-0.5	0.272	0.000	D	F	1973.3	0.089	0.202	0.005	1503.977	900.263	0.023	-	-0.032	0.766	-	-	-	-	-	-	-	PAVEMENT_GENERAL	Urban	F	1011101000001001	0000000000000000	-	car	810.260	526.250	0.000	0.000	180.000	696.000	987.000	-0.000	Terminate	
"Student1mode3"	"Tanvi_6"	"Nov 22, 2016 07:59:47 AM"	Unknown	35.98405	10/22/0116 08:00.26	00002159	15.321	Inter612t1-0	0.401	1	2	0.000	11.111	0.5	0.233	0.000	D	F	1971.3	0.064	0.200	-0.003	1503.994	915.253	0.024	-	0.021	0.633	-	-	-	-	-	-	-	PAVEMENT_GENERAL	Urban	F	1111101000001001	0000000000000000	-	car	808.813	604.425	0.000	0.000	180.000	696.000	987.000	-0.000	Terminate	
"Student1mode3"	"Tanvi_6"	"Nov 22, 2016 07:59:47 AM"	Unknown	36.98407	10/22/0116 08:00.27	00002219	15.920	Inter612t1-0	0.428	1	2	0.000	11.111	-0.7	0.222	0.000	D	F	1985.5	0.130	0.199	0.002	1504.021	930.879	0.024	-	-0.013	0.563	-	-	-	-	-	-	-	PAVEMENT_GENERAL	Urban	F	1111101000001001	0000000000000000	-	car	807.608	756.823	0.000	0.000	180.000	696.000	987.000	-0.000	Terminate	
"Student1mode3"	"Tanvi_6"	"Nov 22, 2016 07:59:47 AM"	Unknown	37.98409	10/22/0116 08:00.28	00002279	16.445	Inter612t1-0	0.448	1	2	0.000	11.111	-0.4	0.215	0.000	D	F	2000.7	0.000	0.198	0.003	1504.041	947.067	0.024	-	-0.031	0.503	-	-	-	-	-	-	-	PAVEMENT_GENERAL	Urban	F	1011101000001001	0000000000000000	-	car	806.668	991.836	0.000	0.000	180.000	696.000	987.000	-0.000	Terminate	
"Student1mode3"	"Tanvi_6"	"Nov 22, 2016 07:59:47 AM"	Unknown	38.98411	10/22/0116 08:00.29	00002339	16.933	Inter612t1-0	0.443	1	2	0.000	11.111	0.2	0.215	0.000	D	F	2018.1	0.000	0.196	-0.002	1504.036	963.759	0.024	-	0.012	0.462	-	-	-	-	-	-	-	PAVEMENT_GENERAL	Urban	F	1011101000001001	0000000000000000	-	car	806.011	1649.946	0.000	0.000	180.000	696.000	987.000	-0.000	Terminate	
"Student1mode3"	"Tanvi_6"	"Nov 22, 2016 07:59:47 AM"	Unknown	39.98413	10/22/0116 08:00.30	00002399	17.373	Inter612t1-0	0.446	1	2	0.000	11.111	0.2	0.215	0.000	D	F	2038.6	0.027	0.196	-0.001	1504.039	980.915	0.025	-	0.011	0.425	-	-	-	-	-	-	-	PAVEMENT_GENERAL	Urban	F	1011101000001001	0000000000000000	-	car	805.702	6569.003	0.000	0.000	180.000	696.000	987.000	-0.000	Terminate	
"Student1mode3"	"Tanvi_6"	"Nov 22, 2016 07:59:47 AM"	Unknown	40.98415	10/22/0116 08:00.31	00002459	17.792	Inter612t1-0	0.459	1	2	0.000	11.111	0.1	0.217	0.000	D	F	2071.0	0.061	0.195	-0.001	1504.052	998.499	0.025	-	0.008	0.403	-	-	-	-	-	-	-	PAVEMENT_GENERAL	Urban	F	1011101000001001	0000000000000000	-	car	805.774	-2960.154	0.000	0.000	180.000	696.000	987.000	-0.000	Terminate	
"Student1mode3"	"Tanvi_6"	"Nov 22, 2016 07:59:47 AM"	Unknown	41.98417	10/22/0116 08:00.32	00002519	18.184	Inter613t1-0	0.476	1	2	0.000	11.111	-0.2	0.212	0.000	D	F	2097.0	0.014	0.194	0.002	1504.069	1016.489	0.025	-	-0.022	0.382	-	-	-	-	-	-	-	PAVEMENT_GENERAL	Urban	F	1011101000001001	0000000000000000	-	car	806.247	-1207.714	0.000	0.000	180.000	696.000	987.000	-0.000	Terminate	
"Student1mode3"	"Tanvi_6"	"Nov 22, 2016 07:59:47 AM"	Unknown	42.98419	10/22/0116 08:00.33	00002579	18.554	Inter613t1-0	0.476	1	2	0.000	11.111	-0.1	0.212	0.000	D	F	2119.9	0.000	0.193	0.001	1504.070	1034.861	0.025	-	-0.008	0.354	-	-	-	-	-	-	-	PAVEMENT_GENERAL	Urban	F	1111101000001001	0000000000000000	-	car	807.126	-739.144	0.000	0.000	180.000	696.000	987.000	-0.000	Terminate	
"Student1mode3"	"Tanvi_6"	"Nov 22, 2016 07:59:47 AM"	Unknown	43.98421	10/22/0116 08:00.34	00002639	18.902	Inter613t1-0	0.469	1	2	0.000	11.111	-0.0	0.208	0.000	D	F	2143.9	0.000	0.193	0.001	1504.062	1053.590	0.025	-	-0.004	0.341	-	-	-	-	-	-	-	PAVEMENT_GENERAL	Urban	F	1011101000001001	0000000000000000	-	car	808.442	-524.402	0.000	0.000	180.000	696.000	987.000	-0.000	Terminate	
"Student1mode3"	"Tanvi_6"	"Nov 22, 2016 07:59:47 AM"	Unknown	44.98423	10/22/0116 08:00.35	00002699	19.235	Inter613t1-0	0.457	1	2	0.000	11.111	-0.1	0.212	0.000	D	F	2166.0	0.000	0.192	0.001	1504.050	1072.660	0.025	-	-0.006	0.324	-	-	-	-	-	-	-	PAVEMENT_GENERAL	Urban	F	1111101000001001	0000000000000000	-	car	810.218	-402.659	0.000	0.000	180.000	696.000	987.000	-0.000	Terminate	
"Student1mode3"	"Tanvi_6"	"Nov 22, 2016 07:59:47 AM"	Unknown	45.98425	10/22/0116 08:00.36	00002759	19.552	Inter613t1-0	0.438	1	2	0.000	11.111	-0.3	0.213	0.000	D	F	2188.6	359.922	0.191	0.002	1504.031	1092.054	0.025	-	-0.016	0.311	-	-	-	-	-	-	-	PAVEMENT_GENERAL	Urban	F	1011101000001001	0000000000000000	-	car	812.472	-325.730	0.000	0.000	180.000	696.000	987.000	-0.000	Terminate	
"Student1mode3"	"Tanvi_6"	"Nov 22, 2016 07:59:47 AM"	Unknown	46.98427	10/22/0116 08:00.37	00002819	19.855	Inter613t1-0	0.391	1	2	0.000	11.111	-0.4	0.208	0.000	D	F	2206.5	359.759	0.190	0.006	1503.984	1111.759	0.025	-	-0.050	0.294	-	-	-	-	-	-	-	PAVEMENT_GENERAL	Urban	F	1011101000001001	0000000000000000	-	car	815.199	-276.591	0.000	0.000	180.000	696.000	987.000	-0.000	Terminate	
"Student1mode3"	"Tanvi_6"	"Nov 22, 2016 07:59:47 AM"	Unknown	47.98429	10/22/0116 08:00.38	00002879	20.136	Inter613t1-0	0.313	1	2	0.000	11.111	1.5	0.192	0.000	D	F	2211.8	359.889	0.188	-0.014	1503.906	1131.758	0.025	-	0.103	0.214	-	-	-	-	-	-	-	PAVEMENT_GENERAL	Urban	F	1011101000001001	0000000000000000	-	car	818.413	-232.983	0.000	0.000	180.000	696.000	987.000	-0.000	Terminate	
"Student1mode3"	"Tanvi_6"	"Nov 22, 2016 07:59:47 AM"	Unknown	48.98431	10/22/0116 08:00.39	00002939	19.946	Inter613t1-0	0.307	1	2	0.000	11.111	2.1	0.000	0.000	D	F	1403.0	0.147	0.180	-0.019	1503.900	1151.888	0.029	-	0.148	-0.597	-	-	-	-	-	-	-	PAVEMENT_GENERAL	Urban	F	1011101000001001	0000000000000000	-	car	822.195	-203.582	0.000	0.000	180.000	696.000	987.000	-0.000	Terminate	
"Student1mode3"	"Tanvi_6"	"Nov 22, 2016 07:59:47 AM"	Unknown	49.98433	10/22/0116 08:00.40	00002999	19.115	Inter613t1-0	0.415	1	2	0.000	11.111	-0.8	0.000	0.131	D	F	1280.8	0.559	0.130	-0.004	1504.008	1171.513	0.031	L	0.053	-2.091	-	-	-	-	-	-	-	PAVEMENT_GENERAL	Urban	F	1111101000101001	0000000000000000	-	car	826.448	-186.254	0.000	0.000	180.000	696.000	987.000	-0.000	Terminate	
"Student1mode3"	"Tanvi_6"	"Nov 22, 2016 07:59:47 AM"	Unknown	50.98435	10/22/0116 08:00.41	00003059	16.442	Inter613t1-0	0.517	1	2	0.000	11.111	-8.7	0.000	0.221	D	F	1088.0	359.703	0.137	0.064	1504.110	1189.390	0.035	L	-0.466	-3.286	-	-	-	-	-	-	-	PAVEMENT_GENERAL	Urban	F	1111101000101001	0000000000000000	-	car	830.709	-212.355	0.000	0.000	180.000	696.000	987.000	-0.000	Terminate	
"Student1mode3"	"Tanvi_6"	"Nov 22, 2016 07:59:47 AM"	Unknown	51.98437	10/22/0116 08:00.42	00003119	12.850	Inter615t9-0	0.164	1	2	0.000	11.111	-15.4	0.000	0.239	D	F	957.1	356.660	0.135	0.117	1503.757	1204.059	0.036	L	-0.856	-3.644	-	-	-	-	-	-	-	PAVEMENT_GENERAL	Urban	F	1111101000101001	0000000000000000	-	car	834.053	-320.022	0.000	0.000	180.000	696.000	987.000	-0.000	Terminate	
"Student1mode3"	"Tanvi_6"	"Nov 22, 2016 07:59:47 AM"	Unknown	52.98439	10/22/0116 08:00.43	00003179	12.092	Inter615t9-0	-0.783	1	2	0.000	11.111	-6.2	0.035	0.000	D	F	1279.9	354.806	0.194	0.036	1502.810	1216.386	0.029	L	-0.281	-0.403	-	-	-	22	4.614	55.787	4.614	PAVEMENT_GENERAL	Urban	F	1011101000101001	0000000000000000	-	car	836.425	-373.335	0.000	0.000	180.000	696.000	987.000	-0.000	Terminate	
"Student1mode3"	"Tanvi_6"	"Nov 22, 2016 07:59:47 AM"	Unknown	53.98441	10/22/0116 08:00.44	00003239	12.103	Inter615t31-0	-1.344	1	1	355.071	11.111	3.5	0.000	0.000	D	F	1127.2	354.197	0.185	-0.013	1501.618	1228.426	0.026	-	0.101	-0.455	-	-	-	22	3.808	46.087	3.808	PAVEMENT_GENERAL	Urban	F	1111101000001001	0000000000000000	-	car	838.656	-367.141	0.000	0.000	180.000	696.000	987.000	-0.000	Terminate	
"Student1mode3"	"Tanvi_6"	"Nov 22, 2016 07:59:47 AM"	Unknown	54.98443	10/22/0116 08:00.45	00003299	11.482	Inter615t31-0	-1.379	1	1	355.293	11.111	17.1	0.000	0.072	D	F	1118.5	356.772	0.163	-0.087	1500.639	1240.212	0.029	-	0.679	-1.299	-	-	-	22	2.978	34.194	2.978	PAVEMENT_GENERAL	Urban	F	1011101000001001	0000000000000000	T2	car	841.181	-297.842	0.000	0.000	180.000	696.000	987.000	-0.000	Terminate	
"Student1mode3"	"Tanvi_6"	"Nov 22, 2016 07:59:47 AM"	Unknown	55.98445	10/22/0116 08:00.46	00003359	9.168	Inter615t31-0	-0.655	1	1	356.903	11.111	7.4	0.000	0.179	D	F	879.3	359.352	0.165	-0.022	1500.320	1250.662	0.034	-	0.243	-2.698	-	-	-	22	2.601	23.848	2.601	PAVEMENT_GENERAL	Urban	F	1111101000001001	0000000000000000	-	car	844.073	-306.147	0.000	0.000	180.000	696.000	987.000	-0.000	Terminate	
"Student1mode3"	"Tanvi_6"	"Nov 22, 2016 07:59:47 AM"	Unknown	56.98447	10/22/0116 08:00.47	00003419	5.784	Inter615t31-0	-0.250	1	1	356.903	11.111	0.9	0.000	0.269	D	F	547.2	0.265	0.125	-0.000	1500.312	1258.294	0.037	-	0.007	-4.108	-	-	-	22	2.807	16.233	2.807	PAVEMENT_GENERAL	Urban	F	1011101000001001	0000000000000000	-	car	846.474	-451.748	0.000	0.000	180.000	696.000	987.000	-0.000	Terminate	
"Student1mode3"	"Tanvi_6"	"Nov 22, 2016 07:59:47 AM"	Unknown	57.98449	10/22/0116 08:00.48	00003479	3.509	Inter615t31-0	0.024	1	1	356.903	11.111	-4.4	0.000	0.185	D	F	481.0	0.162	0.156	0.005	1500.330	1263.036	0.033	-	-0.032	-2.761	-	-	-	22	3.277	11.499	3.277	PAVEMENT_GENERAL	Urban	F	1111101000001001	0000000000000000	-	car	848.018	-738.369	0.000	0.000	180.000	696.000	987.000	-0.000	Terminate	
"Student1mode3"	"Tanvi_6"	"Nov 22, 2016 07:59:47 AM"	Unknown	58.98451	10/22/0116 08:00.49	00003539	1.378	Inter615t31-0	0.149	1	1	356.903	11.111	4.3	0.000	0.149	D	F	477.5	0.000	0.171	-0.001	1500.326	1265.422	0.032	-	0.006	-2.069	-	-	-	22	4.895	6.744	4.895	PAVEMENT_GENERAL	Urban	F	1011101000001001	0000000000000000	-	car	848.792	-1886.619	0.000	0.000	180.000	696.000	987.000	-0.000	Terminate	
"Student1mode3"	"Tanvi_6"	"Nov 22, 2016 07:59:47 AM"	Unknown	59.98453	10/22/0116 08:00.50	00003599	0.050	Inter615t31-0	0.181	1	1	356.903	11.111	2.3	0.000	0.158	D	F	477.5	0.013	0.224	0.000	1500.327	1265.982	0.030	-	-0.000	-0.342	-	-	-	22	123.786	6.186	123.786	PAVEMENT_GENERAL	Urban	F	1011101000001001	0000000000000000	-	car	848.977	-51812.367	0.000	0.000	180.000	696.000	987.000	-0.000	Terminate	
"Student1mode3"	"Tanvi_6"	"Nov 22, 2016 07:59:47 AM"	Unknown	60.98455	10/22/0116 08:00.51	00003659	0.100	Inter615t31-0	0.183	1	1	356.903	11.111	4.2	0.002	0.000	D	F	477.5	0.016	0.212	-0.000	1500.328	1266.024	0.026	-	0.001	0.186	-	-	-	22	61.282	6.143	61.282	PAVEMENT_GENERAL	Urban	F	1111101000001001	0000000000000000	-	car	848.991	-25818.582	0.000	0.000	180.000	696.000	987.000	-0.000	Terminate	
"Student1mode3"	"Tanvi_6"	"Nov 22, 2016 07:59:47 AM"	Unknown	61.98457	10/22/0116 08:00.52	00003719	0.814	Inter615t31-0	0.218	1	1	356.903	11.111	4.2	0.000	0.000	D	F	477.5	0.071	0.182	-0.000	1500.329	1266.633	0.023	-	0.002	-0.053	-	-	-	22	6.975	5.676	120.690	PAVEMENT_GENERAL	Urban	F	1111101000001001	0000000000000000	-	car	849.192	-3166.765	0.000	0.000	180.000	696.000	987.000	-0.000	Terminate	
"Student1mode3"	"Tanvi_6"	"Nov 22, 2016 07:59:47 AM"	Unknown	62.98459	10/22/0116 08:00.53	00003779	1.821	Inter615t11-0	0.272	LT1	2	0.000	11.111	3.4	0.072	0.000	D	F	1188.6	0.173	0.121	-0.006	1500.334	1267.561	0.013	L	0.007	3.172	-	-	-	22	4.860	8.852	-	PAVEMENT_GENERAL	Urban	F	1011101000101001	0000000000000000	-	car	849.502	-1404.016	0.000	0.000	180.000	696.000	987.000	-0.000	Terminate	
"Student1mode3"	"Tanvi_6"	"Nov 22, 2016 07:59:47 AM"	Unknown	63.98461	10/22/0116 08:00.54	00003839	4.984	Inter615t11-0	0.296	LT1	2	0.000	11.111	3.7	0.353	0.000	D	F	2026.6	0.434	0.224	-0.005	1500.358	1270.833	0.009	L	0.035	3.566	-	-	-	22	1.873	9.336	42.888	PAVEMENT_GENERAL	Urban	F	1011101000101001	0000000000000000	-	car	850.608	-502.087	0.000	0.000	180.000	696.000	987.000	-0.000	Terminate	
"Student1mode3"	"Tanvi_6"	"Nov 22, 2016 07:59:47 AM"	Unknown	64.98463	10/22/0116 08:00.55	00003899	7.479	Inter615t11-0	0.377	LT1	2	0.000	11.111	-1.1	0.032	0.000	D	F	1534.5	0.801	0.149	0.003	1500.439	1277.290	0.018	L	-0.028	0.082	-	-	-	22	1.161	8.680	12.192	PAVEMENT_GENERAL	Urban	F	1011101000101001	0000000000000000	-	car	852.854	-323.460	0.000	0.000	180.000	696.000	987.000	-0.000	Terminate	
"Student1mode3"	"Tanvi_6"	"Nov 22, 2016 07:59:47 AM"	Unknown	65.98465	10/22/0116 08:00.56	00003959	8.635	Inter615t65-0	0.688	1	1	347.851	11.111	-77.8	0.203	0.000	D	F	1825.6	357.872	0.209	0.264	1500.390	1285.253	0.020	L	-1.822	1.202	-	-	-	22	0.993	8.572	-	PAVEMENT_GENERAL	Urban	F	1011101000101001	0000000000000000	-	car	855.544	-316.947	0.000	0.000	180.000	696.000	987.000	-0.000	Terminate	
"Student1mode3"	"Tanvi_6"	"Nov 22, 2016 07:59:47 AM"	Unknown	66.98467	10/22/0116 08:00.57	00004019	9.713	-Inter615t61-0	-1.293	-1	1	89.733	11.111	-209.0	0.335	0.000	D	F	2070.1	335.756	0.256	0.707	1498.270	1294.101	0.027	L	-5.328	1.093	-	-	-	22	1.198	11.639	-	PAVEMENT_GENERAL	Urban	F	1011101000101001	0000000000000000	-	car	856.680	1533.031	0.000	0.000	180.000	696.000	987.000	-0.000	Terminate	
"Student1mode3"	"Tanvi_6"	"Nov 22, 2016 07:59:47 AM"	Unknown	67.98470	10/22/0116 08:00.58	00004079	11.090	Inter615t65-0	1.766	1	1	306.073	11.111	-173.7	0.647	0.000	D	F	2266.1	303.557	0.257	0.711	1491.337	1301.673	0.030	L	-5.608	1.398	-	-	-	22	0.900	9.976	-	PAVEMENT_GENERAL	Urban	F	1011101000101001	0000000000000000	-	car	852.965	134.576	0.000	0.000	180.000	696.000	987.000	-0.000	Terminate	
