ZoneName	Time	SystemTime	Frame	Velocity	LaneName	LanePos	LaneIndex	LaneCount	LaneHeading	SpeedLimit	Steer	Accel	Brake	Gear	Horn	SubjectEngineRPM	SubjectHeading	SubjectPitch	SubjectRoll	SubjectX	SubjectY	SubjectZ	Signal	LatAccel	LongAccel	Collision	CollisionAngle	CollisionVelocity	VehAhead	HeadwayTime	HeadwayDist	TTC	TerrainType	CultureType	Slip	DigitalInputs	DigitalInputs2	ActiveTrigger	EntityName	DistToEntity	TimeToEntity	EntityVelocity	EntityAccel	EntityHeading	EntityX	EntityY	EntityZ	GrabData	
Unknown	0.98335	10/30/0116 10:23.57	00000059	0.005	Inter625t13-0	-0.088	1	2	0.000	11.111	3.6	0.000	0.000	P	F	0.0	0.001	0.152	-0.001	1503.500	523.207	0.019	-	-0.000	-0.002	-	-	-	-	-	-	-	PAVEMENT_GENERAL	Urban	F	1011101000011101	0000000000000000	-	-	-	-	-	-	-	-	-	-	Terminate	
Unknown	1.98337	10/30/0116 10:23.58	00000119	0.001	Inter625t13-0	-0.088	1	2	0.000	11.111	3.6	0.000	0.499	P	F	0.0	0.001	0.197	-0.000	1503.500	523.210	0.026	-	0.000	-0.004	-	-	-	-	-	-	-	PAVEMENT_GENERAL	Urban	F	1011101000011101	0000000000000000	-	-	-	-	-	-	-	-	-	-	Terminate	
Unknown	2.98339	10/30/0116 10:23.59	00000179	0.000	Inter625t13-0	-0.088	1	2	0.000	11.111	3.6	0.000	0.704	P	F	33.3	0.001	0.204	0.000	1503.500	523.211	0.027	-	-0.000	-0.000	-	-	-	-	-	-	-	PAVEMENT_GENERAL	Urban	F	1011101000011111	0000000000000000	-	-	-	-	-	-	-	-	-	-	Terminate	
Unknown	3.98341	10/30/0116 10:24.00	00000239	0.000	Inter625t13-0	-0.088	1	2	0.000	11.111	3.6	0.000	0.606	P	F	366.7	0.001	0.207	0.000	1503.500	523.211	0.027	-	-0.000	-0.000	-	-	-	-	-	-	-	PAVEMENT_GENERAL	Urban	F	1011101000011101	0000000000000000	-	-	-	-	-	-	-	-	-	-	Terminate	
Unknown	4.98343	10/30/0116 10:24.01	00000299	0.000	Inter625t13-0	-0.088	1	2	0.000	11.111	3.7	0.000	0.561	P	F	477.5	0.001	0.208	0.000	1503.500	523.211	0.028	-	-0.000	-0.000	-	-	-	-	-	-	-	PAVEMENT_GENERAL	Urban	F	1011101000011101	0000000000000000	-	-	-	-	-	-	-	-	-	-	Terminate	
Unknown	5.98345	10/30/0116 10:24.02	00000359	0.000	Inter625t13-0	-0.088	1	2	0.000	11.111	3.4	0.000	0.552	P	F	477.5	0.001	0.208	0.000	1503.500	523.211	0.028	-	0.000	-0.000	-	-	-	-	-	-	-	PAVEMENT_GENERAL	Urban	F	1011101000011101	0000000000000000	-	-	-	-	-	-	-	-	-	-	Terminate	
Unknown	6.98347	10/30/0116 10:24.03	00000419	0.000	Inter625t13-0	-0.088	1	2	0.000	11.111	4.1	0.000	0.552	P	F	477.5	0.001	0.208	0.000	1503.500	523.211	0.028	-	-0.000	-0.000	-	-	-	-	-	-	-	PAVEMENT_GENERAL	Urban	F	1011101000011101	0000000000000000	-	-	-	-	-	-	-	-	-	-	Terminate	
Unknown	7.98349	10/30/0116 10:24.04	00000479	0.000	Inter625t13-0	-0.088	1	2	0.000	11.111	4.1	0.000	0.546	D	F	477.5	0.001	0.208	0.000	1503.500	523.211	0.028	-	-0.000	-0.000	-	-	-	-	-	-	-	PAVEMENT_GENERAL	Urban	F	1011101000011101	0000000000000000	-	-	-	-	-	-	-	-	-	-	Terminate	
Unknown	8.98351	10/30/0116 10:24.05	00000539	0.000	Inter625t13-0	-0.088	1	2	0.000	11.111	4.1	0.000	0.466	D	F	477.5	0.001	0.209	0.000	1503.500	523.211	0.028	-	-0.000	-0.000	-	-	-	-	-	-	-	PAVEMENT_GENERAL	Urban	F	1011101000011101	0000000000000000	-	-	-	-	-	-	-	-	-	-	Terminate	
Unknown	9.98353	10/30/0116 10:24.06	00000599	0.000	Inter625t13-0	-0.088	1	2	0.000	11.111	6.4	0.000	0.000	D	F	477.5	0.001	0.209	-0.000	1503.500	523.211	0.028	-	0.000	0.000	-	-	-	-	-	-	-	PAVEMENT_GENERAL	Urban	F	1011101000011101	0000000000000000	-	-	-	-	-	-	-	-	-	-	Terminate	
Unknown	10.98355	10/30/0116 10:24.07	00000659	0.009	Inter625t13-0	-0.088	1	2	0.000	11.111	8.4	0.016	0.000	D	F	477.6	0.002	0.203	0.000	1503.500	523.214	0.026	-	0.000	0.012	-	-	-	-	-	-	-	PAVEMENT_GENERAL	Urban	F	1011101000011101	0000000000000000	-	-	-	-	-	-	-	-	-	-	Terminate	
Unknown	11.98357	10/30/0116 10:24.08	00000719	1.807	Inter625t13-0	-0.084	1	2	0.000	11.111	9.5	0.120	0.000	D	F	1309.3	0.117	0.208	-0.003	1503.504	523.759	0.012	-	0.027	2.784	-	-	-	-	-	-	-	PAVEMENT_GENERAL	Urban	F	1011101000011101	0000000000000000	-	-	-	-	-	-	-	-	-	-	Terminate	
Unknown	12.98359	10/30/0116 10:24.09	00000779	4.449	Inter625t13-0	-0.046	1	2	0.000	11.111	6.5	0.166	0.000	D	F	1692.7	0.692	0.216	-0.003	1503.542	526.909	0.015	-	0.039	2.158	-	-	-	-	-	-	-	PAVEMENT_GENERAL	Urban	F	1011101000011101	0000000000000000	-	-	-	-	-	-	-	-	-	-	Terminate	
Unknown	13.98361	10/30/0116 10:24.10	00000839	6.273	Inter625t13-0	0.059	1	2	0.000	11.111	2.8	0.180	0.000	D	F	1841.0	1.228	0.226	-0.002	1503.647	532.290	0.018	-	0.034	1.854	-	-	-	-	-	-	-	PAVEMENT_GENERAL	Urban	F	1011101000011101	0000000000000000	-	-	-	-	-	-	-	-	-	-	Terminate	
Unknown	14.98363	10/30/0116 10:24.11	00000899	7.832	Inter625t49-0	0.224	1	1	0.006	11.111	-0.9	0.205	0.000	D	F	1772.7	1.301	0.214	0.002	1503.813	539.378	0.020	-	-0.016	1.386	-	-	-	-	-	-	-	PAVEMENT_GENERAL	Urban	F	1011101000011101	0000000000000000	-	-	-	-	-	-	-	-	-	-	Terminate	
Unknown	15.98365	10/30/0116 10:24.12	00000959	9.239	Inter625t49-0	0.405	1	1	0.008	11.111	-0.3	0.280	0.000	D	F	1965.1	1.176	0.216	0.001	1503.994	547.897	0.019	-	-0.010	1.517	-	-	-	-	-	-	-	PAVEMENT_GENERAL	Urban	F	1011101000011101	0000000000000000	-	-	-	-	-	-	-	-	-	-	Terminate	
Unknown	16.98367	10/30/0116 10:24.13	00001019	10.795	Inter625t49-0	0.590	1	1	0.006	11.111	-4.1	0.328	0.000	D	F	2143.9	0.909	0.214	0.019	1504.181	557.921	0.019	-	-0.126	1.512	-	-	-	-	-	-	-	PAVEMENT_GENERAL	Urban	F	1011101000011101	0000000000000000	-	-	-	-	-	-	-	-	-	-	Terminate	
Unknown	17.98369	10/30/0116 10:24.14	00001079	12.284	Inter625t49-0	0.685	1	1	0.005	11.111	-4.3	0.349	0.000	D	F	2284.7	0.091	0.212	0.021	1504.277	569.470	0.020	-	-0.172	1.427	-	-	-	-	-	-	-	PAVEMENT_GENERAL	Urban	F	1011101000011101	0000000000000000	-	-	-	-	-	-	-	-	-	-	Terminate	
Unknown	18.98371	10/30/0116 10:24.15	00001139	13.678	Inter625t49-0	0.643	1	1	0.005	11.111	5.8	0.353	0.000	D	F	2454.6	359.843	0.210	-0.033	1504.236	582.455	0.020	-	0.202	1.362	-	-	-	-	-	-	-	PAVEMENT_GENERAL	Urban	F	1011101000011101	0000000000000000	-	-	-	-	-	-	-	-	-	-	Terminate	
Unknown	19.98373	10/30/0116 10:24.16	00001199	15.022	Inter625t15-0	0.725	1	2	0.000	11.111	1.5	0.349	0.000	D	F	2617.9	0.722	0.208	-0.013	1504.318	596.807	0.020	-	0.119	1.325	-	-	-	-	-	-	-	PAVEMENT_GENERAL	Urban	F	1011101000011101	0000000000000000	-	-	-	-	-	-	-	-	-	-	Terminate	
Unknown	20.98375	10/30/0116 10:24.17	00001259	16.327	Inter614t1-0	0.956	1	2	0.000	11.111	-2.1	0.349	0.000	D	F	2811.5	0.899	0.206	0.010	1504.549	612.482	0.021	-	-0.058	1.291	-	-	-	-	-	-	-	PAVEMENT_GENERAL	Urban	F	1011101000011101	0000000000000000	-	-	-	-	-	-	-	-	-	-	Terminate	
Unknown	21.98377	10/30/0116 10:24.18	00001319	17.583	Inter614t1-0	1.140	1	2	0.000	11.111	-3.3	0.342	0.000	D	F	2987.5	0.301	0.203	0.025	1504.733	629.441	0.021	-	-0.184	1.227	-	-	-	12	8.742	153.714	-	PAVEMENT_GENERAL	Urban	F	1011101000011101	0000000000000000	-	-	-	-	-	-	-	-	-	-	Terminate	
Unknown	22.98379	10/30/0116 10:24.19	00001379	18.760	Inter614t1-0	1.153	1	2	0.000	11.111	0.7	0.325	0.000	D	F	3137.4	359.808	0.200	0.004	1504.746	647.624	0.021	-	-0.032	1.113	-	-	-	12	8.177	153.404	174.602	PAVEMENT_GENERAL	Urban	F	1011101000011101	0000000000000000	-	-	-	-	-	-	-	-	-	-	Terminate	
Unknown	23.98381	10/30/0116 10:24.20	00001439	19.575	Inter614t1-0	1.150	1	2	0.000	11.111	3.6	0.205	0.000	D	F	2230.0	0.360	0.184	-0.033	1504.743	666.881	0.025	-	0.253	0.287	-	-	-	12	7.767	152.033	89.767	PAVEMENT_GENERAL	Urban	F	1011101000011101	0000000000000000	-	-	-	-	-	-	-	-	-	-	Terminate	
Unknown	24.98383	10/30/0116 10:24.21	00001499	19.941	Inter614t1-0	1.318	1	2	0.000	11.111	-4.2	0.219	0.000	D	F	2238.4	0.312	0.191	0.036	1504.911	686.633	0.025	-	-0.265	0.374	-	-	-	12	7.529	150.131	72.873	PAVEMENT_GENERAL	Urban	F	1011101000011101	0000000000000000	-	-	-	-	-	-	-	-	-	-	Terminate	
Unknown	25.98385	10/30/0116 10:24.22	00001559	19.970	Inter614t1-0	1.308	1	2	0.000	11.111	-3.0	0.090	0.000	D	F	1591.8	359.496	0.183	0.032	1504.901	706.633	0.027	-	-0.251	-0.208	-	-	-	12	7.569	151.152	972.597	PAVEMENT_GENERAL	Urban	F	1011101000011101	0000000000000000	-	-	-	-	-	-	-	-	-	-	Terminate	
Unknown	26.98387	10/30/0116 10:24.23	00001619	19.702	Inter614t1-0	1.078	1	2	0.000	11.111	3.7	0.079	0.000	D	F	1511.7	359.262	0.185	-0.017	1504.671	726.469	0.028	-	0.117	-0.272	-	-	-	12	7.708	151.856	-	PAVEMENT_GENERAL	Urban	F	1011101000011101	0000000000000000	-	-	-	-	-	-	-	-	-	-	Terminate	
Unknown	27.98389	10/30/0116 10:24.24	00001679	19.432	Inter614t1-0	1.007	1	2	0.000	11.111	3.8	0.083	0.000	D	F	1501.5	0.596	0.185	-0.047	1504.600	746.035	0.028	-	0.403	-0.265	-	-	-	12	7.912	153.749	-	PAVEMENT_GENERAL	Urban	F	1011101000011101	0000000000000000	-	-	-	-	-	-	-	-	-	-	Terminate	
Unknown	28.98391	10/30/0116 10:24.25	00001739	19.176	Inter614t1-0	1.341	1	2	0.000	11.111	3.8	0.081	0.000	D	F	1498.9	1.758	0.186	-0.063	1504.934	765.335	0.028	-	0.440	-0.248	-	-	-	12	8.157	156.427	-	PAVEMENT_GENERAL	Urban	F	1011101000011101	0000000000000000	-	-	-	-	-	-	-	-	-	-	Terminate	
Unknown	29.98393	10/30/0116 10:24.26	00001799	18.932	Inter614t1-1	-1.682	2	2	0.000	11.111	-1.6	0.085	0.000	D	F	1488.8	1.530	0.187	0.019	1505.511	784.379	0.028	-	-0.152	-0.241	-	-	-	12	8.560	162.058	-	PAVEMENT_GENERAL	Urban	F	1011101000011101	0000000000000000	-	-	-	-	-	-	-	-	-	-	Terminate	
Unknown	30.98395	10/30/0116 10:24.27	00001859	18.698	Inter612t1-1	-1.163	2	2	0.000	11.111	-1.3	0.083	0.000	D	F	1477.4	1.753	0.187	0.000	1506.030	803.187	0.028	-	0.035	-0.232	-	-	-	12	8.857	165.600	-	PAVEMENT_GENERAL	Urban	F	1011101000011101	0000000000000000	-	-	-	-	-	-	-	-	-	-	Terminate	
Unknown	31.98397	10/30/0116 10:24.28	00001919	18.466	Inter612t1-1	-0.666	2	2	0.000	11.111	-3.0	0.085	0.000	D	F	1466.2	1.130	0.187	0.030	1506.527	821.762	0.028	-	-0.236	-0.224	-	-	-	11	10.009	184.839	315.734	PAVEMENT_GENERAL	Urban	F	1011101000011101	0000000000000000	-	-	-	-	-	-	-	-	-	-	Terminate	
Unknown	32.98399	10/30/0116 10:24.29	00001979	18.186	Inter612t1-1	-0.406	2	2	0.000	11.111	-4.9	0.037	0.000	D	F	1327.9	0.260	0.184	0.049	1506.787	840.102	0.028	-	-0.361	-0.398	-	-	-	11	10.138	184.380	603.656	PAVEMENT_GENERAL	Urban	F	1011101000011101	0000000000000000	-	-	-	-	-	-	-	-	-	-	Terminate	
Unknown	33.98401	10/30/0116 10:24.30	00002039	17.771	Inter612t1-1	-0.489	2	2	0.000	11.111	-2.4	0.037	0.000	D	F	1303.4	359.124	0.187	0.030	1506.704	858.080	0.028	-	-0.238	-0.405	-	-	-	11	10.370	184.281	-	PAVEMENT_GENERAL	Urban	F	1011101000011101	0000000000000000	-	-	-	-	-	-	-	-	-	-	Terminate	
Unknown	34.98403	10/30/0116 10:24.31	00002099	17.378	Inter612t1-1	-0.791	2	2	0.000	11.111	4.4	0.041	0.000	D	F	1292.1	359.114	0.188	-0.033	1506.402	875.649	0.028	-	0.228	-0.379	-	-	-	11	10.622	184.589	-	PAVEMENT_GENERAL	Urban	F	1011101000011101	0000000000000000	-	-	-	-	-	-	-	-	-	-	Terminate	
Unknown	35.98405	10/30/0116 10:24.32	00002159	17.004	Inter612t1-1	-0.899	2	2	0.000	11.111	5.2	0.039	0.000	D	F	1269.3	0.374	0.187	-0.052	1506.294	892.839	0.028	-	0.398	-0.376	-	-	-	11	10.896	185.278	-	PAVEMENT_GENERAL	Urban	F	1011101000011101	0000000000000000	-	-	-	-	-	-	-	-	-	-	Terminate	
Unknown	36.98407	10/30/0116 10:24.33	00002219	16.632	Inter612t1-1	-0.651	2	2	0.000	11.111	2.3	0.041	0.000	D	F	1246.1	1.364	0.189	-0.032	1506.542	909.655	0.028	-	0.212	-0.371	-	-	-	11	11.204	186.340	-	PAVEMENT_GENERAL	Urban	F	1011101000011101	0000000000000000	-	-	-	-	-	-	-	-	-	-	Terminate	
Unknown	37.98409	10/30/0116 10:24.34	00002279	16.262	Inter612t1-1	-0.304	2	2	0.000	11.111	-6.6	0.039	0.000	D	F	1219.8	0.675	0.189	0.057	1506.889	926.098	0.028	-	-0.416	-0.369	-	-	-	11	11.547	187.775	-	PAVEMENT_GENERAL	Urban	F	1011101000011101	0000000000000000	-	-	-	-	-	-	-	-	-	-	Terminate	
Unknown	38.98411	10/30/0116 10:24.35	00002339	15.902	Inter612t1-1	-0.244	2	2	0.000	11.111	1.3	0.044	0.000	D	F	1210.4	0.037	0.190	-0.008	1506.950	942.178	0.028	-	0.049	-0.343	-	-	-	11	11.922	189.575	-	PAVEMENT_GENERAL	Urban	F	1011101000011101	0000000000000000	-	-	-	-	-	-	-	-	-	-	Terminate	
Unknown	39.98413	10/30/0116 10:24.36	00002399	15.615	Inter612t1-1	-0.195	2	2	0.000	11.111	2.2	0.078	0.000	D	F	1350.1	0.356	0.194	-0.011	1506.998	957.917	0.027	-	0.109	-0.154	-	-	-	11	12.277	191.713	-	PAVEMENT_GENERAL	Urban	F	1011101000011101	0000000000000000	-	-	-	-	-	-	-	-	-	-	Terminate	
Unknown	40.98415	10/30/0116 10:24.37	00002459	15.574	Inter612t1-1	-0.084	2	2	0.000	11.111	-1.8	0.115	0.000	D	F	1478.9	0.333	0.194	0.013	1507.109	973.492	0.026	-	-0.085	0.017	-	-	-	11	12.458	194.017	-	PAVEMENT_GENERAL	Urban	F	1011101000011101	0000000000000000	-	-	-	-	-	-	-	-	-	-	Terminate	
Unknown	41.98417	10/30/0116 10:24.38	00002519	15.553	Inter612t1-1	-0.038	2	2	0.000	11.111	-1.3	0.106	0.000	D	F	1456.3	0.000	0.194	0.013	1507.156	989.058	0.027	-	-0.089	-0.019	-	-	-	11	12.623	196.329	-	PAVEMENT_GENERAL	Urban	F	1011101000011101	0000000000000000	-	-	-	-	-	-	-	-	-	-	Terminate	
Unknown	42.98419	10/30/0116 10:24.39	00002579	15.532	Inter613t1-1	-0.054	2	2	0.000	11.111	0.0	0.106	0.000	D	F	1450.9	359.934	0.194	-0.000	1507.139	1004.602	0.027	-	0.004	-0.025	-	-	-	11	12.791	198.664	-	PAVEMENT_GENERAL	Urban	F	1011101000011101	0000000000000000	-	-	-	-	-	-	-	-	-	-	Terminate	
Unknown	43.98421	10/30/0116 10:24.40	00002639	15.507	Inter613t1-1	-0.071	2	2	0.000	11.111	0.1	0.102	0.000	D	F	1445.1	359.948	0.194	-0.001	1507.122	1020.122	0.027	-	0.006	-0.031	-	-	-	11	12.963	201.022	-	PAVEMENT_GENERAL	Urban	F	1011101000011101	0000000000000000	-	-	-	-	-	-	-	-	-	-	Terminate	
Unknown	44.98423	10/30/0116 10:24.41	00002699	15.451	Inter613t1-1	-0.086	2	2	0.000	11.111	-1.1	0.088	0.000	D	F	1385.3	359.897	0.193	0.007	1507.107	1035.609	0.027	-	-0.049	-0.101	-	-	-	11	13.165	203.414	-	PAVEMENT_GENERAL	Urban	F	1011101000011101	0000000000000000	-	-	-	-	-	-	-	-	-	-	Terminate	
Unknown	45.98425	10/30/0116 10:24.42	00002759	15.298	Inter613t1-1	-0.139	2	2	0.000	11.111	-0.7	0.069	0.000	D	F	1299.3	359.712	0.192	0.005	1507.054	1050.990	0.027	-	-0.040	-0.185	-	-	-	11	13.460	205.911	-	PAVEMENT_GENERAL	Urban	F	1011101000011101	0000000000000000	-	-	-	-	-	-	-	-	-	-	Terminate	
Unknown	46.98427	10/30/0116 10:24.43	00002819	15.115	Inter613t1-1	-0.230	2	2	0.000	11.111	-0.4	0.076	0.000	D	F	1327.4	359.598	0.193	0.003	1506.963	1066.188	0.027	-	-0.025	-0.150	-	-	-	11	13.800	208.592	-	PAVEMENT_GENERAL	Urban	F	1011101000011101	0000000000000000	-	-	-	-	-	-	-	-	-	-	Terminate	
Unknown	47.98429	10/30/0116 10:24.44	00002879	15.009	Inter613t1-1	-0.290	2	2	0.000	11.111	5.3	0.166	0.000	D	F	1574.2	0.213	0.196	-0.037	1506.904	1081.234	0.026	-	0.280	0.068	-	-	-	11	14.086	211.425	-	PAVEMENT_GENERAL	Urban	F	1011101000011101	0000000000000000	-	-	-	-	-	-	-	-	-	-	Terminate	
Unknown	48.98431	10/30/0116 10:24.45	00002939	15.247	Inter613t1-1	-0.159	2	2	0.000	11.111	-1.0	0.173	0.000	D	F	1829.5	0.560	0.196	0.005	1507.034	1096.342	0.025	-	-0.044	0.321	-	-	-	11	14.048	214.195	-	PAVEMENT_GENERAL	Urban	F	1111101000011101	0000000000000000	-	-	-	-	-	-	-	-	-	-	Terminate	
Unknown	49.98433	10/30/0116 10:24.46	00002999	15.563	Inter613t1-1	-0.046	2	2	0.000	11.111	-1.3	0.173	0.000	D	F	1845.0	0.235	0.197	0.010	1507.147	1111.749	0.025	-	-0.081	0.306	-	-	-	11	13.921	216.666	-	PAVEMENT_GENERAL	Urban	F	1011101000011101	0000000000000000	-	-	-	-	-	-	-	-	-	-	Terminate	
Unknown	50.98435	10/30/0116 10:24.47	00003059	15.849	Inter613t1-1	-0.004	2	2	0.000	11.111	0.2	0.173	0.000	D	F	1856.3	0.107	0.196	0.001	1507.189	1127.457	0.025	-	0.001	0.275	-	-	-	11	13.808	218.836	-	PAVEMENT_GENERAL	Urban	F	1011101000011101	0000000000000000	-	-	-	-	-	-	-	-	-	-	Terminate	
Unknown	51.98437	10/30/0116 10:24.48	00003119	16.106	Inter613t1-1	0.021	2	2	0.000	11.111	-1.3	0.168	0.000	D	F	1864.6	0.003	0.196	0.010	1507.214	1143.439	0.025	-	-0.068	0.238	-	-	-	11	13.705	220.733	-	PAVEMENT_GENERAL	Urban	F	1011101000011101	0000000000000000	-	-	-	-	-	-	-	-	-	-	Terminate	
Unknown	52.98439	10/30/0116 10:24.49	00003179	16.314	Inter613t1-1	0.003	2	2	0.000	11.111	-2.4	0.146	0.000	D	F	1844.5	359.880	0.193	0.009	1507.196	1159.657	0.026	-	-0.076	0.146	-	-	-	11	13.632	222.393	-	PAVEMENT_GENERAL	Urban	F	1011101000011101	0000000000000000	-	-	-	-	-	-	-	-	-	-	Terminate	
Unknown	53.98441	10/30/0116 10:24.50	00003239	16.379	Inter613t1-1	-0.163	2	2	0.000	11.111	-7.6	0.118	0.000	D	F	1795.9	358.672	0.192	0.060	1507.030	1176.018	0.027	-	-0.455	-0.003	-	-	-	11	13.671	223.910	-	PAVEMENT_GENERAL	Urban	F	1011101000011101	0000000000000000	-	-	-	-	-	-	-	-	-	-	Terminate	
Unknown	54.98443	10/30/0116 10:24.51	00003299	16.384	Inter613t1-1	-0.780	2	2	0.000	11.111	-1.3	0.118	0.000	D	F	1798.8	356.865	0.192	0.032	1506.413	1192.387	0.027	-	-0.288	0.012	-	-	-	11	13.759	225.420	-	PAVEMENT_GENERAL	Urban	F	1011101000011101	0000000000000000	-	-	-	-	-	-	-	-	-	-	Terminate	
Unknown	55.98445	10/30/0116 10:24.52	00003359	16.372	Inter746t1-1	-1.623	2	2	0.000	11.111	3.1	0.108	0.000	D	F	1782.8	357.404	0.192	-0.026	1505.570	1208.749	0.027	-	0.202	-0.043	-	-	-	-	-	-	-	PAVEMENT_GENERAL	Urban	F	1011101000011101	0000000000000000	-	-	-	-	-	-	-	-	-	-	Terminate	
Unknown	56.98447	10/30/0116 10:24.53	00003419	16.302	Inter746t1-0	1.305	1	2	0.000	11.111	2.3	0.095	0.000	D	F	1763.2	357.904	0.192	-0.016	1504.898	1225.076	0.027	-	0.123	-0.088	-	-	-	11	13.870	226.102	-	PAVEMENT_GENERAL	Urban	F	1011101000011101	0000000000000000	-	-	-	-	-	-	-	-	-	-	Terminate	
Unknown	57.98449	10/30/0116 10:24.54	00003479	16.218	Inter746t1-0	0.784	1	2	0.000	11.111	4.1	0.099	0.000	D	F	1757.4	358.541	0.192	-0.029	1504.378	1241.326	0.027	-	0.225	-0.081	-	-	-	-	-	-	-	PAVEMENT_GENERAL	Urban	F	1011101000011101	0000000000000000	-	-	-	-	-	-	-	-	-	-	Terminate	
Unknown	58.98451	10/30/0116 10:24.55	00003539	16.165	Inter746t1-0	0.471	1	2	0.000	11.111	1.1	0.127	0.000	D	F	1796.8	359.275	0.195	-0.015	1504.064	1257.506	0.027	-	0.126	0.045	-	-	-	-	-	-	-	PAVEMENT_GENERAL	Urban	F	1011101000011101	0000000000000000	-	-	-	-	-	-	-	-	-	-	Terminate	
Unknown	59.98453	10/30/0116 10:24.56	00003599	16.270	Inter746t1-0	0.283	1	2	0.000	11.111	2.1	0.136	0.000	D	F	1822.9	359.441	0.194	-0.013	1503.876	1273.721	0.026	-	0.094	0.099	-	-	-	-	-	-	-	PAVEMENT_GENERAL	Urban	F	1011101000011101	0000000000000000	-	-	-	-	-	-	-	-	-	-	Terminate	
Unknown	60.98455	10/30/0116 10:24.57	00003659	16.358	Inter746t1-0	0.175	1	2	0.000	11.111	0.8	0.134	0.000	D	F	1823.3	359.805	0.194	-0.007	1503.769	1290.036	0.026	-	0.064	0.083	-	-	-	-	-	-	-	PAVEMENT_GENERAL	Urban	F	1011101000011101	0000000000000000	-	-	-	-	-	-	-	-	-	-	Terminate	
Unknown	61.98457	10/30/0116 10:24.58	00003719	16.465	Inter746t1-0	0.145	1	2	0.000	11.111	0.9	0.153	0.000	D	F	1867.3	0.016	0.195	-0.006	1503.738	1306.441	0.026	-	0.058	0.161	-	-	-	-	-	-	-	PAVEMENT_GENERAL	Urban	F	1011101000011101	0000000000000000	-	-	-	-	-	-	-	-	-	-	Terminate	
Unknown	62.98459	10/30/0116 10:24.59	00003779	16.662	Inter746t1-0	0.174	1	2	0.000	11.111	1.0	0.152	0.000	D	F	1872.6	0.209	0.194	-0.007	1503.767	1323.015	0.026	-	0.057	0.134	-	-	-	-	-	-	-	PAVEMENT_GENERAL	Urban	F	1011101000011101	0000000000000000	-	-	-	-	-	-	-	-	-	-	Terminate	
Unknown	63.98461	10/30/0116 10:25.00	00003839	16.789	Inter746t1-0	0.260	1	2	0.000	11.111	0.6	0.146	0.000	D	F	1876.5	0.388	0.194	-0.005	1503.853	1339.741	0.026	-	0.041	0.120	-	-	-	-	-	-	-	PAVEMENT_GENERAL	Urban	F	1011101000011101	0000000000000000	-	-	-	-	-	-	-	-	-	-	Terminate	
Unknown	64.98463	10/30/0116 10:25.01	00003899	16.900	Inter746t1-0	0.384	1	2	0.000	11.111	-2.5	0.143	0.000	D	F	1875.9	0.421	0.193	0.013	1503.977	1356.587	0.026	-	-0.078	0.103	-	-	-	-	-	-	-	PAVEMENT_GENERAL	Urban	F	1011101000011101	0000000000000000	-	-	-	-	-	-	-	-	-	-	Terminate	
Unknown	65.98465	10/30/0116 10:25.02	00003959	16.982	Inter746t1-0	0.416	1	2	0.000	11.111	-3.3	0.138	0.000	D	F	1871.8	359.676	0.193	0.029	1504.010	1373.530	0.026	-	-0.222	0.071	-	-	-	-	-	-	-	PAVEMENT_GENERAL	Urban	F	1011101000011101	0000000000000000	-	-	-	-	-	-	-	-	-	-	Terminate	
Unknown	66.98467	10/30/0116 10:25.03	00004019	17.022	Inter746t1-0	0.243	1	2	0.000	11.111	-2.7	0.095	0.000	D	F	1826.2	359.110	0.190	0.020	1503.836	1390.541	0.027	L	-0.159	-0.044	-	-	-	-	-	-	-	PAVEMENT_GENERAL	Urban	F	1011101000111101	0000000000000000	-	-	-	-	-	-	-	-	-	-	Terminate	
Unknown	67.98470	10/30/0116 10:25.04	00004079	16.478	Inter749t9-0	-0.167	1	2	0.000	11.111	-17.5	0.000	0.000	D	F	1618.0	357.411	0.184	0.145	1503.427	1407.313	0.029	L	-1.029	-0.607	-	-	-	-	-	-	-	PAVEMENT_GENERAL	Urban	F	1011101000111101	0000000000000000	-	-	-	-	-	-	-	-	-	-	Terminate	
Unknown	68.98471	10/30/0116 10:25.05	00004139	15.875	Inter749t31-0	-1.009	1	1	355.855	11.111	7.6	0.000	0.000	D	F	1559.1	354.611	0.187	-0.020	1502.223	1423.441	0.029	L	0.122	-0.593	-	-	-	12	7.559	119.995	112.472	PAVEMENT_GENERAL	Urban	F	1011101000111101	0000000000000000	-	-	-	-	-	-	-	-	-	-	Terminate	
Unknown	69.98473	10/30/0116 10:25.06	00004199	13.407	Inter749t31-0	-1.095	1	1	355.007	11.111	14.1	0.000	0.191	D	F	1283.1	357.371	0.161	-0.105	1501.104	1438.417	0.037	L	0.803	-3.131	-	-	-	12	9.184	123.134	-	PAVEMENT_GENERAL	Urban	F	1011101000111101	0000000000000000	-	-	-	-	-	-	-	-	-	-	Terminate	
Unknown	70.98476	10/30/0116 10:25.07	00004259	12.359	Inter749t31-0	-0.115	1	1	356.903	11.111	9.0	0.000	0.000	D	F	1214.1	0.273	0.190	-0.064	1500.836	1451.108	0.029	L	0.501	-0.535	-	-	-	-	-	-	-	PAVEMENT_GENERAL	Urban	F	1011101000111101	0000000000000000	-	-	-	-	-	-	-	-	-	-	Terminate	
Unknown	71.98477	10/30/0116 10:25.08	00004319	11.830	Inter749t31-0	0.708	1	1	356.903	11.111	-7.8	0.000	0.000	D	F	1162.1	0.899	0.193	0.034	1501.006	1463.200	0.029	L	-0.237	-0.526	-	-	-	-	-	-	-	PAVEMENT_GENERAL	Urban	F	1011101000111101	0000000000000000	-	-	-	-	-	-	-	-	-	-	Terminate	
Unknown	72.98479	10/30/0116 10:25.09	00004379	11.298	Inter749t11-0	0.745	LT1	2	0.000	11.111	-37.8	0.000	0.000	D	F	1109.8	356.467	0.187	0.192	1500.807	1474.760	0.029	L	-1.439	-0.542	-	-	-	-	-	-	-	PAVEMENT_GENERAL	Urban	F	1011101000111101	0000000000000000	-	-	-	-	-	-	-	-	-	-	Terminate	
Unknown	73.98481	10/30/0116 10:25.10	00004439	10.746	Inter749t65-0	-0.392	1	1	346.159	11.111	-62.3	0.000	0.000	D	F	1055.5	346.649	0.179	0.293	1499.201	1485.651	0.030	L	-2.254	-0.570	-	-	-	-	-	-	-	PAVEMENT_GENERAL	Urban	F	1011101000111101	0000000000000000	-	-	-	-	-	-	-	-	-	-	Terminate	
Unknown	74.98483	10/30/0116 10:25.11	00004499	10.161	Inter749t65-0	0.395	1	1	323.074	11.111	-105.1	0.000	0.000	D	F	997.6	332.290	0.169	0.447	1495.509	1495.405	0.031	L	-3.315	-0.662	-	-	-	-	-	-	-	PAVEMENT_GENERAL	Urban	F	1011101000111101	0000000000000000	-	-	-	-	-	-	-	-	-	-	Terminate	
Unknown	75.98486	10/30/0116 10:25.12	00004559	9.490	Inter749t65-0	1.667	1	1	299.288	11.111	-148.1	0.000	0.000	D	F	931.9	310.018	0.136	0.555	1489.287	1502.934	0.033	L	-4.235	-0.779	-	-	-	-	-	-	-	PAVEMENT_GENERAL	Urban	F	1011101000111101	0000000000000000	-	-	-	-	-	-	-	-	-	-	Terminate	
Unknown	76.98487	10/30/0116 10:25.13	00004619	8.813	Inter749t3-4	-0.303	2	2	270.000	11.111	-145.0	0.000	0.000	D	F	867.7	284.458	0.130	0.502	1481.095	1506.828	0.032	L	-3.805	-0.737	-	-	-	Ambient237	27.444	241.862	-	PAVEMENT_GENERAL	Urban	F	1011101000111101	0000000000000000	-	-	-	-	-	-	-	-	-	-	Terminate	
Unknown	77.98489	10/30/0116 10:25.14	00004679	8.320	Inter749t3-4	0.580	2	2	270.000	11.111	7.4	0.000	0.000	D	F	817.7	274.058	0.197	-0.036	1472.587	1507.711	0.028	-	0.176	-0.478	-	-	-	Ambient237	29.295	243.732	-	PAVEMENT_GENERAL	Urban	F	1011101000011101	0000000000000000	-	-	-	-	-	-	-	-	-	-	Terminate	
Unknown	78.98492	10/30/0116 10:25.15	00004739	7.840	Inter749t17-0	1.058	1	1	270.070	11.111	-39.8	0.000	0.000	D	F	770.8	271.856	0.195	0.111	1464.522	1508.191	0.029	-	-0.845	-0.489	-	-	-	-	-	-	-	PAVEMENT_GENERAL	Urban	F	1011101000011101	0000000000000000	-	-	-	-	-	-	-	-	-	-	Terminate	
Unknown	79.98493	10/30/0116 10:25.16	00004799	7.780	Inter749t17-0	0.870	1	1	270.094	11.111	4.4	0.102	0.000	D	F	1344.0	267.615	0.208	-0.024	1456.797	1508.012	0.025	-	0.114	0.415	-	-	-	-	-	-	-	PAVEMENT_GENERAL	Urban	F	1011101000011101	0000000000000000	-	-	-	-	-	-	-	-	-	-	Terminate	
Unknown	80.98495	10/30/0116 10:25.17	00004859	8.164	Inter749t17-0	0.634	1	1	270.108	11.111	5.4	0.095	0.000	D	F	1318.4	268.929	0.203	-0.009	1448.821	1507.786	0.025	-	0.104	0.326	-	-	-	-	-	-	-	PAVEMENT_GENERAL	Urban	F	1011101000011101	0000000000000000	-	-	-	-	-	-	-	-	-	-	Terminate	
Unknown	81.98497	10/30/0116 10:25.18	00004919	8.500	Inter749t17-0	0.539	1	1	270.082	11.111	-0.8	0.101	0.000	D	F	1352.0	269.738	0.205	0.011	1440.491	1507.708	0.025	-	-0.020	0.340	-	-	-	-	-	-	-	PAVEMENT_GENERAL	Urban	F	1011101000011101	0000000000000000	-	-	-	-	-	-	-	-	-	-	Terminate	
Unknown	82.98499	10/30/0116 10:25.19	00004979	9.153	Inter749t17-0	0.485	1	1	270.061	11.111	3.5	0.213	0.000	D	F	1698.7	269.857	0.211	-0.011	1431.720	1507.669	0.022	-	0.087	0.964	-	-	-	-	-	-	-	PAVEMENT_GENERAL	Urban	F	1011101000011101	0000000000000000	-	-	-	-	-	-	-	-	-	-	Terminate	
Unknown	83.98502	10/30/0116 10:25.20	00005039	10.353	Inter749t17-0	0.496	1	1	270.061	11.111	-1.6	0.231	0.000	D	F	1996.8	270.165	0.211	0.004	1421.975	1507.691	0.021	-	-0.042	1.189	-	-	-	-	-	-	-	PAVEMENT_GENERAL	Urban	F	1011101000011101	0000000000000000	-	-	-	-	-	-	-	-	-	-	Terminate	
Unknown	84.98503	10/30/0116 10:25.21	00005099	11.535	Inter749t1-3	0.484	2	2	270.000	11.111	-2.9	0.287	0.000	D	F	2158.1	269.732	0.215	0.014	1411.036	1507.684	0.021	-	-0.111	1.285	-	-	-	-	-	-	-	PAVEMENT_GENERAL	Urban	F	1011101000011101	0000000000000000	-	-	-	-	-	-	-	-	-	-	Terminate	
Unknown	85.98505	10/30/0116 10:25.22	00005159	12.751	Inter747t1-3	0.369	2	2	270.000	11.111	-0.9	0.295	0.000	D	F	2300.2	269.291	0.210	0.008	1398.888	1507.576	0.021	-	-0.060	1.208	-	-	-	-	-	-	-	PAVEMENT_GENERAL	Urban	F	1011101000011101	0000000000000000	-	-	-	-	-	-	-	-	-	-	Terminate	
Unknown	86.98507	10/30/0116 10:25.23	00005219	13.978	Inter747t1-3	0.188	2	2	270.000	11.111	-0.2	0.309	0.000	D	F	2462.9	269.149	0.208	0.004	1385.524	1507.395	0.021	-	-0.024	1.226	-	-	-	-	-	-	-	PAVEMENT_GENERAL	Urban	F	1011101000011101	0000000000000000	-	-	-	-	-	-	-	-	-	-	Terminate	
Unknown	87.98509	10/30/0116 10:25.24	00005279	15.188	Inter747t1-3	-0.018	2	2	270.000	11.111	2.8	0.314	0.000	D	F	2625.9	269.285	0.206	-0.013	1370.940	1507.189	0.021	-	0.102	1.200	-	-	-	-	-	-	-	PAVEMENT_GENERAL	Urban	F	1011101000011101	0000000000000000	-	-	-	-	-	-	-	-	-	-	Terminate	
Unknown	88.98512	10/30/0116 10:25.25	00005339	16.370	Inter747t1-3	-0.136	2	2	270.000	11.111	0.2	0.314	0.000	D	F	2800.2	269.824	0.205	-0.006	1355.159	1507.071	0.021	-	0.054	1.177	-	-	-	Ambient237	14.689	240.460	40.149	PAVEMENT_GENERAL	Urban	F	1011101000011101	0000000000000000	-	-	-	-	-	-	-	-	-	-	Terminate	
Unknown	89.98513	10/30/0116 10:25.26	00005399	17.551	Inter747t1-3	-0.181	2	2	270.000	11.111	-0.0	0.325	0.000	D	F	2973.0	269.963	0.203	-0.006	1338.198	1507.026	0.021	-	0.050	1.171	-	-	-	Ambient237	13.325	233.877	32.617	PAVEMENT_GENERAL	Urban	F	1011101000011101	0000000000000000	-	-	-	-	-	-	-	-	-	-	Terminate	
Unknown	90.98515	10/30/0116 10:25.27	00005459	18.712	Inter747t1-3	-0.200	2	2	270.000	11.111	-0.1	0.328	0.000	D	F	3135.7	269.910	0.201	0.002	1320.065	1507.007	0.021	-	-0.017	1.139	-	-	-	Ambient237	12.085	226.123	27.144	PAVEMENT_GENERAL	Urban	F	1011101000011101	0000000000000000	-	-	-	-	-	-	-	-	-	-	Terminate	
Unknown	91.98518	10/30/0116 10:25.28	00005519	19.807	Inter747t1-3	-0.231	2	2	270.000	11.111	0.2	0.328	0.000	D	F	2495.9	269.912	0.188	-0.001	1300.789	1506.976	0.022	-	0.008	0.816	-	-	-	Ambient237	10.967	217.226	23.045	PAVEMENT_GENERAL	Urban	F	1011101000011101	0000000000000000	-	-	-	-	-	-	-	-	-	-	Terminate	
Unknown	92.98519	10/30/0116 10:25.29	00005579	20.477	Inter747t1-3	-0.235	2	2	270.000	11.111	-0.2	0.333	0.000	D	F	2384.0	270.109	0.193	-0.003	1280.635	1506.971	0.024	-	0.033	0.637	-	-	-	Ambient237	10.131	207.450	20.548	PAVEMENT_GENERAL	Urban	F	1011101000011101	0000000000000000	-	-	-	-	-	-	-	-	-	-	Terminate	
Unknown	93.98521	10/30/0116 10:25.30	00005639	21.113	Inter747t1-3	-0.197	2	2	270.000	11.111	0.4	0.340	0.000	D	F	2434.6	270.140	0.192	-0.004	1259.840	1507.010	0.024	-	0.027	0.631	-	-	-	Ambient237	9.332	197.033	18.360	PAVEMENT_GENERAL	Urban	F	1011101000011101	0000000000000000	-	-	-	-	-	-	-	-	-	-	Terminate	
Unknown	94.98523	10/30/0116 10:25.31	00005699	21.739	Inter747t1-3	-0.139	2	2	270.000	11.111	-0.1	0.344	0.000	D	F	2485.0	270.173	0.191	-0.001	1238.413	1507.068	0.024	-	0.002	0.620	-	-	-	Ambient237	8.555	185.985	16.375	PAVEMENT_GENERAL	Urban	F	1011101000011101	0000000000000000	-	-	-	-	-	-	-	-	-	-	Terminate	
Unknown	95.98525	10/30/0116 10:25.32	00005759	22.351	Inter747t1-3	-0.072	2	2	270.000	11.111	0.8	0.344	0.000	D	F	2532.8	270.227	0.189	-0.008	1216.367	1507.135	0.024	-	0.058	0.605	-	-	-	Ambient237	7.799	174.317	14.562	PAVEMENT_GENERAL	Urban	F	1011101000011101	0000000000000000	-	-	-	-	-	-	-	-	-	-	Terminate	
Unknown	96.98528	10/30/0116 10:25.33	00005819	22.950	Inter748t1-3	0.036	2	2	270.000	11.111	-0.7	0.342	0.000	D	F	2579.1	270.320	0.188	0.002	1193.715	1507.242	0.024	-	-0.008	0.593	-	-	-	Ambient237	7.061	162.044	12.892	PAVEMENT_GENERAL	Urban	F	1011101000011101	0000000000000000	-	-	-	-	-	-	-	-	-	-	Terminate	
Unknown	97.98529	10/30/0116 10:25.34	00005879	23.537	Inter748t1-3	0.145	2	2	270.000	11.111	-1.3	0.340	0.000	D	F	2625.8	270.199	0.187	0.009	1170.471	1507.352	0.024	-	-0.070	0.581	-	-	-	Ambient237	6.338	149.180	11.339	PAVEMENT_GENERAL	Urban	F	1011101000011101	0000000000000000	-	-	-	-	-	-	-	-	-	-	Terminate	
Unknown	98.98531	10/30/0116 10:25.35	00005939	24.062	Inter748t1-3	0.188	2	2	270.000	11.111	-0.8	0.252	0.000	D	F	2619.3	269.950	0.182	0.011	1146.652	1507.395	0.025	-	-0.085	0.352	-	-	-	Ambient237	5.641	135.744	9.922	PAVEMENT_GENERAL	Urban	F	1011101000011101	0000000000000000	-	-	-	-	-	-	-	-	-	-	Terminate	
Unknown	99.98534	10/30/0116 10:25.36	00005999	24.055	Inter748t1-3	0.157	2	2	270.000	11.111	-0.3	0.097	0.000	D	F	1809.7	269.894	0.172	0.002	1122.533	1507.364	0.028	-	-0.014	-0.318	-	-	-	-	-	-	-	PAVEMENT_GENERAL	Urban	F	1011101000011101	0000000000000000	-	-	-	-	-	-	-	-	-	-	Terminate	
Unknown	100.98535	10/30/0116 10:25.37	00006059	23.794	Inter748t1-3	0.100	2	2	270.000	11.111	-0.1	0.092	0.000	D	F	1767.3	269.814	0.176	0.002	1098.603	1507.306	0.028	-	-0.020	-0.335	-	-	-	-	-	-	-	PAVEMENT_GENERAL	Urban	F	1011101000011101	0000000000000000	-	-	-	-	-	-	-	-	-	-	Terminate	
Unknown	101.98537	10/30/0116 10:25.38	00006119	23.452	Inter748t1-3	0.017	2	2	270.000	11.111	-0.2	0.081	0.000	D	F	1733.4	269.736	0.177	0.006	1074.980	1507.224	0.028	-	-0.042	-0.354	-	-	-	-	-	-	-	PAVEMENT_GENERAL	Urban	F	1011101000011101	0000000000000000	-	-	-	-	-	-	-	-	-	-	Terminate	
Unknown	102.98539	10/30/0116 10:25.39	00006179	22.889	Inter748t1-3	-0.077	2	2	270.000	11.111	0.6	0.011	0.000	D	F	1561.7	269.856	0.175	-0.010	1051.790	1507.130	0.030	-	0.074	-0.610	-	-	-	-	-	-	-	PAVEMENT_GENERAL	Urban	F	1011101000011101	0000000000000000	-	-	-	-	-	-	-	-	-	-	Terminate	
Unknown	103.98541	10/30/0116 10:25.40	00006239	22.265	Inter748t1-3	-0.107	2	2	270.000	11.111	0.7	0.000	0.000	D	F	1518.0	270.060	0.176	-0.012	1029.208	1507.099	0.030	-	0.088	-0.641	-	-	-	-	-	-	-	PAVEMENT_GENERAL	Urban	F	1011101000011101	0000000000000000	-	-	-	-	-	-	-	-	-	-	Terminate	
Unknown	104.98544	10/30/0116 10:25.41	00006299	21.630	Inter748t1-3	-0.051	2	2	270.000	11.111	3.9	0.000	0.000	D	F	1474.7	270.354	0.178	-0.033	1007.262	1507.156	0.030	-	0.234	-0.630	-	-	-	-	-	-	-	PAVEMENT_GENERAL	Urban	F	1011101000011101	0000000000000000	-	-	-	-	-	-	-	-	-	-	Terminate	
Unknown	105.98545	10/30/0116 10:25.42	00006359	21.011	Inter752t1-3	-0.462	2	2	269.949	24.444	-3.1	0.000	0.000	D	F	1436.9	271.115	-0.068	-0.314	985.950	1507.428	0.068	-	-0.012	-0.659	-	-	-	-	-	-	-	FREEWAY_SMOOTH	Urban	F	1011101000011101	0000000000000000	-	-	-	-	-	-	-	-	-	-	Terminate	
Unknown	106.98547	10/30/0116 10:25.43	00006419	20.470	Inter752t1-3	-0.314	2	2	269.035	24.444	-21.1	0.035	0.000	D	F	1430.8	266.999	0.333	-0.538	965.221	1507.394	0.134	-	-2.193	-0.434	-	-	-	-	-	-	-	FREEWAY_SMOOTH	Urban	F	1011101000011101	0000000000000000	-	-	-	-	-	-	-	-	-	-	Terminate	
Unknown	107.98550	10/30/0116 10:25.44	00006479	20.141	Inter752t1-3	-1.251	2	2	267.484	24.444	-0.3	0.083	0.000	D	F	1534.5	264.686	0.290	-1.306	944.996	1505.850	0.177	-	-0.225	-0.217	-	-	-	-	-	-	-	FREEWAY_SMOOTH	Urban	F	1011101000011101	0000000000000000	-	-	-	-	-	-	-	-	-	-	Terminate	
Unknown	108.98551	10/30/0116 10:25.45	00006539	19.971	Inter752t1-2	1.702	1	2	265.238	24.444	-9.3	0.101	0.000	D	F	1579.1	264.361	0.303	-1.755	925.037	1503.932	0.213	-	-0.495	-0.155	-	-	-	-	-	-	-	FREEWAY_SMOOTH	Urban	F	1011101000011101	0000000000000000	-	-	-	-	-	-	-	-	-	-	Terminate	
Unknown	109.98553	10/30/0116 10:25.46	00006599	19.848	Inter752t1-2	1.383	1	2	262.313	24.444	-12.0	0.111	0.000	D	F	1595.7	260.896	0.275	-2.160	905.288	1501.448	0.251	-	-1.263	-0.096	-	-	-	-	-	-	-	FREEWAY_SMOOTH	Urban	F	1011101000011101	0000000000000000	-	-	-	-	-	-	-	-	-	-	Terminate	
Unknown	110.98555	10/30/0116 10:25.47	00006659	19.771	Inter752t1-2	0.932	1	2	258.712	24.444	-15.6	0.132	0.000	D	F	1648.7	256.896	0.227	-2.603	885.843	1497.725	0.276	-	-1.535	-0.011	-	-	-	-	-	-	-	FREEWAY_SMOOTH	Urban	F	1011101000011101	0000000000000000	-	-	-	-	-	-	-	-	-	-	Terminate	
Unknown	111.98557	10/30/0116 10:25.48	00006719	19.738	Inter752t1-2	0.407	1	2	254.446	24.444	-13.7	0.131	0.000	D	F	1639.9	252.837	0.214	-3.109	866.765	1492.609	0.291	-	-1.397	-0.032	-	-	-	-	-	-	-	FREEWAY_SMOOTH	Urban	F	1011101000011101	0000000000000000	-	-	-	-	-	-	-	-	-	-	Terminate	
Unknown	112.98560	10/30/0116 10:25.49	00006779	19.681	Inter752t1-2	0.095	1	2	249.603	24.444	-11.3	0.132	0.000	D	F	1641.5	249.189	0.176	-3.367	848.125	1486.191	0.292	-	-1.139	-0.083	-	-	-	-	-	-	-	FREEWAY_SMOOTH	Urban	F	1011101000011101	0000000000000000	-	-	-	-	-	-	-	-	-	-	Terminate	
Unknown	113.98561	10/30/0116 10:25.50	00006839	19.599	Inter752t1-2	0.144	1	2	244.690	24.444	-15.5	0.139	0.000	D	F	1668.0	244.638	0.183	-3.298	830.031	1478.568	0.295	-	-1.630	-0.036	-	-	-	-	-	-	-	FREEWAY_SMOOTH	Urban	F	1011101000011101	0000000000000000	-	-	-	-	-	-	-	-	-	-	Terminate	
Unknown	114.98563	10/30/0116 10:25.51	00006899	19.540	Inter752t1-2	0.276	1	2	239.821	24.444	-16.3	0.139	0.000	D	F	1662.4	240.009	0.200	-3.300	812.676	1469.531	0.303	-	-1.609	-0.048	-	-	-	-	-	-	-	FREEWAY_SMOOTH	Urban	F	1011101000011101	0000000000000000	-	-	-	-	-	-	-	-	-	-	Terminate	
Unknown	115.98566	10/30/0116 10:25.52	00006959	19.486	Inter752t1-2	0.418	1	2	234.939	24.444	-19.1	0.145	0.000	D	F	1672.8	234.818	0.180	-3.270	796.196	1459.092	0.311	-	-1.838	-0.034	-	-	-	-	-	-	-	FREEWAY_SMOOTH	Urban	F	1111101000011101	0000000000000000	-	-	-	-	-	-	-	-	-	-	Terminate	
Unknown	116.98567	10/30/0116 10:25.53	00007019	19.449	Inter752t1-2	0.365	1	2	230.093	24.444	-21.1	0.148	0.000	D	F	1677.8	229.019	0.123	-3.239	780.816	1447.169	0.308	-	-2.049	-0.011	-	-	-	-	-	-	-	FREEWAY_SMOOTH	Urban	F	1111101000011101	0000000000000000	-	-	-	-	-	-	-	-	-	-	Terminate	
Unknown	117.98569	10/30/0116 10:25.54	00007079	19.433	Inter752t1-2	-0.005	1	2	225.272	24.444	-18.5	0.152	0.000	D	F	1685.3	223.494	0.086	-3.270	766.736	1433.773	0.286	-	-1.809	0.010	-	-	-	-	-	-	-	FREEWAY_SMOOTH	Urban	F	1011101000011101	0000000000000000	-	-	-	-	-	-	-	-	-	-	Terminate	
Unknown	118.98571	10/30/0116 10:25.55	00007139	19.444	Inter752t1-2	-0.469	1	2	220.368	24.444	-7.8	0.152	0.000	D	F	1690.9	219.322	0.128	-3.394	753.910	1419.170	0.258	-	-0.981	0.013	-	-	-	-	-	-	-	FREEWAY_SMOOTH	Urban	F	1011101000011101	0000000000000000	-	-	-	-	-	-	-	-	-	-	Terminate	
Unknown	119.98573	10/30/0116 10:25.56	00007199	19.443	Inter752t1-2	-0.397	1	2	215.523	24.444	-12.8	0.152	0.000	D	F	1688.5	216.451	0.244	-3.349	741.936	1403.848	0.262	-	-1.215	-0.010	-	-	-	-	-	-	-	FREEWAY_SMOOTH	Urban	F	1011101000011101	0000000000000000	-	-	-	-	-	-	-	-	-	-	Terminate	
Unknown	120.98576	10/30/0116 10:25.57	00007259	19.423	Inter752t1-2	0.052	1	2	210.640	24.444	-19.3	0.150	0.000	D	F	1688.0	211.356	0.232	-3.257	731.001	1387.786	0.289	-	-1.934	-0.007	-	-	-	-	-	-	-	FREEWAY_SMOOTH	Urban	F	1011101000011101	0000000000000000	-	-	-	-	-	-	-	-	-	-	Terminate	
Unknown	121.98577	10/30/0116 10:25.58	00007319	19.408	Inter752t1-2	0.293	1	2	205.807	24.444	-18.7	0.157	0.000	D	F	1693.9	205.697	0.184	-3.268	721.654	1370.776	0.304	-	-1.891	0.009	-	-	-	-	-	-	-	FREEWAY_SMOOTH	Urban	F	1011101000011101	0000000000000000	-	-	-	-	-	-	-	-	-	-	Terminate	
Unknown	122.98579	10/30/0116 10:25.59	00007379	19.415	Inter752t1-2	0.303	1	2	200.945	24.444	-15.9	0.157	0.000	D	F	1696.4	200.531	0.162	-3.297	713.990	1352.947	0.304	-	-1.638	0.021	-	-	-	-	-	-	-	FREEWAY_SMOOTH	Urban	F	1011101000011101	0000000000000000	-	-	-	-	-	-	-	-	-	-	Terminate	
Unknown	123.98581	10/30/0116 10:26.00	00007439	19.413	Inter752t1-2	0.269	1	2	196.174	24.444	-17.6	0.159	0.000	D	F	1707.4	195.703	0.044	-3.104	707.898	1334.515	0.290	-	-1.664	-0.015	-	-	-	-	-	-	-	FREEWAY_SMOOTH	Urban	F	1011101000011101	0000000000000000	-	-	-	-	-	-	-	-	-	-	Terminate	
Unknown	124.98583	10/30/0116 10:26.01	00007499	19.387	Inter752t1-2	0.102	1	2	191.852	24.444	-16.9	0.162	0.000	D	F	1709.9	190.450	0.005	-2.624	703.427	1315.642	0.244	-	-1.732	-0.010	-	-	-	-	-	-	-	FREEWAY_SMOOTH	Urban	F	1111101000011101	0000000000000000	-	-	-	-	-	-	-	-	-	-	Terminate	
Unknown	125.98586	10/30/0116 10:26.02	00007559	19.380	Inter752t1-2	-0.276	1	2	188.218	24.444	-7.5	0.166	0.000	D	F	1725.2	187.251	0.059	-2.271	700.476	1296.489	0.192	-	-0.787	0.019	-	-	-	-	-	-	-	FREEWAY_SMOOTH	Urban	F	1011101000011101	0000000000000000	-	-	-	-	-	-	-	-	-	-	Terminate	
Unknown	126.98587	10/30/0116 10:26.03	00007619	19.384	Inter752t1-2	-0.454	1	2	185.231	24.444	-14.4	0.162	0.000	D	F	1720.6	184.434	0.067	-1.730	698.429	1277.215	0.153	-	-1.197	0.005	-	-	-	-	-	-	-	FREEWAY_SMOOTH	Urban	F	1011101000011101	0000000000000000	-	-	-	-	-	-	-	-	-	-	Terminate	
Unknown	127.98589	10/30/0116 10:26.04	00007679	19.384	Inter752t1-2	-0.789	1	2	182.918	24.444	2.3	0.162	0.000	D	F	1714.3	182.036	0.081	-1.395	697.427	1257.859	0.113	-	-0.130	-0.001	-	-	-	-	-	-	-	FREEWAY_SMOOTH	Urban	F	1011101000011101	0000000000000000	-	-	-	-	-	-	-	-	-	-	Terminate	
Unknown	128.98592	10/30/0116 10:26.05	00007739	19.386	Inter752t1-2	-0.800	1	2	181.266	24.444	-7.0	0.166	0.000	D	F	1723.1	181.824	0.113	-0.873	696.765	1238.486	0.084	-	-0.341	0.011	-	-	-	-	-	-	-	FREEWAY_SMOOTH	Urban	F	1011101000011101	0000000000000000	-	-	-	-	-	-	-	-	-	-	Terminate	
Unknown	129.98593	10/30/0116 10:26.06	00007799	19.389	Inter752t1-2	-0.703	1	2	180.292	24.444	-5.0	0.160	0.000	D	F	1715.5	179.994	0.095	-0.371	696.431	1219.101	0.056	-	-0.513	-0.002	-	-	-	-	-	-	-	FREEWAY_SMOOTH	Urban	F	1011101000011101	0000000000000000	-	-	-	-	-	-	-	-	-	-	Terminate	
Unknown	130.98595	10/30/0116 10:26.07	00007859	19.379	Inter754t3-2	-0.063	1	2	180.000	11.111	8.8	0.157	0.000	D	F	1697.7	180.452	0.126	-0.056	696.456	1199.715	0.026	-	0.582	-0.007	-	-	-	-	-	-	-	PAVEMENT_GENERAL	Urban	F	1011101000011101	0000000000000000	-	-	-	-	-	-	-	-	-	-	Terminate	
Unknown	131.98598	10/30/0116 10:26.08	00007919	19.429	Inter754t3-2	0.232	1	2	180.000	11.111	-7.6	0.169	0.000	D	F	1741.6	180.672	0.189	0.070	696.161	1180.319	0.026	-	-0.474	0.081	-	-	-	Ambient351	5.288	102.741	14.111	PAVEMENT_GENERAL	Urban	F	1011101000011101	0000000000000000	-	-	-	-	-	-	-	-	-	-	Terminate	
Unknown	132.98599	10/30/0116 10:26.09	00007979	19.585	Inter754t3-2	0.297	1	2	180.000	11.111	-1.7	0.196	0.000	D	F	1813.1	179.828	0.190	0.017	696.096	1160.822	0.026	-	-0.116	0.192	-	-	-	Ambient351	4.871	95.392	12.827	PAVEMENT_GENERAL	Urban	F	1011101000011101	0000000000000000	-	-	-	-	-	-	-	-	-	-	Terminate	
Unknown	133.98601	10/30/0116 10:26.10	00008039	19.766	Inter754t3-2	0.201	1	2	180.000	11.111	-1.0	0.196	0.000	D	F	1814.8	179.586	0.189	0.009	696.192	1141.146	0.026	-	-0.072	0.173	-	-	-	Ambient351	4.445	87.864	11.534	PAVEMENT_GENERAL	Urban	F	1011101000011101	0000000000000000	-	-	-	-	-	-	-	-	-	-	Terminate	
Unknown	134.98604	10/30/0116 10:26.11	00008099	19.936	Inter754t3-2	0.033	1	2	180.000	11.111	-0.7	0.196	0.000	D	F	1822.6	179.413	0.189	0.007	696.360	1121.295	0.026	-	-0.054	0.169	-	-	-	Ambient355	1.128	22.485	2.431	PAVEMENT_GENERAL	Urban	F	1011101000011101	0000000000000000	-	-	-	-	-	-	-	-	-	-	Terminate	
Unknown	135.98605	10/30/0116 10:26.12	00008159	20.101	Inter754t3-2	-0.174	1	2	180.000	11.111	5.4	0.194	0.000	D	F	1822.8	179.545	0.189	-0.036	696.567	1101.277	0.026	-	0.242	0.158	-	-	-	Ambient355	0.537	10.791	1.146	PAVEMENT_GENERAL	Urban	F	1011101000011101	0000000000000000	-	-	-	-	-	-	-	-	-	-	Terminate	
Unknown	136.98607	10/30/0116 10:26.13	00008219	20.234	Inter754t9-0	-0.228	1	1	179.990	11.111	0.5	0.187	0.000	D	F	1810.3	180.027	0.188	-0.004	696.623	1081.107	0.026	-	0.033	0.124	-	-	-	Ambient355	0.182	3.675	0.385	PAVEMENT_GENERAL	Urban	F	1011101000011101	0000000000000000	-	-	-	-	-	-	-	-	-	-	Terminate	
Unknown	137.98610	10/30/0116 10:26.14	00008279	20.330	Inter754t9-0	-0.343	1	1	179.989	11.111	-15.0	0.176	0.000	D	F	1784.9	178.207	0.185	0.179	696.741	1060.819	0.027	-	-1.290	0.070	-	-	-	Ambient351	2.642	53.705	6.564	PAVEMENT_GENERAL	Urban	F	1011101000011101	0000000000000000	-	-	-	-	-	-	-	-	-	-	Terminate	
Unknown	138.98611	10/30/0116 10:26.15	00008339	20.401	Inter754t11-0	-1.708	LT1	0	178.149	11.111	16.8	0.178	0.000	D	F	1790.4	179.013	0.185	-0.183	697.489	1040.468	0.027	-	1.335	0.072	-	-	-	Ambient351	2.345	47.845	5.797	PAVEMENT_GENERAL	Urban	F	1011101000011101	0000000000000000	-	-	-	-	-	-	-	-	-	-	Terminate	
Unknown	139.98613	10/30/0116 10:26.16	00008399	20.460	Inter754t9-0	-0.887	1	1	179.996	11.111	2.3	0.176	0.000	D	F	1788.8	182.481	0.182	-0.077	697.291	1020.041	0.027	-	0.676	0.064	-	-	-	Ambient351	1.824	37.325	4.490	PAVEMENT_GENERAL	Urban	F	1011101000011101	0000000000000000	-	-	-	-	-	-	-	-	-	-	Terminate	
Unknown	140.98616	10/30/0116 10:26.17	00008459	20.335	Inter686t1-0	-0.150	1	1	180.000	11.111	-3.7	0.000	0.000	D	F	1385.3	181.229	0.170	0.067	696.546	999.590	0.029	-	-0.556	-0.608	-	-	-	Ambient351	1.541	31.345	3.829	PAVEMENT_GENERAL	Urban	F	1011101000011101	0000000000000000	-	-	-	-	-	-	-	-	-	-	Terminate	
Unknown	141.98618	10/30/0116 10:26.18	00008519	19.402	Inter686t1-0	0.193	1	1	180.000	11.111	-0.1	0.000	0.203	D	F	1287.2	180.704	0.100	0.002	696.203	979.589	0.031	-	-0.060	-2.885	-	-	-	Ambient351	1.211	23.492	3.239	PAVEMENT_GENERAL	Urban	F	1011101000011101	0000000000000000	-	-	-	-	-	-	-	-	-	-	Terminate	
Unknown	142.98619	10/30/0116 10:26.19	00008579	16.903	Inter686t1-0	0.378	1	1	180.000	11.111	-1.9	0.000	0.107	D	F	1135.3	180.294	0.165	0.021	696.018	961.542	0.033	-	-0.152	-2.029	-	-	-	Ambient351	1.041	17.592	3.700	PAVEMENT_GENERAL	Urban	F	1011101000011101	0000000000000000	-	-	-	-	-	-	-	-	-	-	Terminate	
Unknown	143.98621	10/30/0116 10:26.20	00008639	15.940	Inter686t1-0	0.419	1	1	180.000	11.111	0.1	0.000	0.006	D	F	1087.1	179.952	0.188	0.003	695.977	945.164	0.030	-	-0.042	-0.621	-	-	-	Ambient351	0.838	13.361	3.523	PAVEMENT_GENERAL	Urban	F	1011101000011101	0000000000000000	-	-	-	-	-	-	-	-	-	-	Terminate	
Unknown	144.98624	10/30/0116 10:26.21	00008699	15.275	Inter686t1-0	0.405	1	1	180.000	11.111	2.2	0.000	0.096	D	F	1030.2	179.933	0.175	-0.006	695.991	929.539	0.029	-	0.050	-1.225	-	-	-	Ambient351	0.647	9.883	3.160	PAVEMENT_GENERAL	Urban	F	1011101000011101	0000000000000000	-	-	-	-	-	-	-	-	-	-	Terminate	
Unknown	145.98625	10/30/0116 10:26.22	00008759	11.825	Inter686t1-0	0.438	1	1	180.000	11.111	2.3	0.000	0.221	D	F	1069.0	180.422	0.151	-0.015	695.958	915.876	0.036	-	0.111	-3.379	-	-	-	Ambient351	0.708	8.368	-	PAVEMENT_GENERAL	Urban	F	1011101000011101	0000000000000000	-	-	-	-	-	-	-	-	-	-	Terminate	
Unknown	146.98627	10/30/0116 10:26.23	00008819	9.405	Inter686t1-0	0.535	1	1	180.000	11.111	-8.2	0.000	0.101	D	F	911.1	180.436	0.173	0.033	695.861	905.398	0.031	-	-0.201	-1.738	-	-	-	Ambient351	1.067	10.037	-	PAVEMENT_GENERAL	Urban	F	1011101000011101	0000000000000000	-	-	-	-	-	-	-	-	-	-	Terminate	
Unknown	147.98630	10/30/0116 10:26.24	00008879	8.473	Inter686t1-0	0.555	1	1	180.000	11.111	3.8	0.000	0.000	D	F	832.7	180.164	0.196	-0.016	695.841	896.583	0.028	-	0.095	-0.480	-	-	-	Ambient351	1.578	13.369	-	PAVEMENT_GENERAL	Urban	F	1011101000011101	0000000000000000	-	-	-	-	-	-	-	-	-	-	Terminate	
Unknown	148.98631	10/30/0116 10:26.25	00008939	8.069	Inter686t1-0	0.621	1	1	180.000	11.111	-2.4	0.032	0.000	D	F	959.4	180.494	0.198	0.002	695.776	888.335	0.028	-	-0.044	-0.246	-	-	-	Ambient351	2.140	17.268	-	PAVEMENT_GENERAL	Urban	F	1011101000011101	0000000000000000	-	-	-	-	-	-	-	-	-	-	Terminate	
Unknown	149.98633	10/30/0116 10:26.26	00008999	8.187	Inter686t1-0	0.626	1	1	180.000	11.111	-0.9	0.081	0.000	D	F	1265.3	179.766	0.204	0.005	695.770	880.241	0.025	-	-0.019	0.218	-	-	-	Ambient351	2.604	21.321	-	PAVEMENT_GENERAL	Urban	F	1011101000011101	0000000000000000	-	-	-	-	-	-	-	-	-	-	Terminate	
Unknown	150.98636	10/30/0116 10:26.27	00009059	8.633	Inter686t1-0	0.600	1	1	180.000	11.111	0.3	0.131	0.000	D	F	1434.6	179.906	0.204	0.002	695.796	871.854	0.024	-	0.006	0.484	-	-	-	Ambient351	2.905	25.081	-	PAVEMENT_GENERAL	Urban	F	1011101000011101	0000000000000000	-	-	-	-	-	-	-	-	-	-	Terminate	
Unknown	151.98637	10/30/0116 10:26.28	00009119	9.161	Inter686t1-0	0.563	1	1	180.000	11.111	-4.9	0.146	0.000	D	F	1498.3	179.510	0.207	0.016	695.833	862.959	0.024	-	-0.126	0.553	-	-	-	Ambient351	3.093	28.334	-	PAVEMENT_GENERAL	Urban	F	1011101000011101	0000000000000000	-	-	-	-	-	-	-	-	-	-	Terminate	
Unknown	152.98639	10/30/0116 10:26.29	00009179	9.912	Inter686t1-0	0.444	1	1	180.000	11.111	2.5	0.182	0.000	D	F	1630.5	179.325	0.209	-0.010	695.953	853.419	0.023	-	0.071	0.744	-	-	-	Ambient351	3.122	30.941	-	PAVEMENT_GENERAL	Urban	F	1011101000011101	0000000000000000	-	-	-	-	-	-	-	-	-	-	Terminate	
Unknown	153.98642	10/30/0116 10:26.30	00009239	10.634	Inter686t1-0	0.353	1	1	180.000	11.111	1.6	0.192	0.000	D	F	1681.1	179.604	0.208	-0.008	696.043	843.147	0.023	-	0.054	0.752	-	-	-	Ambient351	3.086	32.816	-	PAVEMENT_GENERAL	Urban	F	1011101000011101	0000000000000000	-	-	-	-	-	-	-	-	-	-	Terminate	
Unknown	154.98643	10/30/0116 10:26.31	00009299	11.344	Inter686t1-0	0.292	1	1	180.000	11.111	0.3	0.189	0.000	D	F	1700.7	179.695	0.205	-0.002	696.104	832.153	0.023	-	0.007	0.683	-	-	-	Ambient351	2.995	33.969	-	PAVEMENT_GENERAL	Urban	F	1011101000011101	0000000000000000	-	-	-	-	-	-	-	-	-	-	Terminate	
Unknown	155.98645	10/30/0116 10:26.32	00009359	12.012	Inter686t1-0	0.244	1	1	180.000	11.111	1.6	0.192	0.000	D	F	1732.2	179.870	0.205	-0.008	696.153	820.474	0.023	-	0.061	0.656	-	-	-	Ambient351	2.867	34.437	-	PAVEMENT_GENERAL	Urban	F	1011101000011101	0000000000000000	-	-	-	-	-	-	-	-	-	-	Terminate	
Unknown	156.98647	10/30/0116 10:26.33	00009419	12.642	Inter686t1-0	0.250	1	1	180.000	11.111	1.6	0.194	0.000	D	F	1764.3	180.181	0.204	-0.009	696.146	808.143	0.024	-	0.067	0.615	-	-	-	Ambient351	2.710	34.254	69.395	PAVEMENT_GENERAL	Urban	F	1011101000011101	0000000000000000	-	-	-	-	-	-	-	-	-	-	Terminate	
Unknown	157.98650	10/30/0116 10:26.34	00009479	13.262	Inter682t1-1	0.332	1	1	180.000	11.111	1.5	0.198	0.000	D	F	1806.5	180.472	0.203	-0.009	696.072	795.190	0.024	-	0.066	0.607	-	-	-	Ambient351	2.522	33.448	30.038	PAVEMENT_GENERAL	Urban	F	1011101000011101	0000000000000000	-	-	-	-	-	-	-	-	-	-	Terminate	
Unknown	158.98651	10/30/0116 10:26.35	00009539	13.842	Inter682t1-1	0.472	1	1	180.000	11.111	-3.4	0.198	0.000	D	F	1830.8	180.638	0.202	0.017	695.932	781.635	0.024	-	-0.092	0.559	-	-	-	Ambient351	2.315	32.040	18.912	PAVEMENT_GENERAL	Urban	F	1011101000011101	0000000000000000	-	-	-	-	-	-	-	-	-	-	Terminate	
Unknown	159.98653	10/30/0116 10:26.36	00009599	14.382	Inter682t1-1	0.557	1	1	180.000	11.111	-2.1	0.199	0.000	D	F	1856.2	180.105	0.201	0.013	695.846	767.520	0.024	-	-0.103	0.524	-	-	-	Ambient351	2.091	30.073	13.464	PAVEMENT_GENERAL	Urban	F	1011101000011101	0000000000000000	-	-	-	-	-	-	-	-	-	-	Terminate	
Unknown	160.98656	10/30/0116 10:26.37	00009659	14.794	Inter682t1-1	0.538	1	1	180.000	11.111	0.5	0.183	0.000	D	F	1840.4	179.742	0.202	0.005	695.866	752.905	0.025	-	-0.030	0.407	-	-	-	Ambient351	1.866	27.605	10.435	PAVEMENT_GENERAL	Urban	F	1011101000011101	0000000000000000	-	-	-	-	-	-	-	-	-	-	Terminate	
Unknown	161.98657	10/30/0116 10:26.38	00009719	15.321	Inter682t1-1	0.495	1	1	180.000	11.111	-0.2	0.222	0.000	D	F	1958.4	179.920	0.200	0.000	695.909	737.864	0.024	-	0.007	0.597	-	-	-	Ambient351	1.613	24.710	7.788	PAVEMENT_GENERAL	Urban	F	1011101000011101	0000000000000000	-	-	-	-	-	-	-	-	-	-	Terminate	
Unknown	162.98659	10/30/0116 10:26.39	00009779	15.455	Inter682t1-1	0.469	1	1	180.000	11.111	-0.7	0.034	0.000	D	F	1524.4	179.838	0.186	0.007	695.935	722.367	0.028	-	-0.047	-0.400	-	-	-	Ambient351	1.382	21.361	6.460	PAVEMENT_GENERAL	Urban	F	1011101000011101	0000000000000000	-	-	-	-	-	-	-	-	-	-	Terminate	
Unknown	163.98662	10/30/0116 10:26.40	00009839	15.108	Inter682t1-1	0.415	1	1	180.000	11.111	0.3	0.000	0.000	D	F	1482.6	179.784	0.177	-0.001	695.988	707.079	0.028	-	0.010	-0.590	-	-	-	Ambient351	1.206	18.220	6.155	PAVEMENT_GENERAL	Urban	F	1011101000011101	0000000000000000	-	-	-	-	-	-	-	-	-	-	Terminate	
Unknown	164.98663	10/30/0116 10:26.41	00009899	14.533	Inter682t1-1	0.378	1	1	180.000	11.111	0.8	0.000	0.036	D	F	1423.3	179.973	0.189	-0.008	696.026	692.257	0.029	-	0.057	-0.653	-	-	-	Ambient351	1.070	15.546	6.519	PAVEMENT_GENERAL	Urban	F	1011101000011101	0000000000000000	-	-	-	-	-	-	-	-	-	-	Terminate	
Unknown	165.98665	10/30/0116 10:26.42	00009959	12.044	Inter682t1-1	0.391	1	1	180.000	11.111	0.8	0.000	0.096	D	F	1168.0	180.163	0.186	-0.005	696.013	678.928	0.033	-	0.038	-1.790	-	-	-	Ambient351	1.193	14.364	-	PAVEMENT_GENERAL	Urban	F	1011101000011101	0000000000000000	-	-	-	-	-	-	-	-	-	-	Terminate	
Unknown	166.98668	10/30/0116 10:26.43	00010019	11.215	Inter682t1-1	0.438	1	1	180.000	11.111	0.7	0.000	0.000	D	F	1101.8	180.314	0.194	-0.004	695.966	667.401	0.029	-	0.030	-0.517	-	-	-	Ambient351	1.336	14.984	-	PAVEMENT_GENERAL	Urban	F	1011101000011101	0000000000000000	-	-	-	-	-	-	-	-	-	-	Terminate	
Unknown	167.98669	10/30/0116 10:26.44	00010079	10.787	Inter682t1-1	0.494	1	1	180.000	11.111	-1.2	0.071	0.000	D	F	1269.0	180.181	0.197	0.004	695.910	656.431	0.027	-	-0.046	-0.188	-	-	-	Ambient351	1.498	16.161	-	PAVEMENT_GENERAL	Urban	F	1011101000011101	0000000000000000	-	-	-	-	-	-	-	-	-	-	Terminate	
Unknown	168.98671	10/30/0116 10:26.45	00010139	10.956	Inter682t1-1	0.505	1	1	180.000	11.111	-1.6	0.132	0.000	D	F	1527.8	179.946	0.202	0.007	695.899	645.602	0.025	-	-0.054	0.360	-	-	-	Ambient351	1.595	17.479	-	PAVEMENT_GENERAL	Urban	F	1011101000011101	0000000000000000	-	-	-	-	-	-	-	-	-	-	Terminate	
Unknown	169.98674	10/30/0116 10:26.46	00010199	11.365	Inter682t1-1	0.467	1	1	180.000	11.111	0.3	0.176	0.000	D	F	1647.4	179.729	0.204	-0.001	695.937	634.457	0.024	-	0.001	0.524	-	-	-	Ambient351	1.626	18.481	-	PAVEMENT_GENERAL	Urban	F	1011101000011101	0000000000000000	-	-	-	-	-	-	-	-	-	-	Terminate	
Unknown	170.98676	10/30/0116 10:26.47	00010259	12.139	Inter682t1-1	0.414	1	1	180.000	11.111	1.1	0.238	0.000	D	F	1831.1	179.777	0.207	-0.006	695.989	622.734	0.022	-	0.035	0.868	-	-	-	Ambient351	1.557	18.906	-	PAVEMENT_GENERAL	Urban	F	1011101000011101	0000000000000000	-	-	-	-	-	-	-	-	-	-	Terminate	
Unknown	171.98677	10/30/0116 10:26.48	00010319	13.027	Inter682t1-1	0.379	1	1	180.000	11.111	-0.3	0.282	0.000	D	F	1969.9	179.845	0.206	0.000	696.025	610.154	0.022	-	-0.008	0.861	-	-	-	Ambient351	1.410	18.372	10.138	PAVEMENT_GENERAL	Urban	F	1011101000011101	0000000000000000	-	-	-	-	-	-	-	-	-	-	Terminate	
Unknown	172.98679	10/30/0116 10:26.49	00010379	13.584	Inter688t25-1	0.309	1	1	180.000	11.111	-1.9	0.000	0.000	D	F	1348.9	179.563	0.151	0.015	696.088	596.754	0.025	-	-0.099	-0.645	-	-	-	Ambient351	1.124	15.263	5.026	PAVEMENT_GENERAL	Urban	F	1011101000011101	0000000000000000	-	-	-	-	-	-	-	-	-	-	Terminate	
Unknown	173.98682	10/30/0116 10:26.50	00010439	12.267	Inter688t25-1	0.197	1	1	180.000	11.111	2.7	0.000	0.200	D	F	1172.4	179.677	0.138	-0.015	696.200	583.572	0.034	-	0.116	-2.977	-	-	-	Ambient351	0.879	10.786	11.735	PAVEMENT_GENERAL	Urban	F	1011101000011101	0000000000000000	-	-	-	-	-	-	-	-	-	-	Terminate	
Unknown	174.98683	10/30/0116 10:26.51	00010499	11.229	Inter688t29-0	0.150	1	1	180.104	11.111	-1.8	0.000	0.000	D	F	1103.4	179.903	0.192	0.007	696.233	572.008	0.029	-	-0.040	-0.517	-	-	-	Ambient351	1.173	13.167	-	PAVEMENT_GENERAL	Urban	F	1011101000011101	0000000000000000	-	-	-	-	-	-	-	-	-	-	Terminate	
Unknown	175.98685	10/30/0116 10:26.52	00010559	10.705	Inter688t29-0	-0.176	1	1	180.044	11.111	-45.1	0.000	0.000	D	F	1051.7	175.908	0.188	0.215	696.539	561.046	0.029	-	-1.560	-0.542	-	-	-	Ambient351	1.558	16.679	-	PAVEMENT_GENERAL	Urban	F	1011101000011101	0000000000000000	-	-	-	-	-	-	-	-	-	-	Terminate	
Unknown	176.98688	10/30/0116 10:26.53	00010619	10.187	Inter688t33-0	1.387	1	1	176.027	11.111	19.5	0.000	0.000	D	F	1001.0	169.957	0.193	-0.082	698.027	550.714	0.029	-	0.459	-0.509	-	-	-	Ambient351	1.466	14.939	14.814	PAVEMENT_GENERAL	Urban	F	1011101000011101	0000000000000000	-	-	-	-	-	-	-	-	-	-	Terminate	
Unknown	177.98689	10/30/0116 10:26.54	00010679	9.466	Inter688t27-1	0.641	LT1	1	179.909	11.111	28.1	0.000	0.203	D	F	905.4	174.706	0.119	-0.095	699.314	540.881	0.030	-	0.726	-2.691	-	-	-	Ambient351	1.286	12.174	2.798	PAVEMENT_GENERAL	Urban	F	1011101000011101	0000000000000000	-	-	-	-	-	-	-	-	-	-	Terminate	
Unknown	178.98691	10/30/0116 10:26.55	00010739	5.240	Inter688t27-1	0.266	LT1	1	179.909	11.111	27.1	0.000	0.388	D	F	493.1	178.646	0.078	-0.040	699.701	533.395	0.039	-	0.268	-4.884	-	-	-	Ambient351	1.484	7.776	1.821	PAVEMENT_GENERAL	Urban	F	1011101000011101	0000000000000000	-	-	-	-	-	-	-	-	-	-	Terminate	
Unknown	179.98694	10/30/0116 10:26.56	00010799	0.306	Inter688t27-1	0.274	LT1	1	179.909	11.111	26.5	0.000	0.391	D	F	477.5	180.077	0.135	0.013	699.697	530.744	0.039	-	-0.048	-3.223	-	-	-	Ambient351	17.172	5.251	17.172	PAVEMENT_GENERAL	Urban	F	1011101000011101	0000000000000000	-	-	-	-	-	-	-	-	-	-	Terminate	
Unknown	180.98695	10/30/0116 10:26.57	00010859	-0.001	Inter688t27-1	0.275	LT1	1	179.909	11.111	26.4	0.000	0.158	D	F	477.5	180.088	0.234	-0.002	699.697	530.720	0.032	-	-0.000	0.003	-	-	-	Ambient351	-	5.227	-	PAVEMENT_GENERAL	Urban	F	1011101000011101	0000000000000000	-	-	-	-	-	-	-	-	-	-	Terminate	
Unknown	181.98697	10/30/0116 10:26.58	00010919	-0.001	Inter688t27-1	0.275	LT1	1	179.909	11.111	26.2	0.000	0.146	D	F	477.5	180.089	0.217	-0.001	699.697	530.721	0.029	-	0.000	0.001	-	-	-	Ambient351	-	5.228	-	PAVEMENT_GENERAL	Urban	F	1011101000011101	0000000000000000	-	-	-	-	-	-	-	-	-	-	Terminate	
Unknown	182.98700	10/30/0116 10:26.59	00010979	-0.000	Inter688t27-1	0.275	LT1	1	179.909	11.111	26.5	0.000	0.143	D	F	477.5	180.089	0.211	-0.000	699.697	530.722	0.028	-	0.000	0.000	-	-	-	Ambient351	-	5.229	-	PAVEMENT_GENERAL	Urban	F	1011101000011101	0000000000000000	-	-	-	-	-	-	-	-	-	-	Terminate	
Unknown	183.98701	10/30/0116 10:27.00	00011039	-0.000	Inter688t27-1	0.275	LT1	1	179.909	11.111	26.6	0.000	0.099	D	F	477.5	180.089	0.210	-0.000	699.697	530.722	0.028	-	0.000	0.000	-	-	-	Ambient351	-	5.229	-	PAVEMENT_GENERAL	Urban	F	1011101000011101	0000000000000000	-	-	-	-	-	-	-	-	-	-	Terminate	
Unknown	184.98703	10/30/0116 10:27.01	00011099	-0.000	Inter688t27-1	0.275	LT1	1	179.909	11.111	27.1	0.000	0.093	D	F	477.5	180.089	0.209	-0.000	699.697	530.722	0.028	-	0.000	0.000	-	-	-	Ambient351	-	5.229	-	PAVEMENT_GENERAL	Urban	F	1011101000011101	0000000000000000	-	-	-	-	-	-	-	-	-	-	Terminate	
Unknown	185.98706	10/30/0116 10:27.02	00011159	-0.000	Inter688t27-1	0.275	LT1	1	179.909	11.111	27.0	0.000	0.069	D	F	477.5	180.089	0.209	-0.000	699.697	530.722	0.028	-	0.000	0.000	-	-	-	Ambient351	-	5.229	-	PAVEMENT_GENERAL	Urban	F	1011101000011101	0000000000000000	-	-	-	-	-	-	-	-	-	-	Terminate	
Unknown	186.98708	10/30/0116 10:27.03	00011219	0.000	Inter688t27-1	0.275	LT1	1	179.909	11.111	27.0	0.000	0.045	D	F	477.5	180.089	0.208	-0.000	699.697	530.722	0.028	-	0.000	0.001	-	-	-	Ambient351	-	5.229	-	PAVEMENT_GENERAL	Urban	F	1011101000011101	0000000000000000	-	-	-	-	-	-	-	-	-	-	Terminate	
Unknown	187.98709	10/30/0116 10:27.04	00011279	0.007	Inter688t27-1	0.275	LT1	1	179.909	11.111	26.8	0.000	0.000	D	F	477.5	180.091	0.205	-0.000	699.697	530.720	0.026	-	0.001	0.017	-	-	-	Ambient351	-	6.210	-	PAVEMENT_GENERAL	Urban	F	1011101000011101	0000000000000000	-	-	-	-	-	-	-	-	-	-	Terminate	
Unknown	188.98711	10/30/0116 10:27.05	00011339	0.026	Inter688t27-1	0.275	LT1	1	179.909	11.111	24.6	0.041	0.000	D	F	548.9	180.106	0.198	0.003	699.696	530.708	0.024	-	0.001	0.069	-	-	-	Ambient351	352.594	9.187	-	PAVEMENT_GENERAL	Urban	F	1011101000011101	0000000000000000	-	-	-	-	-	-	-	-	-	-	Terminate	
Unknown	189.98714	10/30/0116 10:27.06	00011399	0.969	Inter688t27-1	0.282	LT1	1	179.909	11.111	20.8	0.097	0.000	D	F	1166.7	180.278	0.250	-0.003	699.690	530.368	0.020	-	0.025	2.113	-	-	-	Ambient351	14.273	13.833	-	PAVEMENT_GENERAL	Urban	F	1011101000011101	0000000000000000	-	-	-	-	-	-	-	-	-	-	Terminate	
Unknown	190.98715	10/30/0116 10:27.07	00011459	3.874	Inter688t27-1	0.314	LT1	1	179.909	11.111	-3.2	0.203	0.000	D	F	1714.5	180.557	0.229	0.007	699.662	527.977	0.012	-	-0.051	2.949	-	-	-	Ambient351	4.757	18.430	-	PAVEMENT_GENERAL	Urban	F	1011101000011101	0000000000000000	-	-	-	-	-	-	-	-	-	-	Terminate	
Unknown	191.98717	10/30/0116 10:27.08	00011519	6.438	Inter688t27-1	0.292	LT1	1	179.909	11.111	-21.0	0.222	0.000	D	F	2120.7	179.166	0.220	0.039	699.692	522.744	0.016	-	-0.305	2.142	-	-	-	Ambient351	3.443	22.168	-	PAVEMENT_GENERAL	Urban	F	1011101000011101	0000000000000000	-	-	-	-	-	-	-	-	-	-	Terminate	
Unknown	192.98720	10/30/0116 10:27.09	00011579	8.281	Inter688t59-0	0.195	1	1	169.018	11.111	-44.0	0.208	0.000	D	F	1843.8	175.547	0.209	0.133	700.079	515.327	0.019	-	-0.948	1.383	-	-	-	Ambient351	3.055	25.301	-	PAVEMENT_GENERAL	Urban	F	1011101000011101	0000000000000000	-	-	-	-	-	-	-	-	-	-	Terminate	
Unknown	193.98721	10/30/0116 10:27.10	00011639	8.641	-	-	INT	0	-	-	-77.9	0.000	0.000	D	F	897.1	166.709	0.176	0.270	701.487	506.777	0.028	-	-1.943	-0.548	-	-	-	-	-	-	-	PAVEMENT_GENERAL	Urban	F	1011101000011101	0000000000000000	-	-	-	-	-	-	-	-	-	-	Terminate	
Unknown	194.98723	10/30/0116 10:27.11	00011699	8.105	-Inter688t49-0	0.942	-1	1	359.797	11.111	-119.0	0.000	0.000	D	F	798.7	151.732	0.175	0.354	704.602	499.027	0.030	-	-2.643	-0.630	-	-	-	Ambient412	12.309	99.759	-	PAVEMENT_GENERAL	Urban	F	1011101000011101	0000000000000000	-	-	-	-	-	-	-	-	-	-	Terminate	
Unknown	195.98726	10/30/0116 10:27.12	00011759	7.379	Inter688t51-0	-0.289	1	1	52.423	11.111	-275.6	0.000	0.000	D	F	730.5	124.402	0.135	0.683	709.880	493.437	0.035	-	-4.994	-1.182	-	-	-	Ambient351	5.770	42.575	-	PAVEMENT_GENERAL	Urban	F	1011101000011101	0000000000000000	-	-	-	-	-	-	-	-	-	-	Terminate	
Unknown	196.98727	10/30/0116 10:27.13	00011819	6.203	-	-	-	0	-	-	-127.4	0.000	0.000	D	F	566.9	91.609	0.146	-1.577	716.490	492.041	0.176	-	-0.615	-0.460	-	-	-	-	-	-	-	CURB	Urban	F	1011101000011101	0000000000000000	-	-	-	-	-	-	-	-	-	-	Terminate	
Unknown	197.98729	10/30/0116 10:27.14	00011879	5.718	-	-	-	0	-	-	-63.1	0.000	0.000	D	F	512.0	81.632	-0.387	-1.384	722.397	492.702	0.161	-	-1.286	-0.375	-	-	-	-	-	-	-	CURB	Urban	F	1011101000011101	0000000000000000	-	-	-	-	-	-	-	-	-	-	Terminate	
Unknown	198.98732	10/30/0116 10:27.15	00011939	5.198	-	-	SH	1	-	-	-8.8	0.000	0.000	D	F	517.6	78.791	-1.547	-0.706	727.725	493.843	0.040	-	-1.057	-0.604	-	-	-	-	-	-	-	CURB	Urban	F	1011101000011101	0000000000000000	-	-	-	-	-	-	-	-	-	-	Terminate	
Unknown	199.98734	10/30/0116 10:27.16	00011999	4.751	Inter688t5-0	1.573	1	1	90.156	11.111	14.3	0.000	0.000	D	F	477.5	77.614	0.215	0.023	732.607	494.894	0.028	-	0.179	-0.432	-	-	-	Ambient351	14.273	67.817	-	PAVEMENT_GENERAL	Urban	F	1011101000011101	0000000000000000	-	-	-	-	-	-	-	-	-	-	Terminate	
Unknown	200.98735	10/30/0116 10:27.17	00012059	4.306	Inter688t5-0	0.789	1	1	90.156	11.111	71.4	0.000	0.000	D	F	505.6	81.462	0.196	-0.060	737.073	495.665	0.028	-	0.485	-0.499	-	-	-	Ambient351	17.535	75.500	-	PAVEMENT_GENERAL	Urban	F	1011101000011101	0000000000000000	-	-	-	-	-	-	-	-	-	-	Terminate	
Unknown	201.98737	10/30/0116 10:27.18	00012119	4.076	Inter688t5-0	0.451	1	1	90.156	11.111	12.6	0.083	0.000	D	F	1219.7	85.531	0.240	-0.019	741.151	495.992	0.025	-	0.037	0.917	-	-	-	Ambient351	19.913	81.156	-	PAVEMENT_GENERAL	Urban	F	1011101000011101	0000000000000000	-	-	-	-	-	-	-	-	-	-	Terminate	
Unknown	202.98740	10/30/0116 10:27.19	00012179	4.800	Inter688t19-0	0.176	1	1	90.094	11.111	21.5	0.086	0.000	D	F	1258.9	86.906	0.210	-0.027	745.581	496.257	0.023	-	0.193	0.710	-	-	-	Ambient351	19.018	91.288	-	PAVEMENT_GENERAL	Urban	F	1011101000011101	0000000000000000	-	-	-	-	-	-	-	-	-	-	Terminate	
Unknown	203.98741	10/30/0116 10:27.20	00012239	5.686	Inter688t19-0	0.033	1	1	90.066	11.111	-0.9	0.141	0.000	D	F	1468.0	88.865	0.214	0.021	750.797	496.390	0.022	-	-0.086	1.011	-	-	-	Ambient351	17.273	98.220	-	PAVEMENT_GENERAL	Urban	F	1011101000011101	0000000000000000	-	-	-	-	-	-	-	-	-	-	Terminate	
