"Name"	"Project"	"Time"	ZoneName	Time	SystemTime	Frame	Velocity	LaneName	LanePos	LaneIndex	LaneCount	LaneHeading	SpeedLimit	Steer	Accel	Brake	Gear	Horn	SubjectEngineRPM	SubjectHeading	SubjectPitch	SubjectRoll	SubjectX	SubjectY	SubjectZ	Signal	LatAccel	LongAccel	Collision	CollisionAngle	CollisionVelocity	VehAhead	HeadwayTime	HeadwayDist	TTC	TerrainType	CultureType	Slip	DigitalInputs	DigitalInputs2	ActiveTrigger	EntityName	DistToEntity	TimeToEntity	EntityVelocity	EntityAccel	EntityHeading	EntityX	EntityY	EntityZ	GrabData	
"Student18Mode2"	"Tanvi_6"	"Feb 14, 2017 09:34:09 AM"	Unknown	0.98335	01/14/0117 09:34.13	00000059	0.002	Inter625t13-0	-0.088	1	2	0.000	11.111	1.2	0.000	0.000	N	F	0.0	0.000	0.153	-0.000	1503.500	523.206	0.019	-	-0.000	0.000	-	-	-	-	-	-	-	PAVEMENT_GENERAL	Urban	F	1111101000011101	0000000000000000	-	car	928.855	774737.062	0.000	0.000	180.000	696.000	987.000	-0.000	Terminate	
"Student18Mode2"	"Tanvi_6"	"Feb 14, 2017 09:34:09 AM"	Unknown	1.98337	01/14/0117 09:34.14	00000119	0.000	Inter625t13-0	-0.088	1	2	0.000	11.111	1.2	0.000	0.000	N	F	0.0	0.000	0.197	-0.000	1503.500	523.208	0.026	-	0.000	-0.001	-	-	-	-	-	-	-	PAVEMENT_GENERAL	Urban	F	1011101000011101	0000000000000000	-	car	928.855	4213859.000	0.000	0.000	180.000	696.000	987.000	-0.000	Terminate	
"Student18Mode2"	"Tanvi_6"	"Feb 14, 2017 09:34:09 AM"	Unknown	2.98339	01/14/0117 09:34.15	00000179	-0.000	Inter625t13-0	-0.088	1	2	0.000	11.111	0.9	0.000	0.000	N	F	0.0	0.000	0.207	-0.000	1503.500	523.208	0.028	-	0.000	-0.000	-	-	-	-	-	-	-	PAVEMENT_GENERAL	Urban	F	1111101000011101	0000000000000000	-	car	928.854	-115955392.000	0.000	0.000	180.000	696.000	987.000	-0.000	Terminate	
"Student18Mode2"	"Tanvi_6"	"Feb 14, 2017 09:34:09 AM"	Unknown	3.98341	01/14/0117 09:34.16	00000239	-0.000	Inter625t13-0	-0.088	1	2	0.000	11.111	2.4	0.000	0.000	N	F	0.0	0.000	0.210	-0.000	1503.500	523.208	0.028	-	0.000	-0.000	-	-	-	-	-	-	-	PAVEMENT_GENERAL	Urban	F	1011101000011101	0000000000000000	-	car	928.854	-22305224.000	0.000	0.000	180.000	696.000	987.000	-0.000	Terminate	
"Student18Mode2"	"Tanvi_6"	"Feb 14, 2017 09:34:09 AM"	Unknown	4.98343	01/14/0117 09:34.17	00000299	-0.000	Inter625t13-0	-0.088	1	2	0.000	11.111	1.7	0.007	0.000	N	F	0.0	0.000	0.210	-0.000	1503.500	523.208	0.028	-	0.000	0.000	-	-	-	-	-	-	-	PAVEMENT_GENERAL	Urban	F	1011101000011101	0000000000000000	-	car	928.854	-24857886.000	0.000	0.000	180.000	696.000	987.000	-0.000	Terminate	
"Student18Mode2"	"Tanvi_6"	"Feb 14, 2017 09:34:09 AM"	Unknown	5.98345	01/14/0117 09:34.18	00000359	-0.000	Inter625t13-0	-0.088	1	2	0.000	11.111	1.5	0.162	0.000	N	F	0.0	0.000	0.209	-0.000	1503.500	523.208	0.028	-	0.000	0.000	-	-	-	-	-	-	-	PAVEMENT_GENERAL	Urban	F	1011101000011101	0000000000000000	-	car	928.855	-34382352.000	0.000	0.000	180.000	696.000	987.000	-0.000	Terminate	
"Student18Mode2"	"Tanvi_6"	"Feb 14, 2017 09:34:09 AM"	Unknown	6.98347	01/14/0117 09:34.19	00000419	-0.000	Inter625t13-0	-0.088	1	2	0.000	11.111	1.6	0.159	0.000	N	F	111.1	0.000	0.209	0.000	1503.500	523.208	0.028	-	0.000	0.000	-	-	-	-	-	-	-	PAVEMENT_GENERAL	Urban	F	1011101000011111	0000000000000000	-	car	928.855	-48193152.000	0.000	0.000	180.000	696.000	987.000	-0.000	Terminate	
"Student18Mode2"	"Tanvi_6"	"Feb 14, 2017 09:34:09 AM"	Unknown	7.98349	01/14/0117 09:34.20	00000479	-0.000	Inter625t13-0	-0.088	1	2	0.000	11.111	1.6	0.162	0.000	N	F	444.4	0.000	0.209	0.000	1503.500	523.208	0.028	-	0.000	0.000	-	-	-	-	-	-	-	PAVEMENT_GENERAL	Urban	F	1111101000011101	0000000000000000	-	car	928.855	-64936776.000	0.000	0.000	180.000	696.000	987.000	-0.000	Terminate	
"Student18Mode2"	"Tanvi_6"	"Feb 14, 2017 09:34:09 AM"	Unknown	8.98351	01/14/0117 09:34.21	00000539	0.936	Inter625t13-0	-0.088	1	2	0.000	11.111	1.6	0.250	0.000	D	F	1554.1	0.007	0.245	0.000	1503.500	523.328	0.010	-	0.004	4.389	-	-	-	-	-	-	-	PAVEMENT_GENERAL	Urban	F	1011101000011101	0000000000000000	-	car	928.795	1993.548	0.000	0.000	180.000	696.000	987.000	-0.000	Terminate	
"Student18Mode2"	"Tanvi_6"	"Feb 14, 2017 09:34:09 AM"	Unknown	9.98353	01/14/0117 09:34.22	00000599	5.026	Inter625t13-0	-0.081	1	2	0.000	11.111	2.5	0.346	0.000	D	F	2023.4	0.130	0.227	-0.004	1503.507	526.434	0.009	-	0.027	3.392	-	-	-	-	-	-	-	PAVEMENT_GENERAL	Urban	F	1011101000011101	0000000000000000	-	car	927.258	373.900	0.000	0.000	180.000	696.000	987.000	-0.000	Terminate	
"Student18Mode2"	"Tanvi_6"	"Feb 14, 2017 09:34:09 AM"	Unknown	10.98355	01/14/0117 09:34.23	00000659	7.933	Inter625t49-0	-0.044	1	1	0.005	11.111	1.3	0.300	0.000	D	F	2529.6	0.398	0.218	-0.004	1503.544	532.984	0.014	-	0.027	2.446	-	-	-	-	-	-	-	PAVEMENT_GENERAL	Urban	F	1011101000011101	0000000000000000	-	car	924.063	240.657	0.000	0.000	180.000	696.000	987.000	-0.000	Terminate	
"Student18Mode2"	"Tanvi_6"	"Feb 14, 2017 09:34:09 AM"	Unknown	11.98357	01/14/0117 09:34.24	00000719	10.307	Inter625t49-0	0.024	1	1	0.007	11.111	-0.5	0.321	0.000	D	F	2215.5	0.401	0.209	0.002	1503.613	542.157	0.017	-	-0.016	1.748	-	-	-	-	-	-	-	PAVEMENT_GENERAL	Urban	F	1011101000011101	0000000000000000	-	car	919.662	187.320	0.000	0.000	180.000	696.000	987.000	-0.000	Terminate	
"Student18Mode2"	"Tanvi_6"	"Feb 14, 2017 09:34:09 AM"	Unknown	12.98359	01/14/0117 09:34.25	00000779	11.771	Inter625t49-0	0.091	1	1	0.007	11.111	-0.1	0.293	0.000	D	F	2186.8	0.315	0.210	0.001	1503.681	553.232	0.020	-	-0.007	1.296	-	-	-	-	-	-	-	PAVEMENT_GENERAL	Urban	F	1011101000011101	0000000000000000	-	car	914.430	165.893	0.000	0.000	180.000	696.000	987.000	-0.000	Terminate	
"Student18Mode2"	"Tanvi_6"	"Feb 14, 2017 09:34:09 AM"	Unknown	13.98361	01/14/0117 09:34.26	00000839	12.907	Inter625t49-0	0.154	1	1	0.005	11.111	-1.8	0.254	0.000	D	F	2278.4	0.287	0.207	0.005	1503.746	565.591	0.021	-	-0.045	1.034	-	-	-	-	-	-	-	PAVEMENT_GENERAL	Urban	F	1011101000011101	0000000000000000	-	car	908.705	153.688	0.000	0.000	180.000	696.000	987.000	-0.000	Terminate	
"Student18Mode2"	"Tanvi_6"	"Feb 14, 2017 09:34:09 AM"	Unknown	14.98363	01/14/0117 09:34.27	00000899	13.923	Inter625t49-0	0.172	1	1	0.005	11.111	-1.9	0.257	0.000	D	F	2406.9	359.840	0.206	0.012	1503.765	579.006	0.022	-	-0.101	1.019	-	-	-	-	-	-	-	PAVEMENT_GENERAL	Urban	F	1011101000011101	0000000000000000	-	car	902.595	142.997	0.000	0.000	180.000	696.000	987.000	-0.000	Terminate	
"Student18Mode2"	"Tanvi_6"	"Feb 14, 2017 09:34:09 AM"	Unknown	15.98365	01/14/0117 09:34.28	00000959	14.931	Inter625t15-0	0.090	1	2	0.000	11.111	-0.9	0.265	0.000	D	F	2555.1	359.526	0.204	0.007	1503.684	593.434	0.022	-	-0.058	0.981	-	-	-	-	-	-	-	PAVEMENT_GENERAL	Urban	F	1011101000011101	0000000000000000	-	car	896.110	134.725	0.000	0.000	180.000	696.000	987.000	-0.000	Terminate	
"Student18Mode2"	"Tanvi_6"	"Feb 14, 2017 09:34:09 AM"	Unknown	16.98367	01/14/0117 09:34.29	00001019	15.871	Inter614t1-0	-0.060	1	2	0.000	11.111	-0.8	0.233	0.000	D	F	2155.5	359.343	0.193	0.006	1503.533	608.846	0.022	-	-0.047	0.717	-	-	-	-	-	-	-	PAVEMENT_GENERAL	Urban	F	1011101000011101	0000000000000000	-	car	889.330	128.983	0.000	0.000	180.000	696.000	987.000	-0.000	Terminate	
"Student18Mode2"	"Tanvi_6"	"Feb 14, 2017 09:34:09 AM"	Unknown	17.98369	01/14/0117 09:34.30	00001079	16.436	Inter614t1-0	-0.265	1	2	0.000	11.111	-0.7	0.136	0.000	D	F	1832.2	359.179	0.194	0.006	1503.328	625.014	0.024	-	-0.045	0.321	-	-	-	-	-	-	-	PAVEMENT_GENERAL	Urban	F	1111101000011101	0000000000000000	-	car	882.407	127.176	0.000	0.000	180.000	696.000	987.000	-0.000	Terminate	
"Student18Mode2"	"Tanvi_6"	"Feb 14, 2017 09:34:09 AM"	Unknown	18.98371	01/14/0117 09:34.31	00001139	16.373	Inter614t1-0	-0.502	1	2	0.000	11.111	2.3	0.079	0.000	D	F	1738.5	359.272	0.190	-0.014	1503.091	641.440	0.027	-	0.107	-0.174	-	-	-	-	-	-	-	PAVEMENT_GENERAL	Urban	F	1011101000011101	0000000000000000	-	car	875.597	131.967	0.000	0.000	180.000	696.000	987.000	-0.000	Terminate	
"Student18Mode2"	"Tanvi_6"	"Feb 14, 2017 09:34:09 AM"	Unknown	19.98373	01/14/0117 09:34.32	00001199	16.168	Inter614t1-0	-0.622	1	2	0.000	11.111	3.5	0.069	0.000	D	F	1700.9	0.025	0.190	-0.029	1502.972	657.713	0.028	-	0.226	-0.221	-	-	-	-	-	-	-	PAVEMENT_GENERAL	Urban	F	1111101000011101	0000000000000000	-	car	869.210	142.450	0.000	0.000	180.000	696.000	987.000	-0.000	Terminate	
"Student18Mode2"	"Tanvi_6"	"Feb 14, 2017 09:34:09 AM"	Unknown	20.98375	01/14/0117 09:34.33	00001259	15.947	Inter614t1-0	-0.527	1	2	0.000	11.111	1.6	0.071	0.000	D	F	1683.7	0.650	0.191	-0.016	1503.066	673.768	0.028	-	0.115	-0.211	-	-	-	-	-	-	-	PAVEMENT_GENERAL	Urban	F	1011101000011101	0000000000000000	-	car	863.360	154.154	0.000	0.000	180.000	696.000	987.000	-0.000	Terminate	
"Student18Mode2"	"Tanvi_6"	"Feb 14, 2017 09:34:09 AM"	Unknown	21.98377	01/14/0117 09:34.34	00001319	15.741	Inter614t1-0	-0.342	1	2	0.000	11.111	-0.8	0.078	0.000	D	F	1681.5	0.647	0.192	0.003	1503.251	689.610	0.027	-	-0.030	-0.188	-	-	-	-	-	-	-	PAVEMENT_GENERAL	Urban	F	1011101000011101	0000000000000000	-	car	857.929	162.664	0.000	0.000	180.000	696.000	987.000	-0.000	Terminate	
"Student18Mode2"	"Tanvi_6"	"Feb 14, 2017 09:34:09 AM"	Unknown	22.98379	01/14/0117 09:34.35	00001379	15.791	Inter614t1-0	-0.194	1	2	0.000	11.111	-1.3	0.131	0.000	D	F	1773.8	0.396	0.194	0.009	1503.399	705.353	0.026	-	-0.073	0.079	-	-	-	-	-	-	-	PAVEMENT_GENERAL	Urban	F	1011101000011101	0000000000000000	-	car	852.754	167.279	0.000	0.000	180.000	696.000	987.000	-0.000	Terminate	
"Student18Mode2"	"Tanvi_6"	"Feb 14, 2017 09:34:09 AM"	Unknown	23.98381	01/14/0117 09:34.36	00001439	15.927	Inter614t1-0	-0.117	1	2	0.000	11.111	-1.4	0.166	0.000	D	F	1854.8	0.133	0.196	0.010	1503.476	721.195	0.025	-	-0.075	0.250	-	-	-	-	-	-	-	PAVEMENT_GENERAL	Urban	F	1011101000011101	0000000000000000	-	car	847.740	171.438	0.000	0.000	180.000	696.000	987.000	-0.000	Terminate	
"Student18Mode2"	"Tanvi_6"	"Feb 14, 2017 09:34:09 AM"	Unknown	24.98383	01/14/0117 09:34.37	00001499	16.139	Inter614t1-0	-0.121	1	2	0.000	11.111	-2.1	0.157	0.000	D	F	1853.8	359.778	0.194	0.015	1503.472	737.228	0.026	-	-0.117	0.201	-	-	-	-	-	-	-	PAVEMENT_GENERAL	Urban	F	1011101000011101	0000000000000000	-	car	842.861	174.542	0.000	0.000	180.000	696.000	987.000	-0.000	Terminate	
"Student18Mode2"	"Tanvi_6"	"Feb 14, 2017 09:34:09 AM"	Unknown	25.98385	01/14/0117 09:34.38	00001559	16.326	Inter614t1-0	-0.229	1	2	0.000	11.111	-0.7	0.155	0.000	D	F	1858.9	359.468	0.195	0.006	1503.364	753.463	0.026	-	-0.051	0.170	-	-	-	-	-	-	-	PAVEMENT_GENERAL	Urban	F	1011101000011101	0000000000000000	-	car	838.102	179.008	0.000	0.000	180.000	696.000	987.000	-0.000	Terminate	
"Student18Mode2"	"Tanvi_6"	"Feb 14, 2017 09:34:09 AM"	Unknown	26.98387	01/14/0117 09:34.39	00001619	16.489	Inter614t1-0	-0.376	1	2	0.000	11.111	1.2	0.153	0.000	D	F	1871.4	359.576	0.195	-0.008	1503.217	769.872	0.026	-	0.066	0.163	-	-	-	-	-	-	-	PAVEMENT_GENERAL	Urban	F	1011101000011101	0000000000000000	-	car	833.550	189.408	0.000	0.000	180.000	696.000	987.000	-0.000	Terminate	
"Student18Mode2"	"Tanvi_6"	"Feb 14, 2017 09:34:09 AM"	Unknown	27.98389	01/14/0117 09:34.40	00001679	16.619	Inter614t1-0	-0.469	1	2	0.000	11.111	0.9	0.139	0.000	D	F	1852.3	359.795	0.193	-0.007	1503.124	786.431	0.026	-	0.057	0.102	-	-	-	-	-	-	-	PAVEMENT_GENERAL	Urban	F	1011101000011101	0000000000000000	-	car	829.312	203.985	0.000	0.000	180.000	696.000	987.000	-0.000	Terminate	
"Student18Mode2"	"Tanvi_6"	"Feb 14, 2017 09:34:09 AM"	Unknown	28.98391	01/14/0117 09:34.41	00001739	16.710	Inter612t1-0	-0.507	1	2	0.000	11.111	0.8	0.138	0.000	D	F	1854.3	0.000	0.193	-0.006	1503.086	803.097	0.026	-	0.044	0.084	-	-	-	-	-	-	-	PAVEMENT_GENERAL	Urban	F	1011101000011101	0000000000000000	-	car	825.414	221.660	0.000	0.000	180.000	696.000	987.000	-0.000	Terminate	
"Student18Mode2"	"Tanvi_6"	"Feb 14, 2017 09:34:09 AM"	Unknown	29.98393	01/14/0117 09:34.42	00001799	16.773	Inter612t1-0	-0.501	1	2	0.000	11.111	0.4	0.129	0.000	D	F	1843.2	0.058	0.192	-0.001	1503.093	819.843	0.026	-	0.010	0.039	-	-	-	-	-	-	-	PAVEMENT_GENERAL	Urban	F	1011101000011101	0000000000000000	-	car	821.861	242.787	0.000	0.000	180.000	696.000	987.000	-0.000	Terminate	
"Student18Mode2"	"Tanvi_6"	"Feb 14, 2017 09:34:09 AM"	Unknown	30.98395	01/14/0117 09:34.43	00001859	16.815	Inter612t1-0	-0.444	1	2	0.000	11.111	2.4	0.127	0.000	D	F	1846.8	0.426	0.193	-0.018	1503.149	836.637	0.026	-	0.139	0.037	-	-	-	-	-	-	-	PAVEMENT_GENERAL	Urban	F	1011101000011101	0000000000000000	-	car	818.676	276.928	0.000	0.000	180.000	696.000	987.000	-0.000	Terminate	
"Student18Mode2"	"Tanvi_6"	"Feb 14, 2017 09:34:09 AM"	Unknown	31.98397	01/14/0117 09:34.44	00001919	16.846	Inter612t1-0	-0.258	1	2	0.000	11.111	1.7	0.125	0.000	D	F	1847.1	0.883	0.192	-0.016	1503.335	853.467	0.026	-	0.119	0.026	-	-	-	-	-	-	-	PAVEMENT_GENERAL	Urban	F	1011101000011101	0000000000000000	-	car	815.944	327.359	0.000	0.000	180.000	696.000	987.000	-0.000	Terminate	
"Student18Mode2"	"Tanvi_6"	"Feb 14, 2017 09:34:09 AM"	Unknown	32.98399	01/14/0117 09:34.45	00001979	16.872	Inter612t1-0	0.023	1	2	0.000	11.111	0.4	0.129	0.000	D	F	1852.1	1.012	0.193	-0.003	1503.616	870.323	0.026	-	0.021	0.028	-	-	-	-	-	-	-	PAVEMENT_GENERAL	Urban	F	1011101000011101	0000000000000000	-	car	813.641	384.288	0.000	0.000	180.000	696.000	987.000	-0.000	Terminate	
"Student18Mode2"	"Tanvi_6"	"Feb 14, 2017 09:34:09 AM"	Unknown	33.98401	01/14/0117 09:34.46	00002039	16.896	Inter612t1-0	0.333	1	2	0.000	11.111	0.5	0.127	0.000	D	F	1854.4	1.104	0.192	-0.004	1503.926	887.205	0.026	-	0.028	0.022	-	-	-	-	-	-	-	PAVEMENT_GENERAL	Urban	F	1011101000011101	0000000000000000	-	car	811.706	464.454	0.000	0.000	180.000	696.000	987.000	-0.000	Terminate	
"Student18Mode2"	"Tanvi_6"	"Feb 14, 2017 09:34:09 AM"	Unknown	34.98403	01/14/0117 09:34.47	00002099	16.916	Inter612t1-0	0.668	1	2	0.000	11.111	-0.2	0.125	0.000	D	F	1853.7	1.147	0.192	0.001	1504.261	904.108	0.026	-	-0.009	0.019	-	-	-	-	-	-	-	PAVEMENT_GENERAL	Urban	F	1011101000011101	0000000000000000	-	car	810.141	583.489	0.000	0.000	180.000	696.000	987.000	-0.000	Terminate	
"Student18Mode2"	"Tanvi_6"	"Feb 14, 2017 09:34:09 AM"	Unknown	35.98405	01/14/0117 09:34.48	00002159	16.935	Inter612t1-0	1.002	1	2	0.000	11.111	-5.0	0.127	0.000	D	F	1855.3	1.082	0.192	0.022	1504.595	921.030	0.026	-	-0.154	0.022	-	-	-	14	0.573	9.698	-	PAVEMENT_GENERAL	Urban	F	1011101000011101	0000000000000000	-	car	808.922	764.540	0.000	0.000	180.000	696.000	987.000	-0.000	Terminate	
"Student18Mode2"	"Tanvi_6"	"Feb 14, 2017 09:34:09 AM"	Unknown	36.98407	01/14/0117 09:34.49	00002219	16.955	Inter612t1-0	1.118	1	2	0.000	11.111	-0.6	0.127	0.000	D	F	1858.0	359.656	0.192	0.022	1504.712	937.975	0.026	-	-0.183	0.019	-	-	-	14	0.758	12.850	-	PAVEMENT_GENERAL	Urban	F	1011101000011101	0000000000000000	-	car	807.837	716.489	0.000	0.000	180.000	696.000	987.000	-0.000	Terminate	
"Student18Mode2"	"Tanvi_6"	"Feb 14, 2017 09:34:09 AM"	Unknown	37.98409	01/14/0117 09:34.50	00002279	16.978	Inter612t1-0	1.039	1	2	0.000	11.111	-0.7	0.127	0.000	D	F	1860.0	359.810	0.192	-0.001	1504.632	954.941	0.026	-	0.009	0.024	-	-	-	14	0.942	16.002	-	PAVEMENT_GENERAL	Urban	F	1011101000011101	0000000000000000	-	car	806.908	1107.020	0.000	0.000	180.000	696.000	987.000	-0.000	Terminate	
"Student18Mode2"	"Tanvi_6"	"Feb 14, 2017 09:34:09 AM"	Unknown	38.98411	01/14/0117 09:34.51	00002339	17.001	Inter612t1-0	0.951	1	2	0.000	11.111	-0.8	0.127	0.000	D	F	1862.4	359.580	0.192	0.006	1504.544	971.931	0.026	-	-0.055	0.019	-	-	-	-	-	-	-	PAVEMENT_GENERAL	Urban	F	1011101000011101	0000000000000000	-	car	806.325	1827.067	0.000	0.000	180.000	696.000	987.000	-0.000	Terminate	
"Student18Mode2"	"Tanvi_6"	"Feb 14, 2017 09:34:09 AM"	Unknown	39.98413	01/14/0117 09:34.52	00002399	17.021	Inter612t1-0	0.809	1	2	0.000	11.111	-0.6	0.125	0.000	D	F	1862.3	359.450	0.192	0.004	1504.402	988.942	0.026	-	-0.034	0.014	-	-	-	-	-	-	-	PAVEMENT_GENERAL	Urban	F	1011101000011101	0000000000000000	-	car	806.045	6578.974	0.000	0.000	180.000	696.000	987.000	-0.000	Terminate	
"Student18Mode2"	"Tanvi_6"	"Feb 14, 2017 09:34:09 AM"	Unknown	40.98415	01/14/0117 09:34.53	00002459	17.041	Inter613t1-0	0.630	1	2	0.000	11.111	0.1	0.127	0.000	D	F	1864.8	359.355	0.192	0.001	1504.224	1005.972	0.026	-	-0.006	0.021	-	-	-	-	-	-	-	PAVEMENT_GENERAL	Urban	F	1011101000011101	0000000000000000	-	car	806.087	-3875.965	0.000	0.000	180.000	696.000	987.000	-0.000	Terminate	
"Student18Mode2"	"Tanvi_6"	"Feb 14, 2017 09:34:09 AM"	Unknown	41.98417	01/14/0117 09:34.54	00002519	17.058	Inter613t1-0	0.450	1	2	0.000	11.111	0.6	0.125	0.000	D	F	1866.6	359.461	0.192	-0.005	1504.044	1023.021	0.027	-	0.038	0.014	-	-	-	-	-	-	-	PAVEMENT_GENERAL	Urban	F	1011101000011101	0000000000000000	-	car	806.487	-1345.939	0.000	0.000	180.000	696.000	987.000	-0.000	Terminate	
"Student18Mode2"	"Tanvi_6"	"Feb 14, 2017 09:34:09 AM"	Unknown	42.98419	01/14/0117 09:34.55	00002579	17.072	Inter613t1-0	0.306	1	2	0.000	11.111	0.5	0.129	0.000	D	F	1866.7	359.583	0.192	-0.004	1503.899	1040.086	0.027	-	0.034	0.012	-	-	-	-	-	-	-	PAVEMENT_GENERAL	Urban	F	1011101000011101	0000000000000000	-	car	807.282	-811.109	0.000	0.000	180.000	696.000	987.000	-0.000	Terminate	
"Student18Mode2"	"Tanvi_6"	"Feb 14, 2017 09:34:09 AM"	Unknown	43.98421	01/14/0117 09:34.56	00002639	17.083	Inter613t1-0	0.187	1	2	0.000	11.111	0.8	0.125	0.000	D	F	1865.1	359.660	0.192	-0.006	1503.781	1057.163	0.027	-	0.043	0.009	-	-	-	-	-	-	-	PAVEMENT_GENERAL	Urban	F	1011101000011101	0000000000000000	-	car	808.463	-587.083	0.000	0.000	180.000	696.000	987.000	-0.000	Terminate	
"Student18Mode2"	"Tanvi_6"	"Feb 14, 2017 09:34:09 AM"	Unknown	44.98423	01/14/0117 09:34.57	00002699	17.079	Inter613t1-0	0.104	1	2	0.000	11.111	0.3	0.118	0.000	D	F	1857.6	359.781	0.191	-0.003	1503.698	1074.247	0.027	-	0.022	-0.031	-	-	-	-	-	-	-	PAVEMENT_GENERAL	Urban	F	1011101000011101	0000000000000000	-	car	810.036	-457.814	0.000	0.000	180.000	696.000	987.000	-0.000	Terminate	
"Student18Mode2"	"Tanvi_6"	"Feb 14, 2017 09:34:09 AM"	Unknown	45.98425	01/14/0117 09:34.58	00002759	17.046	Inter613t1-0	0.047	1	2	0.000	11.111	0.3	0.113	0.000	D	F	1849.0	359.846	0.191	-0.002	1503.641	1091.312	0.027	-	0.020	-0.049	-	-	-	-	-	-	-	PAVEMENT_GENERAL	Urban	F	1011101000011101	0000000000000000	-	car	811.990	-379.782	0.000	0.000	180.000	696.000	987.000	-0.000	Terminate	
"Student18Mode2"	"Tanvi_6"	"Feb 14, 2017 09:34:09 AM"	Unknown	46.98427	01/14/0117 09:34.59	00002819	17.012	Inter613t1-0	0.013	1	2	0.000	11.111	2.6	0.120	0.000	D	F	1854.5	0.000	0.192	-0.019	1503.606	1108.339	0.027	-	0.114	-0.018	-	-	-	-	-	-	-	PAVEMENT_GENERAL	Urban	F	1011101000011101	0000000000000000	-	car	814.311	-322.668	0.000	0.000	180.000	696.000	987.000	-0.000	Terminate	
"Student18Mode2"	"Tanvi_6"	"Feb 14, 2017 09:34:09 AM"	Unknown	47.98429	01/14/0117 09:35.00	00002879	16.998	Inter613t1-0	0.062	1	2	0.000	11.111	0.5	0.120	0.000	D	F	1851.7	0.289	0.192	-0.004	1503.656	1125.344	0.027	-	0.033	-0.015	-	-	-	-	-	-	-	PAVEMENT_GENERAL	Urban	F	1011101000011101	0000000000000000	-	car	817.059	-276.563	0.000	0.000	180.000	696.000	987.000	-0.000	Terminate	
"Student18Mode2"	"Tanvi_6"	"Feb 14, 2017 09:34:09 AM"	Unknown	48.98431	01/14/0117 09:35.01	00002939	16.980	Inter613t1-0	0.161	1	2	0.000	11.111	0.5	0.118	0.000	D	F	1847.8	0.388	0.192	-0.004	1503.754	1142.333	0.027	-	0.030	-0.019	-	-	-	-	-	-	-	PAVEMENT_GENERAL	Urban	F	1011101000011101	0000000000000000	-	car	820.194	-247.087	0.000	0.000	180.000	696.000	987.000	-0.000	Terminate	
"Student18Mode2"	"Tanvi_6"	"Feb 14, 2017 09:34:09 AM"	Unknown	49.98433	01/14/0117 09:35.02	00002999	16.958	Inter613t1-0	0.284	1	2	0.000	11.111	-3.0	0.118	0.000	D	F	1847.7	0.374	0.192	0.022	1503.878	1159.301	0.027	-	-0.119	-0.019	-	-	-	-	-	-	-	PAVEMENT_GENERAL	Urban	F	1011101000011101	0000000000000000	-	car	823.688	-225.959	0.000	0.000	180.000	696.000	987.000	-0.000	Terminate	
"Student18Mode2"	"Tanvi_6"	"Feb 14, 2017 09:34:09 AM"	Unknown	50.98435	01/14/0117 09:35.03	00003059	16.945	Inter613t1-0	0.323	1	2	0.000	11.111	-2.2	0.120	0.000	D	F	1849.1	359.873	0.192	0.017	1503.917	1176.252	0.027	-	-0.131	-0.010	-	-	-	-	-	-	-	PAVEMENT_GENERAL	Urban	F	1011101000011101	0000000000000000	-	car	827.427	-216.155	0.000	0.000	180.000	696.000	987.000	-0.000	Terminate	
"Student18Mode2"	"Tanvi_6"	"Feb 14, 2017 09:34:09 AM"	Unknown	51.98437	01/14/0117 09:35.04	00003119	16.943	Inter613t1-0	0.245	1	2	0.000	11.111	0.4	0.123	0.000	D	F	1852.1	359.671	0.192	-0.002	1503.838	1193.195	0.027	-	0.016	-0.000	-	-	-	-	-	-	-	PAVEMENT_GENERAL	Urban	F	1011101000011101	0000000000000000	-	car	831.378	-202.973	0.000	0.000	180.000	696.000	987.000	-0.000	Terminate	
"Student18Mode2"	"Tanvi_6"	"Feb 14, 2017 09:34:09 AM"	Unknown	52.98439	01/14/0117 09:35.05	00003179	16.941	Inter615t9-0	0.158	1	2	0.000	11.111	0.2	0.120	0.000	D	F	1849.3	359.741	0.192	-0.002	1503.751	1210.137	0.027	-	0.013	-0.007	-	-	-	-	-	-	-	PAVEMENT_GENERAL	Urban	F	1111101000011101	0000000000000000	-	car	835.645	-188.342	0.000	0.000	180.000	696.000	987.000	-0.000	Terminate	
"Student18Mode2"	"Tanvi_6"	"Feb 14, 2017 09:34:09 AM"	Unknown	53.98441	01/14/0117 09:35.06	00003239	16.934	Inter615t33-0	0.075	1	1	0.092	11.111	0.1	0.116	0.000	D	F	1847.6	359.785	0.192	-0.002	1503.679	1227.075	0.027	-	0.015	-0.008	-	-	-	22	2.808	47.547	2.808	PAVEMENT_GENERAL	Urban	F	1011101000011101	0000000000000000	-	car	840.245	-176.374	0.000	0.000	180.000	696.000	987.000	-0.000	Terminate	
"Student18Mode2"	"Tanvi_6"	"Feb 14, 2017 09:34:09 AM"	Unknown	54.98443	01/14/0117 09:35.07	00003299	16.471	Inter615t31-0	1.580	1	1	355.815	11.111	-49.8	0.000	0.000	D	F	1614.7	354.615	0.173	0.437	1503.248	1243.836	0.031	-	-3.104	-0.656	-	-	-	22	1.877	30.908	1.877	PAVEMENT_GENERAL	Urban	F	1011101000011101	0000000000000000	-	car	844.762	-241.439	0.000	0.000	180.000	696.000	987.000	-0.000	Terminate	
"Student18Mode2"	"Tanvi_6"	"Feb 14, 2017 09:34:09 AM"	Unknown	55.98445	01/14/0117 09:35.08	00003359	15.770	Inter615t31-0	0.519	1	1	356.903	11.111	42.8	0.000	0.084	D	F	1533.6	352.199	0.158	-0.285	1500.999	1259.822	0.030	-	1.918	-1.519	-	-	-	22	0.935	14.744	0.935	PAVEMENT_GENERAL	Urban	F	1011101000011101	0000000000000000	-	car	847.614	-283.691	0.000	0.000	180.000	696.000	987.000	-0.000	Terminate	
"Student18Mode2"	"Tanvi_6"	"Feb 14, 2017 09:34:09 AM"	Unknown	56.98447	01/14/0117 09:35.09	00003419	11.895	Inter615t11-0	0.158	LT1	2	0.000	11.111	-18.0	0.000	0.463	D	F	1096.6	1.460	-0.068	0.007	1500.220	1274.022	0.040	-	0.387	-5.774	-	-	-	22	0.042	0.505	0.042	PAVEMENT_GENERAL	Urban	F	1011101000011101	0000000000000000	-	car	851.545	-198.849	0.000	0.000	180.000	696.000	987.000	-0.000	Terminate	
"Student18Mode2"	"Tanvi_6"	"Feb 14, 2017 09:34:09 AM"	Unknown	57.98449	01/14/0117 09:35.10	00003479	8.313	Inter615t65-0	0.288	1	1	352.271	11.111	-14.5	0.000	0.000	D	F	818.2	358.984	0.235	0.054	1500.233	1283.672	0.029	-	-0.358	-0.485	22	181.0	-8.292	25	4.506	37.463	19.929	PAVEMENT_GENERAL	Urban	F	1011101000011101	0000000000000000	-	car	854.848	-312.176	0.000	0.000	180.000	696.000	987.000	-0.000	Terminate	
"Student18Mode2"	"Tanvi_6"	"Feb 14, 2017 09:34:09 AM"	Unknown	58.98451	01/14/0117 09:35.11	00003539	7.837	-Inter615t61-0	1.079	-1	1	89.733	11.111	-17.4	0.000	0.000	D	F	770.3	356.356	0.196	0.046	1499.860	1291.736	0.028	-	-0.364	-0.475	-	-	-	25	5.010	39.266	-	PAVEMENT_GENERAL	Urban	F	1011101000011101	0000000000000000	-	car	857.324	-371.679	0.000	0.000	180.000	696.000	987.000	-0.000	Terminate	
"Student18Mode2"	"Tanvi_6"	"Feb 14, 2017 09:34:09 AM"	Unknown	59.98453	01/14/0117 09:35.12	00003599	7.349	-	-	INT	0	-	-	-98.1	0.000	0.000	D	F	723.0	350.934	0.187	0.269	1499.014	1299.283	0.029	-	-1.939	-0.574	-	-	-	-	-	-	-	PAVEMENT_GENERAL	Urban	F	1011101000011101	0000000000000000	-	car	859.239	-553.927	0.000	0.000	180.000	696.000	987.000	-0.000	Terminate	
"Student18Mode2"	"Tanvi_6"	"Feb 14, 2017 09:34:09 AM"	Unknown	60.98455	01/14/0117 09:35.13	00003659	6.685	Inter615t77-0	-1.527	1	1	269.734	11.111	-259.5	0.000	0.000	D	F	665.4	326.024	0.143	0.551	1496.235	1305.672	0.032	-	-4.075	-1.020	-	-	-	-	-	-	-	PAVEMENT_GENERAL	Urban	F	1011101000011101	0000000000000000	-	car	858.993	605.011	0.000	0.000	180.000	696.000	987.000	-0.000	Terminate	
"Student18Mode2"	"Tanvi_6"	"Feb 14, 2017 09:34:09 AM"	Unknown	61.98457	01/14/0117 09:35.14	00003719	6.024	-	-	INT	0	-	-	-275.7	0.000	0.000	D	F	604.8	291.094	0.125	0.478	1490.947	1309.042	0.032	-	-3.542	-0.966	-	-	-	-	-	-	-	PAVEMENT_GENERAL	Urban	F	1011101000011101	0000000000000000	-	car	855.342	194.612	0.000	0.000	180.000	696.000	987.000	-0.000	Terminate	
"Student18Mode2"	"Tanvi_6"	"Feb 14, 2017 09:34:09 AM"	Unknown	62.98459	01/14/0117 09:35.15	00003779	5.600	Inter615t87-0	1.352	1	1	244.908	11.111	-68.5	0.000	0.000	D	F	551.5	270.077	0.195	0.049	1485.152	1309.438	0.028	-	-0.554	-0.474	-	-	-	-	-	-	-	PAVEMENT_GENERAL	Urban	F	1011101000011101	0000000000000000	-	car	850.124	164.075	0.000	0.000	180.000	696.000	987.000	-0.000	Terminate	
"Student18Mode2"	"Tanvi_6"	"Feb 14, 2017 09:34:09 AM"	Unknown	63.98461	01/14/0117 09:35.16	00003839	5.145	-	-	SH	2	-	-	-18.7	0.000	0.000	D	F	505.7	265.901	0.198	0.019	1479.788	1309.113	0.028	-	-0.140	-0.460	-	-	-	-	-	-	-	PAVEMENT_GENERAL	Urban	F	1011101000011101	0000000000000000	-	car	845.037	172.947	0.000	0.000	180.000	696.000	987.000	-0.000	Terminate	
"Student18Mode2"	"Tanvi_6"	"Feb 14, 2017 09:34:09 AM"	Unknown	64.98463	01/14/0117 09:35.17	00003899	4.987	Inter615t3-4	1.554	2	2	270.000	11.111	2.6	0.229	0.000	D	F	1667.0	265.030	0.259	-0.005	1474.867	1308.684	0.024	-	0.040	1.824	-	-	-	-	-	-	-	PAVEMENT_GENERAL	Urban	F	1011101000011101	0000000000000000	-	car	840.323	176.642	0.000	0.000	180.000	696.000	987.000	-0.000	Terminate	
"Student18Mode2"	"Tanvi_6"	"Feb 14, 2017 09:34:09 AM"	Unknown	65.98465	01/14/0117 09:35.18	00003959	6.840	Inter615t3-4	1.129	2	2	270.000	11.111	16.6	0.217	0.000	D	F	1751.9	266.473	0.221	-0.035	1468.933	1308.260	0.018	-	0.260	1.681	-	-	-	-	-	-	-	PAVEMENT_GENERAL	Urban	F	1011101000011101	0000000000000000	-	car	834.679	129.089	0.000	0.000	180.000	696.000	987.000	-0.000	Terminate	
"Student18Mode2"	"Tanvi_6"	"Feb 14, 2017 09:34:09 AM"	Unknown	66.98467	01/14/0117 09:35.19	00004019	8.443	Inter615t17-0	0.824	1	1	270.080	11.111	5.2	0.226	0.000	D	F	1863.2	268.238	0.215	-0.012	1461.279	1307.961	0.019	-	0.115	1.489	-	-	-	-	-	-	-	PAVEMENT_GENERAL	Urban	F	1011101000011101	0000000000000000	-	car	827.501	104.979	0.000	0.000	180.000	696.000	987.000	-0.000	Terminate	
"Student18Mode2"	"Tanvi_6"	"Feb 14, 2017 09:34:09 AM"	Unknown	67.98470	01/14/0117 09:35.20	00004079	9.811	Inter615t17-0	0.598	1	1	270.108	11.111	3.8	0.226	0.000	D	F	1960.5	268.904	0.212	-0.014	1452.137	1307.745	0.020	-	0.108	1.263	-	-	-	-	-	-	-	PAVEMENT_GENERAL	Urban	F	1011101000011101	0000000000000000	-	car	818.993	89.963	0.000	0.000	180.000	696.000	987.000	-0.000	Terminate	
"Student18Mode2"	"Tanvi_6"	"Feb 14, 2017 09:34:09 AM"	Unknown	68.98471	01/14/0117 09:35.21	00004139	10.981	Inter615t17-0	0.432	1	1	270.086	11.111	2.3	0.224	0.000	D	F	2043.1	269.371	0.209	-0.010	1441.727	1307.598	0.021	-	0.079	1.091	-	-	-	-	-	-	-	PAVEMENT_GENERAL	Urban	F	1011101000011101	0000000000000000	-	car	809.362	79.854	0.000	0.000	180.000	696.000	987.000	-0.000	Terminate	
"Student18Mode2"	"Tanvi_6"	"Feb 14, 2017 09:34:09 AM"	Unknown	69.98473	01/14/0117 09:35.22	00004199	12.012	Inter615t17-0	0.332	1	1	270.061	11.111	2.3	0.233	0.000	D	F	2156.8	269.804	0.208	-0.012	1430.224	1307.518	0.022	-	0.090	1.012	-	-	-	-	-	-	-	PAVEMENT_GENERAL	Urban	F	1011101000011101	0000000000000000	-	car	798.775	72.452	0.000	0.000	180.000	696.000	987.000	-0.000	Terminate	
"Student18Mode2"	"Tanvi_6"	"Feb 14, 2017 09:34:09 AM"	Unknown	70.98476	01/14/0117 09:35.23	00004259	13.019	Inter615t17-0	0.325	1	1	270.061	11.111	1.9	0.242	0.000	D	F	2283.3	270.244	0.206	-0.011	1417.704	1307.524	0.022	-	0.089	0.985	-	-	-	-	-	-	-	PAVEMENT_GENERAL	Urban	F	1011101000011101	0000000000000000	-	car	787.320	66.294	0.000	0.000	180.000	696.000	987.000	-0.000	Terminate	
"Student18Mode2"	"Tanvi_6"	"Feb 14, 2017 09:34:09 AM"	Unknown	71.98477	01/14/0117 09:35.24	00004319	13.952	Inter615t1-3	0.399	2	2	270.000	11.111	-0.3	0.224	0.000	D	F	2389.6	270.319	0.204	0.001	1404.210	1307.599	0.022	-	-0.011	0.881	-	-	-	-	-	-	-	PAVEMENT_GENERAL	Urban	F	1011101000011101	0000000000000000	-	car	775.037	61.134	0.000	0.000	180.000	696.000	987.000	-0.000	Terminate	
"Student18Mode2"	"Tanvi_6"	"Feb 14, 2017 09:34:09 AM"	Unknown	72.98479	01/14/0117 09:35.25	00004379	14.612	Inter616t1-3	0.452	2	2	270.000	11.111	-1.4	0.166	0.000	D	F	1797.8	270.125	0.195	0.009	1389.876	1307.659	0.024	-	-0.069	0.342	-	-	-	-	-	-	-	PAVEMENT_GENERAL	Urban	F	1011101000011101	0000000000000000	-	car	762.027	57.508	0.000	0.000	180.000	696.000	987.000	-0.000	Terminate	
"Student18Mode2"	"Tanvi_6"	"Feb 14, 2017 09:34:09 AM"	Unknown	73.98481	01/14/0117 09:35.26	00004439	14.992	Inter616t1-3	0.432	2	2	270.000	11.111	-3.4	0.182	0.000	D	F	1836.4	269.558	0.199	0.025	1375.079	1307.639	0.025	-	-0.203	0.381	-	-	-	-	-	-	-	PAVEMENT_GENERAL	Urban	F	1011101000011101	0000000000000000	-	car	748.612	55.022	0.000	0.000	180.000	696.000	987.000	-0.000	Terminate	
"Student18Mode2"	"Tanvi_6"	"Feb 14, 2017 09:34:09 AM"	Unknown	74.98483	01/14/0117 09:35.27	00004499	15.358	Inter616t1-3	0.237	2	2	270.000	11.111	-2.2	0.171	0.000	D	F	1827.8	268.974	0.197	0.015	1359.903	1307.444	0.025	-	-0.122	0.319	-	-	-	-	-	-	-	PAVEMENT_GENERAL	Urban	F	1011101000011101	0000000000000000	-	car	734.832	52.682	0.000	0.000	180.000	696.000	987.000	-0.000	Terminate	
"Student18Mode2"	"Tanvi_6"	"Feb 14, 2017 09:34:09 AM"	Unknown	75.98486	01/14/0117 09:35.28	00004559	15.745	Inter616t1-3	-0.094	2	2	270.000	11.111	-2.2	0.183	0.000	D	F	1880.2	268.547	0.197	0.015	1344.369	1307.112	0.025	-	-0.118	0.359	-	-	-	-	-	-	-	PAVEMENT_GENERAL	Urban	F	1011101000011101	0000000000000000	-	car	720.727	50.435	0.000	0.000	180.000	696.000	987.000	-0.000	Terminate	
"Student18Mode2"	"Tanvi_6"	"Feb 14, 2017 09:34:09 AM"	Unknown	76.98487	01/14/0117 09:35.29	00004619	16.039	Inter616t1-3	-0.543	2	2	270.000	11.111	8.2	0.169	0.000	D	F	1870.1	268.348	0.196	-0.039	1328.479	1306.664	0.025	-	0.249	0.281	-	-	-	-	-	-	-	PAVEMENT_GENERAL	Urban	F	1011101000011101	0000000000000000	-	car	706.311	48.652	0.000	0.000	180.000	696.000	987.000	-0.000	Terminate	
"Student18Mode2"	"Tanvi_6"	"Feb 14, 2017 09:34:09 AM"	Unknown	77.98489	01/14/0117 09:35.30	00004679	16.247	Inter616t1-3	-0.763	2	2	270.000	11.111	2.7	0.159	0.000	D	F	1857.0	270.110	0.194	-0.036	1312.328	1306.444	0.026	-	0.289	0.187	-	-	-	-	-	-	-	PAVEMENT_GENERAL	Urban	F	1011101000011101	0000000000000000	-	car	691.834	48.009	0.000	0.000	180.000	696.000	987.000	-0.000	Terminate	
"Student18Mode2"	"Tanvi_6"	"Feb 14, 2017 09:34:09 AM"	Unknown	78.98492	01/14/0117 09:35.31	00004739	16.423	Inter616t1-3	-0.685	2	2	270.000	11.111	1.8	0.153	0.000	D	F	1868.2	270.483	0.195	-0.013	1295.991	1306.522	0.026	-	0.102	0.170	-	-	-	-	-	-	-	PAVEMENT_GENERAL	Urban	F	1011101000011101	0000000000000000	-	car	677.408	46.943	0.000	0.000	180.000	696.000	987.000	-0.000	Terminate	
"Student18Mode2"	"Tanvi_6"	"Feb 14, 2017 09:34:09 AM"	Unknown	79.98493	01/14/0117 09:35.32	00004799	16.595	Inter616t1-3	-0.508	2	2	270.000	11.111	1.0	0.153	0.000	D	F	1873.1	270.739	0.194	-0.008	1279.482	1306.699	0.026	-	0.061	0.149	-	-	-	-	-	-	-	PAVEMENT_GENERAL	Urban	F	1011101000011101	0000000000000000	-	car	662.967	45.881	0.000	0.000	180.000	696.000	987.000	-0.000	Terminate	
"Student18Mode2"	"Tanvi_6"	"Feb 14, 2017 09:34:09 AM"	Unknown	80.98495	01/14/0117 09:35.33	00004859	16.688	Inter616t1-3	-0.289	2	2	270.000	11.111	-0.2	0.138	0.000	D	F	1856.3	270.732	0.194	0.001	1262.841	1306.918	0.026	-	-0.016	0.107	-	-	-	-	-	-	-	PAVEMENT_GENERAL	Urban	F	1011101000011101	0000000000000000	-	car	648.529	44.953	0.000	0.000	180.000	696.000	987.000	-0.000	Terminate	
"Student18Mode2"	"Tanvi_6"	"Feb 14, 2017 09:34:09 AM"	Unknown	81.98497	01/14/0117 09:35.34	00004919	16.777	Inter616t1-3	-0.090	2	2	270.000	11.111	-2.9	0.131	0.000	D	F	1845.9	270.515	0.193	0.020	1246.108	1307.117	0.026	-	-0.148	0.064	-	-	-	-	-	-	-	PAVEMENT_GENERAL	Urban	F	1011101000011101	0000000000000000	-	car	634.110	43.961	0.000	0.000	180.000	696.000	987.000	-0.000	Terminate	
"Student18Mode2"	"Tanvi_6"	"Feb 14, 2017 09:34:09 AM"	Unknown	82.98499	01/14/0117 09:35.35	00004979	16.839	Inter616t1-3	-0.010	2	2	270.000	11.111	-2.5	0.131	0.000	D	F	1854.5	269.987	0.192	0.019	1229.300	1307.197	0.026	-	-0.149	0.055	-	-	-	-	-	-	-	PAVEMENT_GENERAL	Urban	F	1011101000011101	0000000000000000	-	car	619.682	42.919	0.000	0.000	180.000	696.000	987.000	-0.000	Terminate	
"Student18Mode2"	"Tanvi_6"	"Feb 14, 2017 09:34:09 AM"	Unknown	83.98502	01/14/0117 09:35.36	00005039	16.824	Inter616t1-3	-0.080	2	2	270.000	11.111	-2.5	0.102	0.000	D	F	1814.6	269.475	0.191	0.020	1212.453	1307.126	0.027	-	-0.150	-0.084	-	-	-	-	-	-	-	PAVEMENT_GENERAL	Urban	F	1011101000011101	0000000000000000	-	car	605.262	42.090	0.000	0.000	180.000	696.000	987.000	-0.000	Terminate	
"Student18Mode2"	"Tanvi_6"	"Feb 14, 2017 09:34:09 AM"	Unknown	84.98503	01/14/0117 09:35.37	00005099	16.771	Inter617t1-3	-0.290	2	2	270.000	11.111	1.1	0.111	0.000	D	F	1824.1	269.090	0.192	0.001	1195.659	1306.917	0.027	-	-0.018	-0.043	-	-	-	-	-	-	-	PAVEMENT_GENERAL	Urban	F	1011101000011101	0000000000000000	-	car	590.941	41.424	0.000	0.000	180.000	696.000	987.000	-0.000	Terminate	
"Student18Mode2"	"Tanvi_6"	"Feb 14, 2017 09:34:09 AM"	Unknown	85.98505	01/14/0117 09:35.38	00005159	16.725	Inter617t1-3	-0.492	2	2	270.000	11.111	3.3	0.109	0.000	D	F	1815.4	269.646	0.192	-0.025	1178.911	1306.714	0.027	-	0.196	-0.057	-	-	-	-	-	-	-	PAVEMENT_GENERAL	Urban	F	1011101000011101	0000000000000000	-	car	576.795	41.193	0.000	0.000	180.000	696.000	987.000	-0.000	Terminate	
"Student18Mode2"	"Tanvi_6"	"Feb 14, 2017 09:34:09 AM"	Unknown	86.98507	01/14/0117 09:35.39	00005219	16.656	Inter617t1-3	-0.497	2	2	270.000	11.111	4.0	0.104	0.000	D	F	1797.0	270.432	0.192	-0.031	1162.219	1306.710	0.027	-	0.239	-0.081	-	-	-	-	-	-	-	PAVEMENT_GENERAL	Urban	F	1011101000011101	0000000000000000	-	car	562.950	41.198	0.000	0.000	180.000	696.000	987.000	-0.000	Terminate	
"Student18Mode2"	"Tanvi_6"	"Feb 14, 2017 09:34:09 AM"	Unknown	87.98509	01/14/0117 09:35.40	00005279	16.559	Inter617t1-3	-0.282	2	2	270.000	11.111	1.8	0.097	0.000	D	F	1782.7	271.055	0.192	-0.015	1145.611	1306.925	0.027	-	0.124	-0.111	-	-	-	-	-	-	-	PAVEMENT_GENERAL	Urban	F	1011101000011101	0000000000000000	-	car	549.457	41.274	0.000	0.000	180.000	696.000	987.000	-0.000	Terminate	
"Student18Mode2"	"Tanvi_6"	"Feb 14, 2017 09:34:09 AM"	Unknown	88.98512	01/14/0117 09:35.41	00005339	16.458	Inter617t1-3	0.027	2	2	270.000	11.111	-0.8	0.097	0.000	D	F	1777.9	270.992	0.192	0.006	1129.107	1307.233	0.027	-	-0.056	-0.083	-	-	-	-	-	-	-	PAVEMENT_GENERAL	Urban	F	1011101000011101	0000000000000000	-	car	536.279	41.057	0.000	0.000	180.000	696.000	987.000	-0.000	Terminate	
"Student18Mode2"	"Tanvi_6"	"Feb 14, 2017 09:34:09 AM"	Unknown	89.98513	01/14/0117 09:35.42	00005399	16.370	Inter617t1-3	0.270	2	2	270.000	11.111	-2.1	0.101	0.000	D	F	1769.2	270.615	0.192	0.017	1112.695	1307.476	0.027	-	-0.131	-0.091	-	-	-	-	-	-	-	PAVEMENT_GENERAL	Urban	F	1011101000011101	0000000000000000	-	car	523.321	40.667	0.000	0.000	180.000	696.000	987.000	-0.000	Terminate	
"Student18Mode2"	"Tanvi_6"	"Feb 14, 2017 09:34:09 AM"	Unknown	90.98515	01/14/0117 09:35.43	00005459	16.241	Inter617t1-3	0.407	2	2	270.000	11.111	-0.1	0.071	0.000	D	F	1705.9	270.381	0.190	0.002	1096.382	1307.614	0.027	-	-0.020	-0.195	-	-	-	-	-	-	-	PAVEMENT_GENERAL	Urban	F	1011101000011101	0000000000000000	-	car	510.572	40.491	0.000	0.000	180.000	696.000	987.000	-0.000	Terminate	
"Student18Mode2"	"Tanvi_6"	"Feb 14, 2017 09:34:09 AM"	Unknown	91.98518	01/14/0117 09:35.44	00005519	15.796	Inter617t1-3	0.514	2	2	270.000	11.111	0.3	0.007	0.000	D	F	1551.8	270.401	0.187	-0.002	1080.330	1307.721	0.029	-	0.018	-0.562	-	-	-	-	-	-	-	PAVEMENT_GENERAL	Urban	F	1011101000011101	0000000000000000	-	car	498.211	41.322	0.000	0.000	180.000	696.000	987.000	-0.000	Terminate	
"Student18Mode2"	"Tanvi_6"	"Feb 14, 2017 09:34:09 AM"	Unknown	92.98519	01/14/0117 09:35.45	00005579	15.235	Inter617t1-3	0.635	2	2	270.000	11.111	0.5	0.000	0.000	D	F	1496.0	270.520	0.189	-0.005	1064.809	1307.842	0.029	-	0.036	-0.579	-	-	-	-	-	-	-	PAVEMENT_GENERAL	Urban	F	1011101000011101	0000000000000000	-	car	486.475	42.663	0.000	0.000	180.000	696.000	987.000	-0.000	Terminate	
"Student18Mode2"	"Tanvi_6"	"Feb 14, 2017 09:34:09 AM"	Unknown	93.98521	01/14/0117 09:35.46	00005639	14.660	Inter617t1-3	0.784	2	2	270.000	11.111	-0.7	0.000	0.000	D	F	1439.7	270.628	0.189	0.002	1049.863	1307.991	0.029	-	-0.007	-0.570	-	-	-	-	-	-	-	PAVEMENT_GENERAL	Urban	F	1011101000011101	0000000000000000	-	car	475.400	44.224	0.000	0.000	180.000	696.000	987.000	-0.000	Terminate	
"Student18Mode2"	"Tanvi_6"	"Feb 14, 2017 09:34:09 AM"	Unknown	94.98523	01/14/0117 09:35.47	00005699	13.296	Inter617t1-3	0.911	2	2	270.000	11.111	-2.2	0.000	0.116	D	F	1285.4	270.315	0.166	0.015	1035.725	1308.118	0.032	-	-0.107	-1.954	-	-	-	-	-	-	-	PAVEMENT_GENERAL	Urban	F	1011101000011101	0000000000000000	-	car	465.112	48.390	0.000	0.000	180.000	696.000	987.000	-0.000	Terminate	
"Student18Mode2"	"Tanvi_6"	"Feb 14, 2017 09:34:09 AM"	Unknown	95.98525	01/14/0117 09:35.48	00005759	9.349	Inter617t1-3	0.933	2	2	270.000	11.111	-2.3	0.000	0.436	D	F	864.8	269.855	0.025	0.012	1024.064	1308.140	0.039	-	-0.076	-5.455	-	-	-	-	-	-	-	PAVEMENT_GENERAL	Urban	F	1011101000011101	0000000000000000	-	car	456.723	68.191	0.000	0.000	180.000	696.000	987.000	-0.000	Terminate	
"Student18Mode2"	"Tanvi_6"	"Feb 14, 2017 09:34:09 AM"	Unknown	96.98528	01/14/0117 09:35.49	00005819	4.298	Inter617t1-3	0.897	2	2	270.000	11.111	-2.2	0.000	0.242	D	F	477.5	269.569	0.145	0.002	1017.357	1308.103	0.038	-	-0.015	-3.624	-	-	-	-	-	-	-	PAVEMENT_GENERAL	Urban	F	1011101000011101	0000000000000000	-	car	451.928	147.553	0.000	0.000	180.000	696.000	987.000	-0.000	Terminate	
"Student18Mode2"	"Tanvi_6"	"Feb 14, 2017 09:34:09 AM"	Unknown	97.98529	01/14/0117 09:35.50	00005879	4.598	Inter617t1-3	0.863	2	2	270.000	11.111	0.6	0.422	0.000	D	F	1909.8	269.530	0.199	-0.000	1013.444	1308.070	0.013	-	0.003	3.399	-	-	-	-	-	-	-	PAVEMENT_GENERAL	Urban	F	1011101000011101	0000000000000000	-	car	449.145	137.790	0.000	0.000	180.000	696.000	987.000	-0.000	Terminate	
"Student18Mode2"	"Tanvi_6"	"Feb 14, 2017 09:34:09 AM"	Unknown	98.98531	01/14/0117 09:35.51	00005939	6.178	Inter617t1-3	0.822	2	2	270.000	11.111	0.9	0.217	0.000	D	F	1774.3	269.610	0.276	-0.002	1007.762	1308.029	0.022	-	0.014	2.123	-	-	-	-	-	-	-	PAVEMENT_GENERAL	Urban	F	1011101000011101	0000000000000000	-	car	445.139	102.701	0.000	0.000	180.000	696.000	987.000	-0.000	Terminate	
"Student18Mode2"	"Tanvi_6"	"Feb 14, 2017 09:34:09 AM"	Unknown	99.98534	01/14/0117 09:35.52	00005999	7.957	Inter617t1-3	0.782	2	2	270.000	11.111	0.6	0.284	0.000	D	F	1885.3	269.709	0.217	-0.001	1000.708	1307.989	0.018	-	0.012	1.775	-	-	-	31	3.206	25.514	-	PAVEMENT_GENERAL	Urban	F	1011101000011101	0000000000000000	-	car	440.225	79.929	0.000	0.000	180.000	696.000	987.000	-0.000	Terminate	
"Student18Mode2"	"Tanvi_6"	"Feb 14, 2017 09:34:09 AM"	Unknown	100.98535	01/14/0117 09:35.53	00006059	9.536	Inter618t1-1	0.054	2	2	269.990	24.444	0.5	0.268	0.000	D	F	1978.2	269.802	0.329	-0.046	991.934	1307.954	0.025	-	0.005	1.445	-	-	-	31	3.228	30.785	-	FREEWAY_SMOOTH	Urban	F	1011101000011101	0000000000000000	-	car	434.204	66.917	0.000	0.000	180.000	696.000	987.000	-0.000	Terminate	
"Student18Mode2"	"Tanvi_6"	"Feb 14, 2017 09:34:09 AM"	Unknown	101.98537	01/14/0117 09:35.54	00006119	10.900	Inter618t1-1	0.037	2	2	269.811	24.444	-0.3	0.279	0.000	D	F	2094.3	269.854	0.318	-0.188	981.704	1307.923	0.045	-	-0.016	1.311	-	-	-	31	3.140	34.227	-	FREEWAY_SMOOTH	Urban	F	1011101000011101	0000000000000000	-	car	427.313	58.790	0.000	0.000	180.000	696.000	987.000	-0.000	Terminate	
"Student18Mode2"	"Tanvi_6"	"Feb 14, 2017 09:34:09 AM"	Unknown	102.98539	01/14/0117 09:35.55	00006179	12.127	Inter618t1-1	0.068	2	2	269.369	24.444	-1.8	0.272	0.000	D	F	2202.6	269.717	0.325	-0.338	970.180	1307.878	0.068	-	-0.077	1.158	-	-	-	31	3.138	38.056	-	FREEWAY_SMOOTH	Urban	F	1011101000011101	0000000000000000	-	car	419.703	52.970	0.000	0.000	180.000	696.000	987.000	-0.000	Terminate	
"Student18Mode2"	"Tanvi_6"	"Feb 14, 2017 09:34:09 AM"	Unknown	103.98541	01/14/0117 09:35.56	00006239	13.245	Inter618t1-1	0.167	2	2	268.582	24.444	-1.9	0.266	0.000	D	F	2331.3	269.284	0.320	-0.511	957.488	1307.759	0.093	-	-0.113	1.085	-	-	-	31	3.169	41.977	-	FREEWAY_SMOOTH	Urban	F	1111101000011101	0000000000000000	-	car	411.479	48.430	0.000	0.000	180.000	696.000	987.000	-0.000	Terminate	
"Student18Mode2"	"Tanvi_6"	"Feb 14, 2017 09:34:09 AM"	Unknown	104.98544	01/14/0117 09:35.57	00006299	14.286	Inter618t1-1	0.373	2	2	267.370	24.444	-5.8	0.256	0.000	D	F	2457.5	268.463	0.330	-0.675	943.717	1307.492	0.122	-	-0.303	1.002	-	-	-	31	3.178	45.395	-	FREEWAY_SMOOTH	Urban	F	1011101000011101	0000000000000000	-	car	402.707	44.563	0.000	0.000	180.000	696.000	987.000	-0.000	Terminate	
"Student18Mode2"	"Tanvi_6"	"Feb 14, 2017 09:34:09 AM"	Unknown	105.98545	01/14/0117 09:35.58	00006359	15.232	Inter618t1-1	0.658	2	2	265.680	24.444	-11.2	0.222	0.000	D	F	2266.4	266.889	0.341	-0.843	928.967	1306.899	0.156	-	-0.572	0.930	-	-	-	31	3.170	48.281	-	FREEWAY_SMOOTH	Urban	F	1011101000011101	0000000000000000	-	car	393.379	40.883	0.000	0.000	180.000	696.000	987.000	-0.000	Terminate	
"Student18Mode2"	"Tanvi_6"	"Feb 14, 2017 09:34:09 AM"	Unknown	106.98547	01/14/0117 09:35.59	00006419	15.851	Inter618t1-1	0.880	2	2	263.430	24.444	-16.1	0.212	0.000	D	F	1960.0	263.823	0.325	-1.007	913.457	1305.666	0.194	-	-0.974	0.548	-	-	-	31	3.177	50.363	-	FREEWAY_SMOOTH	Urban	F	1011101000011101	0000000000000000	-	car	383.433	37.256	0.000	0.000	180.000	696.000	987.000	-0.000	Terminate	
"Student18Mode2"	"Tanvi_6"	"Feb 14, 2017 09:34:09 AM"	Unknown	107.98550	01/14/0117 09:36.00	00006479	16.113	Inter618t1-1	0.839	2	2	260.654	24.444	-16.3	0.115	0.000	D	F	1763.9	260.001	0.296	-1.208	897.584	1303.436	0.228	-	-1.137	0.013	-	-	-	31	3.208	51.696	-	FREEWAY_SMOOTH	Urban	F	1011101000011101	0000000000000000	-	car	372.831	34.251	0.000	0.000	180.000	696.000	987.000	-0.000	Terminate	
"Student18Mode2"	"Tanvi_6"	"Feb 14, 2017 09:34:09 AM"	Unknown	108.98551	01/14/0117 09:36.01	00006539	16.099	Inter618t1-1	0.541	2	2	257.405	24.444	-13.9	0.111	0.000	D	F	1763.3	256.155	0.282	-1.447	881.827	1300.114	0.253	-	-1.009	0.001	-	-	-	31	3.323	53.492	-	FREEWAY_SMOOTH	Urban	F	1011101000011101	0000000000000000	-	car	361.745	32.040	0.000	0.000	180.000	696.000	987.000	-0.000	Terminate	
"Student18Mode2"	"Tanvi_6"	"Feb 14, 2017 09:34:09 AM"	Unknown	109.98553	01/14/0117 09:36.02	00006599	16.086	Inter618t1-1	0.227	2	2	253.670	24.444	-9.5	0.111	0.000	D	F	1760.2	253.162	0.151	-1.674	866.316	1295.828	0.272	-	-0.685	-0.038	-	-	-	31	3.438	55.305	-	FREEWAY_SMOOTH	Urban	F	1011101000011101	0000000000000000	-	car	350.320	30.421	0.000	0.000	180.000	696.000	987.000	-0.000	Terminate	
"Student18Mode2"	"Tanvi_6"	"Feb 14, 2017 09:34:09 AM"	Unknown	110.98555	01/14/0117 09:36.03	00006659	16.052	Inter618t1-1	0.237	2	2	249.797	24.444	-11.8	0.102	0.000	D	F	1749.2	250.610	0.213	-1.656	851.042	1290.831	0.271	-	-0.779	-0.044	-	-	-	31	3.561	57.162	-	FREEWAY_SMOOTH	Urban	F	1011101000011101	0000000000000000	-	car	338.744	29.129	0.000	0.000	180.000	696.000	987.000	-0.000	Terminate	
"Student18Mode2"	"Tanvi_6"	"Feb 14, 2017 09:34:09 AM"	Unknown	111.98557	01/14/0117 09:36.04	00006719	15.985	Inter618t1-1	0.509	2	2	245.989	24.444	-19.1	0.097	0.000	D	F	1734.1	247.081	0.215	-1.591	836.091	1285.079	0.279	-	-1.232	-0.080	-	-	-	31	3.709	59.283	-	FREEWAY_SMOOTH	Urban	F	1011101000011101	0000000000000000	-	car	326.999	27.488	0.000	0.000	180.000	696.000	987.000	-0.000	Terminate	
"Student18Mode2"	"Tanvi_6"	"Feb 14, 2017 09:34:09 AM"	Unknown	112.98560	01/14/0117 09:36.05	00006779	15.896	Inter618t1-1	0.665	2	2	242.145	24.444	-19.3	0.097	0.000	D	F	1725.6	242.197	0.184	-1.579	821.683	1278.272	0.284	-	-1.362	-0.081	-	-	-	31	3.822	60.763	-	FREEWAY_SMOOTH	Urban	F	1011101000011101	0000000000000000	-	car	314.872	25.436	0.000	0.000	180.000	696.000	987.000	-0.000	Terminate	
"Student18Mode2"	"Tanvi_6"	"Feb 14, 2017 09:34:09 AM"	Unknown	113.98561	01/14/0117 09:36.07	00006839	15.808	Inter618t1-1	0.546	2	2	238.297	24.444	-13.5	0.095	0.000	D	F	1714.0	237.690	0.169	-1.625	807.971	1270.324	0.281	-	-1.039	-0.089	-	-	-	31	3.968	62.733	-	FREEWAY_SMOOTH	Urban	F	1011101000011101	0000000000000000	-	car	302.288	23.674	0.000	0.000	180.000	696.000	987.000	-0.000	Terminate	
"Student18Mode2"	"Tanvi_6"	"Feb 14, 2017 09:34:09 AM"	Unknown	114.98563	01/14/0117 09:36.08	00006899	15.716	Inter618t1-1	0.391	2	2	234.535	24.444	-15.0	0.093	0.000	D	F	1704.5	234.203	0.182	-1.626	794.910	1261.503	0.276	-	-1.008	-0.089	-	-	-	31	4.138	65.036	-	FREEWAY_SMOOTH	Urban	F	1011101000011101	0000000000000000	-	car	289.419	22.316	0.000	0.000	180.000	696.000	987.000	-0.000	Terminate	
"Student18Mode2"	"Tanvi_6"	"Feb 14, 2017 09:34:09 AM"	Unknown	115.98566	01/14/0117 09:36.09	00006959	15.638	Inter618t1-1	0.259	2	2	230.774	24.444	-14.8	0.097	0.000	D	F	1700.7	230.347	0.174	-1.625	782.513	1251.911	0.272	-	-1.022	-0.077	-	-	-	31	4.306	67.334	-	FREEWAY_SMOOTH	Urban	F	1011101000011101	0000000000000000	-	car	276.320	20.896	0.000	0.000	180.000	696.000	987.000	-0.000	Terminate	
"Student18Mode2"	"Tanvi_6"	"Feb 14, 2017 09:34:09 AM"	Unknown	116.98567	01/14/0117 09:36.10	00007019	15.548	Inter618t1-1	0.129	2	2	227.024	24.444	-12.8	0.090	0.000	D	F	1687.9	226.697	0.178	-1.637	770.832	1241.580	0.268	-	-0.929	-0.102	-	-	-	31	4.482	69.692	-	FREEWAY_SMOOTH	Urban	F	1011101000011101	0000000000000000	-	car	262.991	19.594	0.000	0.000	180.000	696.000	987.000	-0.000	Terminate	
"Student18Mode2"	"Tanvi_6"	"Feb 14, 2017 09:34:09 AM"	Unknown	117.98569	01/14/0117 09:36.11	00007079	15.443	Inter618t1-1	0.084	2	2	223.287	24.444	-12.4	0.086	0.000	D	F	1672.0	223.539	0.194	-1.647	759.859	1230.639	0.267	-	-0.842	-0.125	-	-	-	31	4.637	71.614	-	FREEWAY_SMOOTH	Urban	F	1011101000011101	0000000000000000	-	car	249.509	18.447	0.000	0.000	180.000	696.000	987.000	-0.000	Terminate	
"Student18Mode2"	"Tanvi_6"	"Feb 14, 2017 09:34:09 AM"	Unknown	118.98571	01/14/0117 09:36.12	00007139	15.330	Inter618t1-1	0.190	2	2	219.549	24.444	-17.2	0.090	0.000	D	F	1666.1	220.258	0.211	-1.618	749.579	1219.192	0.270	-	-1.047	-0.106	-	-	-	31	4.828	74.019	-	FREEWAY_SMOOTH	Urban	F	1011101000011101	0000000000000000	-	car	235.934	17.314	0.000	0.000	180.000	696.000	987.000	-0.000	Terminate	
"Student18Mode2"	"Tanvi_6"	"Feb 14, 2017 09:34:09 AM"	Unknown	119.98573	01/14/0117 09:36.13	00007199	15.232	Inter618t1-1	0.223	2	2	215.909	24.444	-16.5	0.109	0.000	D	F	1688.5	215.645	0.183	-1.612	740.184	1207.151	0.271	-	-1.144	-0.013	-	-	-	31	5.031	76.636	-	FREEWAY_SMOOTH	Urban	F	1011101000011101	0000000000000000	-	car	222.182	16.004	0.000	0.000	180.000	696.000	987.000	-0.000	Terminate	
"Student18Mode2"	"Tanvi_6"	"Feb 14, 2017 09:34:09 AM"	Unknown	120.98576	01/14/0117 09:36.14	00007259	15.327	Inter618t1-1	0.090	2	2	212.244	24.444	-16.0	0.145	0.000	D	F	1766.4	211.762	0.176	-1.625	731.721	1194.446	0.266	-	-1.020	0.155	-	-	-	31	5.173	79.284	-	FREEWAY_SMOOTH	Urban	F	1011101000011101	0000000000000000	-	car	208.140	14.645	0.000	0.000	180.000	696.000	987.000	-0.000	Terminate	
"Student18Mode2"	"Tanvi_6"	"Feb 14, 2017 09:34:09 AM"	Unknown	121.98577	01/14/0117 09:36.15	00007319	15.533	Inter618t1-1	-0.072	2	2	208.528	24.444	-12.0	0.173	0.000	D	F	1839.4	208.141	0.184	-1.651	724.041	1181.072	0.261	-	-0.836	0.262	-	-	-	31	5.266	81.803	-	FREEWAY_SMOOTH	Urban	F	1011101000011101	0000000000000000	-	car	193.728	13.265	0.000	0.000	180.000	696.000	987.000	-0.000	Terminate	
"Student18Mode2"	"Tanvi_6"	"Feb 14, 2017 09:34:09 AM"	Unknown	122.98579	01/14/0117 09:36.16	00007379	15.983	Inter618t1-1	-0.090	2	2	204.742	24.444	-12.2	0.224	0.000	D	F	1996.3	205.235	0.213	-1.652	716.983	1167.010	0.259	-	-0.806	0.540	-	-	-	31	5.244	83.812	-	FREEWAY_SMOOTH	Urban	F	1011101000011101	0000000000000000	-	car	178.869	11.807	0.000	0.000	180.000	696.000	987.000	-0.000	Terminate	
"Student18Mode2"	"Tanvi_6"	"Feb 14, 2017 09:34:09 AM"	Unknown	123.98581	01/14/0117 09:36.17	00007439	16.495	Inter618t1-1	0.124	2	2	200.796	24.444	-19.6	0.220	0.000	D	F	2009.5	201.761	0.219	-1.589	710.474	1152.126	0.265	-	-1.236	0.504	-	-	-	31	5.189	85.599	-	FREEWAY_SMOOTH	Urban	F	1011101000011101	0000000000000000	-	car	163.400	10.345	0.000	0.000	180.000	696.000	987.000	-0.000	Terminate	
"Student18Mode2"	"Tanvi_6"	"Feb 14, 2017 09:34:09 AM"	Unknown	124.98583	01/14/0117 09:36.18	00007499	16.927	Inter618t1-1	0.294	2	2	196.790	24.444	-19.6	0.201	0.000	D	F	1979.4	196.980	0.194	-1.572	704.898	1136.361	0.271	-	-1.415	0.375	-	-	-	31	5.150	87.167	-	FREEWAY_SMOOTH	Urban	F	1011101000011101	0000000000000000	-	car	147.267	8.950	0.000	0.000	180.000	696.000	987.000	-0.000	Terminate	
"Student18Mode2"	"Tanvi_6"	"Feb 14, 2017 09:34:09 AM"	Unknown	125.98586	01/14/0117 09:36.19	00007559	17.248	Inter618t1-1	0.230	2	2	192.811	24.444	-16.9	0.183	0.000	D	F	1979.3	191.964	0.036	-1.418	700.578	1119.826	0.248	-	-1.394	0.272	-	-	-	31	5.125	88.396	-	FREEWAY_SMOOTH	Urban	F	1011101000011101	0000000000000000	-	car	130.545	7.685	0.000	0.000	180.000	696.000	987.000	-0.000	Terminate	
"Student18Mode2"	"Tanvi_6"	"Feb 14, 2017 09:34:09 AM"	Unknown	126.98587	01/14/0117 09:36.20	00007619	17.426	Inter618t1-1	-0.052	2	2	189.312	24.444	-13.2	0.162	0.000	D	F	1944.2	188.244	0.061	-1.229	697.522	1102.752	0.209	-	-1.014	0.147	-	-	-	31	5.133	89.447	-	FREEWAY_SMOOTH	Urban	F	1011101000011101	0000000000000000	-	car	113.403	6.564	0.000	0.000	180.000	696.000	987.000	-0.000	Terminate	
"Student18Mode2"	"Tanvi_6"	"Feb 14, 2017 09:34:09 AM"	Unknown	127.98589	01/14/0117 09:36.21	00007679	17.564	Inter618t1-1	-0.364	2	2	186.284	24.444	-11.3	0.157	0.000	D	F	1951.9	185.223	0.069	-1.010	695.455	1085.381	0.171	-	-0.847	0.139	-	-	-	-	-	-	-	FREEWAY_SMOOTH	Urban	F	1011101000011101	0000000000000000	-	car	96.023	5.493	0.000	0.000	180.000	696.000	987.000	-0.000	Terminate	
"Student18Mode2"	"Tanvi_6"	"Feb 14, 2017 09:34:09 AM"	Unknown	128.98592	01/14/0117 09:36.22	00007739	17.581	Inter618t1-1	-0.647	2	2	183.864	24.444	-2.2	0.000	0.000	D	F	1651.1	183.279	0.071	-0.846	694.181	1067.819	0.137	-	-0.303	-0.440	-	-	-	-	-	-	-	FREEWAY_SMOOTH	Urban	F	1011101000011101	0000000000000000	-	car	78.480	4.478	0.000	0.000	180.000	696.000	987.000	-0.000	Terminate	
"Student18Mode2"	"Tanvi_6"	"Feb 14, 2017 09:34:09 AM"	Unknown	129.98593	01/14/0117 09:36.23	00007799	17.024	Inter618t1-1	-0.684	2	2	182.036	24.444	-8.5	0.000	0.000	D	F	1169.1	182.084	0.085	-0.562	693.333	1050.533	0.109	-	-0.572	-0.569	-	-	-	-	-	-	-	FREEWAY_SMOOTH	Urban	F	1011101000011101	0000000000000000	-	car	61.229	3.608	0.000	0.000	180.000	696.000	987.000	-0.000	Terminate	
"Student18Mode2"	"Tanvi_6"	"Feb 14, 2017 09:34:09 AM"	Unknown	130.98595	01/14/0117 09:36.24	00007859	14.510	Inter618t1-1	-0.776	2	2	180.847	24.444	-5.9	0.000	0.391	D	F	938.0	179.967	-0.003	-0.351	693.024	1034.304	0.090	-	-0.457	-4.878	-	-	-	-	-	-	-	FREEWAY_SMOOTH	Urban	F	1011101000011101	0000000000000000	-	car	45.038	3.110	0.000	0.000	180.000	696.000	987.000	-0.000	Terminate	
"Student18Mode2"	"Tanvi_6"	"Feb 14, 2017 09:34:09 AM"	Unknown	131.98598	01/14/0117 09:36.25	00007919	6.748	Inter618t1-1	-0.969	2	2	180.327	24.444	-2.8	0.032	0.887	D	F	860.8	179.138	-0.450	-0.245	693.105	1023.313	0.076	-	-0.067	-8.930	-	-	-	-	-	-	-	FREEWAY_SMOOTH	Urban	F	1011101000011101	0000000000000000	-	car	34.222	5.765	0.800	2.000	179.593	696.002	986.847	-0.000	Terminate	
"Student18Mode2"	"Tanvi_6"	"Feb 14, 2017 09:34:09 AM"	Unknown	132.98599	01/14/0117 09:36.26	00007979	0.007	Inter618t1-1	-1.029	2	2	180.245	24.444	-2.7	0.007	0.806	D	F	477.5	178.996	0.070	-0.213	693.152	1020.707	0.069	-	-0.003	0.245	-	-	-	-	-	-	-	FREEWAY_SMOOTH	Urban	F	1011101000011101	0000000000000000	-	car	33.404	-11.961	2.800	2.000	176.565	696.108	985.066	-0.000	Terminate	
"Student18Mode2"	"Tanvi_6"	"Feb 14, 2017 09:34:09 AM"	Unknown	133.98601	01/14/0117 09:36.27	00008039	-0.002	Inter618t1-1	-1.029	2	2	180.245	24.444	-6.8	0.000	0.743	D	F	477.5	178.995	0.101	-0.215	693.153	1020.709	0.059	-	0.000	0.005	-	-	-	-	-	-	-	FREEWAY_SMOOTH	Urban	F	1011101000011101	0000000000000000	-	car	37.187	-7.750	4.800	2.000	177.534	696.292	981.287	-0.000	Terminate	
"Student18Mode2"	"Tanvi_6"	"Feb 14, 2017 09:34:09 AM"	Unknown	134.98604	01/14/0117 09:36.28	00008099	0.034	Inter618t1-1	-1.030	2	2	180.245	24.444	-17.0	0.286	0.000	D	F	1551.1	178.995	0.122	-0.218	693.153	1020.708	0.055	-	-0.005	0.642	-	-	-	-	-	-	-	FREEWAY_SMOOTH	Urban	F	1011101000011101	0000000000000000	-	car	42.960	-6.362	6.800	2.000	179.525	696.391	975.505	-0.000	Terminate	
"Student18Mode2"	"Tanvi_6"	"Feb 14, 2017 09:34:09 AM"	Unknown	135.98605	01/14/0117 09:36.29	00008159	3.733	Inter618t1-1	-1.154	2	2	180.195	24.444	-68.6	0.247	0.000	D	F	1780.7	176.863	0.091	-0.121	693.270	1019.017	0.030	-	-0.484	3.503	-	-	-	-	-	-	-	FREEWAY_SMOOTH	Urban	F	1011101000011101	0000000000000000	-	car	49.032	-9.707	8.800	2.000	180.025	696.399	967.721	-0.000	Terminate	
"Student18Mode2"	"Tanvi_6"	"Feb 14, 2017 09:34:09 AM"	Unknown	136.98607	01/14/0117 09:36.30	00008219	6.588	Inter618t1-0	1.694	1	2	180.077	24.444	-6.2	0.265	0.000	D	F	2190.3	171.147	0.121	-0.116	694.010	1013.814	0.028	-	-0.005	2.346	-	-	-	-	-	-	-	FREEWAY_SMOOTH	Urban	F	1011101000011101	0000000000000000	-	car	53.569	-12.623	10.800	2.000	180.003	696.397	957.937	-0.000	Terminate	
"Student18Mode2"	"Tanvi_6"	"Feb 14, 2017 09:34:09 AM"	Unknown	137.98610	01/14/0117 09:36.31	00008279	8.711	Inter618t1-0	0.624	1	2	180.004	24.444	24.6	0.249	0.000	D	F	2014.3	173.138	0.138	-0.081	695.076	1006.191	0.019	-	0.563	1.650	-	-	-	-	-	-	-	FREEWAY_SMOOTH	Urban	F	1111101000011101	0000000000000000	-	car	57.692	-13.978	12.800	2.000	180.003	696.397	946.154	-0.000	Terminate	
"Student18Mode2"	"Tanvi_6"	"Feb 14, 2017 09:34:09 AM"	Unknown	138.98611	01/14/0117 09:36.32	00008339	10.127	Inter686t1-0	0.623	1	1	180.000	11.111	17.5	0.259	0.000	D	F	2013.0	177.639	0.211	-0.068	695.773	996.775	0.020	-	0.564	1.304	-	-	-	car	5.894	59.686	-	PAVEMENT_GENERAL	Urban	F	1011101000011101	0000000000000000	-	car	62.048	-13.265	14.800	2.000	180.003	696.397	932.370	-0.000	Terminate	
"Student18Mode2"	"Tanvi_6"	"Feb 14, 2017 09:34:09 AM"	Unknown	139.98613	01/14/0117 09:36.33	00008399	11.358	Inter686t1-0	0.359	1	1	180.000	11.111	-0.3	0.252	0.000	D	F	2100.8	178.902	0.209	0.002	696.037	986.020	0.021	-	0.017	1.144	-	-	-	car	5.698	64.715	-	PAVEMENT_GENERAL	Urban	F	1011101000011101	0000000000000000	-	car	67.076	-12.323	16.800	2.000	180.002	696.397	916.586	-0.000	Terminate	
"Student18Mode2"	"Tanvi_6"	"Feb 14, 2017 09:34:09 AM"	Unknown	140.98616	01/14/0117 09:36.34	00008459	12.464	Inter686t1-0	0.133	1	1	180.000	11.111	1.5	0.257	0.000	D	F	2231.6	178.949	0.208	-0.006	696.263	974.107	0.021	-	0.045	1.080	-	-	-	car	5.659	70.533	-	PAVEMENT_GENERAL	Urban	F	1011101000011101	0000000000000000	-	car	72.893	-12.140	18.467	1.000	180.002	696.397	898.855	-0.000	Terminate	
"Student18Mode2"	"Tanvi_6"	"Feb 14, 2017 09:34:09 AM"	Unknown	141.98618	01/14/0117 09:36.35	00008519	13.526	Inter686t1-0	-0.045	1	1	180.000	11.111	2.4	0.266	0.000	D	F	2364.1	179.533	0.207	-0.016	696.441	961.110	0.022	-	0.127	1.064	-	-	-	car	5.653	76.467	-	PAVEMENT_GENERAL	Urban	F	1011101000011101	0000000000000000	-	car	78.826	-13.669	19.292	0.500	180.002	696.397	879.925	-0.000	Terminate	
"Student18Mode2"	"Tanvi_6"	"Feb 14, 2017 09:34:09 AM"	Unknown	142.98619	01/14/0117 09:36.36	00008579	14.560	Inter686t1-0	-0.117	1	1	180.000	11.111	1.5	0.266	0.000	D	F	2504.5	179.867	0.205	-0.010	696.513	947.065	0.022	-	0.076	1.023	-	-	-	car	5.629	81.960	-	PAVEMENT_GENERAL	Urban	F	1011101000011101	0000000000000000	-	car	84.319	-16.116	19.792	0.500	180.002	696.397	860.386	-0.000	Terminate	
"Student18Mode2"	"Tanvi_6"	"Feb 14, 2017 09:34:09 AM"	Unknown	143.98621	01/14/0117 09:36.37	00008639	15.537	Inter686t1-0	-0.108	1	1	180.000	11.111	2.0	0.261	0.000	D	F	2637.3	180.243	0.203	-0.014	696.504	932.011	0.022	-	0.108	0.951	-	-	-	car	5.594	86.914	-	PAVEMENT_GENERAL	Urban	F	1011101000011101	0000000000000000	-	car	89.273	-19.497	20.116	0.000	180.002	696.397	840.378	-0.000	Terminate	
"Student18Mode2"	"Tanvi_6"	"Feb 14, 2017 09:34:09 AM"	Unknown	144.98624	01/14/0117 09:36.38	00008699	16.422	Inter686t1-0	0.007	1	1	180.000	11.111	1.5	0.261	0.000	D	F	2110.7	180.608	0.198	-0.012	696.389	916.008	0.023	-	0.094	0.659	-	-	-	car	5.543	91.027	-	PAVEMENT_GENERAL	Urban	F	1011101000011101	0000000000000000	-	car	93.387	-25.277	20.116	0.000	180.002	696.397	820.262	-0.000	Terminate	
"Student18Mode2"	"Tanvi_6"	"Feb 14, 2017 09:34:09 AM"	Unknown	145.98625	01/14/0117 09:36.39	00008759	17.029	Inter686t1-0	0.185	1	1	180.000	11.111	-2.7	0.259	0.000	D	F	2077.8	180.472	0.198	0.020	696.211	899.278	0.024	-	-0.138	0.583	-	-	-	car	5.544	94.413	-	PAVEMENT_GENERAL	Urban	F	1011101000011101	0000000000000000	-	car	96.773	-31.336	20.116	0.000	179.988	696.401	800.146	-0.000	Terminate	
"Student18Mode2"	"Tanvi_6"	"Feb 14, 2017 09:34:09 AM"	Unknown	146.98627	01/14/0117 09:36.40	00008819	17.590	Inter686t1-0	0.266	1	1	180.000	11.111	-1.1	0.256	0.000	D	F	2102.7	180.045	0.196	0.011	696.131	881.966	0.024	-	-0.091	0.540	-	-	-	car	5.527	97.217	-	PAVEMENT_GENERAL	Urban	F	1011101000011101	0000000000000000	-	car	99.577	-39.414	20.116	0.000	179.995	696.403	780.030	-0.000	Terminate	
"Student18Mode2"	"Tanvi_6"	"Feb 14, 2017 09:34:09 AM"	Unknown	147.98630	01/14/0117 09:36.41	00008879	18.104	Inter686t1-0	0.269	1	1	180.000	11.111	0.6	0.249	0.000	D	F	2125.9	180.010	0.195	-0.003	696.127	864.115	0.024	-	0.026	0.495	-	-	-	car	5.495	99.481	-	PAVEMENT_GENERAL	Urban	F	1011101000011101	0000000000000000	-	car	101.841	-50.626	20.116	0.000	179.996	696.403	759.914	-0.000	Terminate	
"Student18Mode2"	"Tanvi_6"	"Feb 14, 2017 09:34:09 AM"	Unknown	148.98631	01/14/0117 09:36.42	00008939	18.565	Inter686t1-0	0.291	1	1	180.000	11.111	0.2	0.229	0.000	D	F	2146.7	180.147	0.194	-0.004	696.105	845.775	0.025	-	0.033	0.433	-	-	-	car	5.454	101.258	-	PAVEMENT_GENERAL	Urban	F	1011101000011101	0000000000000000	-	car	103.618	-66.811	20.116	0.000	179.996	696.403	739.798	-0.000	Terminate	
"Student18Mode2"	"Tanvi_6"	"Feb 14, 2017 09:34:09 AM"	Unknown	149.98633	01/14/0117 09:36.43	00008999	18.943	Inter686t1-0	0.331	1	1	180.000	11.111	-0.5	0.208	0.000	D	F	2145.8	180.067	0.192	0.005	696.065	827.011	0.025	-	-0.037	0.331	-	-	-	car	5.417	102.609	-	PAVEMENT_GENERAL	Urban	F	1011101000011101	0000000000000000	-	car	104.970	-89.450	20.116	0.000	179.996	696.403	719.682	-0.000	Terminate	
"Student18Mode2"	"Tanvi_6"	"Feb 14, 2017 09:34:09 AM"	Unknown	150.98636	01/14/0117 09:36.44	00009059	19.243	Inter686t1-0	0.338	1	1	180.000	11.111	0.3	0.199	0.000	D	F	2145.5	179.954	0.191	-0.000	696.058	807.913	0.025	-	-0.010	0.273	-	-	-	car	5.385	103.628	-	PAVEMENT_GENERAL	Urban	F	1011101000011101	0000000000000000	-	car	105.988	-121.444	20.116	0.000	179.996	696.403	699.566	-0.000	Terminate	
"Student18Mode2"	"Tanvi_6"	"Feb 14, 2017 09:34:09 AM"	Unknown	151.98637	01/14/0117 09:36.45	00009119	19.507	Inter682t1-1	0.329	1	1	180.000	11.111	-0.2	0.196	0.000	D	F	2161.4	179.919	0.191	0.002	696.075	788.535	0.026	-	-0.018	0.253	-	-	-	car	5.350	104.366	-	PAVEMENT_GENERAL	Urban	F	1011101000011101	0000000000000000	-	car	106.726	-175.400	20.116	0.000	179.996	696.403	679.450	-0.000	Terminate	
"Student18Mode2"	"Tanvi_6"	"Feb 14, 2017 09:34:09 AM"	Unknown	152.98639	01/14/0117 09:36.46	00009179	19.738	Inter682t1-1	0.305	1	1	180.000	11.111	0.9	0.190	0.000	D	F	2173.2	179.998	0.190	-0.009	696.099	768.909	0.026	-	0.063	0.216	-	-	-	car	5.313	104.856	-	PAVEMENT_GENERAL	Urban	F	1011101000011101	0000000000000000	-	car	107.216	-283.302	20.116	0.000	179.996	696.403	659.334	-0.000	Terminate	
"Student18Mode2"	"Tanvi_6"	"Feb 14, 2017 09:34:09 AM"	Unknown	153.98642	01/14/0117 09:36.47	00009239	19.936	Inter682t1-1	0.331	1	1	180.000	11.111	0.9	0.190	0.000	D	F	2189.8	180.181	0.189	-0.008	696.073	749.070	0.026	-	0.060	0.188	-	-	-	car	5.273	105.133	-	PAVEMENT_GENERAL	Urban	F	1011101000011101	0000000000000000	-	car	107.493	-597.097	20.116	0.000	179.996	696.403	639.218	-0.000	Terminate	
"Student18Mode2"	"Tanvi_6"	"Feb 14, 2017 09:34:09 AM"	Unknown	154.98643	01/14/0117 09:36.48	00009299	20.115	Inter682t1-1	0.418	1	1	180.000	11.111	0.8	0.187	0.000	D	F	2201.8	180.352	0.189	-0.007	695.986	729.042	0.026	-	0.057	0.168	-	-	-	car	5.231	105.221	-	PAVEMENT_GENERAL	Urban	F	1011101000011101	0000000000000000	-	car	107.581	-56265.770	20.116	0.000	179.996	696.403	619.102	-0.000	Terminate	
