ZoneName	Time	SystemTime	Frame	Velocity	LaneName	LanePos	LaneIndex	LaneCount	LaneHeading	SpeedLimit	Steer	Accel	Brake	Gear	Horn	SubjectEngineRPM	SubjectHeading	SubjectPitch	SubjectRoll	SubjectX	SubjectY	SubjectZ	Signal	LatAccel	LongAccel	Collision	CollisionAngle	CollisionVelocity	VehAhead	HeadwayTime	HeadwayDist	TTC	TerrainType	CultureType	Slip	DigitalInputs	DigitalInputs2	ActiveTrigger	EntityName	DistToEntity	TimeToEntity	EntityVelocity	EntityAccel	EntityHeading	EntityX	EntityY	EntityZ	GrabData	
Unknown	0.98335	01/15/0117 10:39.57	00000059	0.002	Inter625t13-0	-0.088	1	2	0.000	11.111	-2.9	0.000	0.000	D	F	0.0	0.000	0.153	0.001	1503.500	523.206	0.019	-	0.000	0.000	-	-	-	-	-	-	-	PAVEMENT_GENERAL	Urban	F	1011101000011101	0000000000010000	-	-	-	-	-	-	-	-	-	-	Terminate	
Unknown	1.98337	01/15/0117 10:39.58	00000119	0.000	Inter625t13-0	-0.088	1	2	0.000	11.111	3.6	0.000	0.000	D	F	0.0	0.000	0.197	0.000	1503.500	523.208	0.026	-	-0.000	-0.001	-	-	-	-	-	-	-	PAVEMENT_GENERAL	Urban	F	1011101000011101	0000000000010000	-	-	-	-	-	-	-	-	-	-	Terminate	
Unknown	2.98339	01/15/0117 10:39.59	00000179	-0.000	Inter625t13-0	-0.088	1	2	0.000	11.111	53.4	0.014	0.000	D	F	0.0	0.000	0.207	-0.000	1503.500	523.208	0.028	-	0.000	-0.000	-	-	-	-	-	-	-	PAVEMENT_GENERAL	Urban	F	1011101000011101	0000000000010000	-	-	-	-	-	-	-	-	-	-	Terminate	
Unknown	3.98341	01/15/0117 10:40.00	00000239	-0.000	Inter625t13-0	-0.088	1	2	0.000	11.111	12.0	0.049	0.000	D	F	0.0	0.000	0.210	-0.000	1503.500	523.208	0.028	-	0.000	-0.000	-	-	-	-	-	-	-	PAVEMENT_GENERAL	Urban	F	1011101000011101	0000000000010000	-	-	-	-	-	-	-	-	-	-	Terminate	
Unknown	4.98343	01/15/0117 10:40.01	00000299	-0.000	Inter625t13-0	-0.088	1	2	0.000	11.111	18.1	0.092	0.000	D	F	0.0	0.000	0.210	-0.000	1503.500	523.208	0.028	-	-0.000	0.000	-	-	-	-	-	-	-	PAVEMENT_GENERAL	Urban	F	1011101000011101	0000000000010000	-	-	-	-	-	-	-	-	-	-	Terminate	
Unknown	5.98345	01/15/0117 10:40.02	00000359	-0.000	Inter625t13-0	-0.088	1	2	0.000	11.111	29.6	0.206	0.000	D	F	0.0	0.000	0.209	-0.000	1503.500	523.208	0.028	-	0.000	0.000	-	-	-	-	-	-	-	PAVEMENT_GENERAL	Urban	F	1011101000011101	0000000000010000	-	-	-	-	-	-	-	-	-	-	Terminate	
Unknown	6.98347	01/15/0117 10:40.03	00000419	-0.000	Inter625t13-0	-0.088	1	2	0.000	11.111	15.2	0.069	0.000	D	F	0.0	0.000	0.209	-0.000	1503.500	523.208	0.028	-	0.000	0.000	-	-	-	-	-	-	-	PAVEMENT_GENERAL	Urban	F	1011101000011101	0000000000010000	-	-	-	-	-	-	-	-	-	-	Terminate	
Unknown	7.98349	01/15/0117 10:40.04	00000479	0.000	Inter625t13-0	-0.088	1	2	0.000	11.111	17.2	0.079	0.000	D	F	111.1	0.000	0.209	-0.000	1503.500	523.208	0.028	-	0.000	0.004	-	-	-	-	-	-	-	PAVEMENT_GENERAL	Urban	F	1011101000011111	0000000000010000	-	-	-	-	-	-	-	-	-	-	Terminate	
Unknown	8.98351	01/15/0117 10:40.05	00000539	1.250	Inter625t13-0	-0.083	1	2	0.000	11.111	19.4	0.086	0.000	D	F	444.4	0.166	0.232	-0.004	1503.505	523.593	0.016	-	0.033	2.191	-	-	-	-	-	-	-	PAVEMENT_GENERAL	Urban	F	1011101000011101	0000000000010000	-	-	-	-	-	-	-	-	-	-	Terminate	
Unknown	9.98353	01/15/0117 10:40.06	00000599	3.441	Inter625t13-0	-0.033	1	2	0.000	11.111	15.3	0.146	0.000	D	F	1518.0	1.056	0.226	-0.011	1503.555	525.929	0.016	-	0.079	2.225	-	-	-	-	-	-	-	PAVEMENT_GENERAL	Urban	F	1011101000011101	0000000000010000	-	-	-	-	-	-	-	-	-	-	Terminate	
Unknown	10.98355	01/15/0117 10:40.07	00000659	5.665	Inter625t13-0	0.116	1	2	0.000	11.111	-0.7	0.196	0.000	D	F	1920.7	1.876	0.220	0.003	1503.704	530.506	0.017	-	-0.021	2.008	-	-	-	-	-	-	-	PAVEMENT_GENERAL	Urban	F	1011101000011101	0000000000010000	-	-	-	-	-	-	-	-	-	-	Terminate	
Unknown	11.98357	01/15/0117 10:40.08	00000719	7.486	Inter625t49-0	0.300	1	1	0.006	11.111	-3.3	0.212	0.000	D	F	1826.1	1.425	0.217	0.008	1503.888	537.107	0.018	-	-0.061	1.610	-	-	-	-	-	-	-	PAVEMENT_GENERAL	Urban	F	1011101000011101	0000000000010000	-	-	-	-	-	-	-	-	-	-	Terminate	
Unknown	12.98359	01/15/0117 10:40.09	00000779	8.933	Inter625t49-0	0.468	1	1	0.007	11.111	-0.2	0.220	0.000	D	F	1891.7	1.044	0.214	0.000	1504.057	545.334	0.020	-	-0.010	1.360	-	-	-	-	-	-	-	PAVEMENT_GENERAL	Urban	F	1011101000011101	0000000000010000	-	-	-	-	-	-	-	-	-	-	Terminate	
Unknown	13.98361	01/15/0117 10:40.10	00000839	10.212	Inter625t49-0	0.630	1	1	0.007	11.111	-1.7	0.217	0.000	D	F	1970.8	0.883	0.209	0.008	1504.220	554.923	0.021	-	-0.053	1.131	-	-	-	-	-	-	-	PAVEMENT_GENERAL	Urban	F	1011101000011101	0000000000010000	-	-	-	-	-	-	-	-	-	-	Terminate	
Unknown	14.98363	01/15/0117 10:40.11	00000899	11.295	Inter625t49-0	0.762	1	1	0.005	11.111	1.9	0.213	0.000	D	F	2052.8	0.597	0.208	-0.006	1504.354	565.693	0.022	-	0.030	0.986	-	-	-	-	-	-	-	PAVEMENT_GENERAL	Urban	F	1011101000011101	0000000000010000	-	-	-	-	-	-	-	-	-	-	Terminate	
Unknown	15.98365	01/15/0117 10:40.12	00000959	12.207	Inter625t49-0	0.944	1	1	0.005	11.111	-2.5	0.210	0.000	D	F	2149.5	1.047	0.207	0.009	1504.537	577.451	0.022	-	-0.051	0.878	-	-	-	-	-	-	-	PAVEMENT_GENERAL	Urban	F	1011101000011101	0000000000010000	-	-	-	-	-	-	-	-	-	-	Terminate	
Unknown	16.98367	01/15/0117 10:40.13	00001019	13.043	Inter625t15-0	1.076	1	2	0.000	11.111	-5.7	0.208	0.000	D	F	2243.2	0.082	0.205	0.032	1504.669	590.081	0.023	-	-0.248	0.808	-	-	-	12	7.956	103.771	-	PAVEMENT_GENERAL	Urban	F	1011101000011101	0000000000010000	-	-	-	-	-	-	-	-	-	-	Terminate	
Unknown	17.98369	01/15/0117 10:40.14	00001079	13.791	Inter614t1-0	1.029	1	2	0.000	11.111	1.6	0.206	0.000	D	F	1870.1	359.790	0.201	-0.010	1504.622	603.517	0.023	-	0.068	0.628	-	-	-	12	8.185	112.883	-	PAVEMENT_GENERAL	Urban	F	1011101000011101	0000000000010000	-	-	-	-	-	-	-	-	-	-	Terminate	
Unknown	18.98371	01/15/0117 10:40.15	00001139	14.398	Inter614t1-0	1.000	1	2	0.000	11.111	1.1	0.240	0.000	D	F	1930.5	0.000	0.204	-0.007	1504.593	617.606	0.023	-	0.049	0.686	-	-	-	-	-	-	-	PAVEMENT_GENERAL	Urban	F	1011101000011101	0000000000010000	-	-	-	-	-	-	-	-	-	-	Terminate	
Unknown	19.98373	01/15/0117 10:40.16	00001199	15.073	Inter614t1-0	1.026	1	2	0.000	11.111	1.2	0.228	0.000	D	F	1952.3	0.276	0.201	-0.010	1504.619	632.347	0.023	-	0.079	0.639	-	-	-	12	7.634	115.059	-	PAVEMENT_GENERAL	Urban	F	1111101000011101	0000000000010000	-	-	-	-	-	-	-	-	-	-	Terminate	
Unknown	20.98375	01/15/0117 10:40.17	00001259	15.664	Inter614t1-0	1.119	1	2	0.000	11.111	-0.4	0.231	0.000	D	F	1981.0	0.388	0.200	0.002	1504.712	647.717	0.024	-	-0.008	0.591	-	-	-	12	7.505	117.562	-	PAVEMENT_GENERAL	Urban	F	1011101000011101	0000000000010000	-	-	-	-	-	-	-	-	-	-	Terminate	
Unknown	21.98377	01/15/0117 10:40.18	00001319	16.133	Inter614t1-0	1.218	1	2	0.000	11.111	-0.3	0.168	0.000	D	F	1871.0	0.345	0.193	-0.001	1504.811	663.651	0.025	-	-0.003	0.245	-	-	-	12	7.407	119.506	-	PAVEMENT_GENERAL	Urban	F	1011101000011101	0000000000010000	-	-	-	-	-	-	-	-	-	-	Terminate	
Unknown	22.98379	01/15/0117 10:40.19	00001379	16.388	Inter614t1-0	1.295	1	2	0.000	11.111	-1.9	0.175	0.000	D	F	1894.3	0.126	0.196	0.014	1504.889	679.911	0.025	-	-0.103	0.254	-	-	-	12	7.391	121.121	-	PAVEMENT_GENERAL	Urban	F	1011101000011101	0000000000010000	-	-	-	-	-	-	-	-	-	-	Terminate	
Unknown	23.98381	01/15/0117 10:40.20	00001439	16.630	Inter614t1-0	1.284	1	2	0.000	11.111	0.9	0.166	0.000	D	F	1905.4	359.788	0.195	0.001	1504.877	696.422	0.025	-	-0.019	0.229	-	-	-	12	7.365	122.484	-	PAVEMENT_GENERAL	Urban	F	1111101000011101	0000000000010000	-	-	-	-	-	-	-	-	-	-	Terminate	
Unknown	24.98383	01/15/0117 10:40.21	00001499	16.819	Inter614t1-0	1.308	1	2	0.000	11.111	7.0	0.157	0.000	D	F	1903.0	0.650	0.194	-0.052	1504.901	713.150	0.026	-	0.393	0.176	-	-	-	12	7.350	123.619	-	PAVEMENT_GENERAL	Urban	F	1011101000011101	0000000000010000	-	-	-	-	-	-	-	-	-	-	Terminate	
Unknown	25.98385	01/15/0117 10:40.22	00001559	16.930	Inter614t1-0	1.606	1	2	0.000	11.111	-11.5	0.136	0.000	D	F	1864.6	0.670	0.193	0.087	1505.199	730.034	0.026	-	-0.609	0.065	-	-	-	12	7.546	127.751	-	PAVEMENT_GENERAL	Urban	F	1011101000011101	0000000000010000	-	-	-	-	-	-	-	-	-	-	Terminate	
Unknown	26.98387	01/15/0117 10:40.23	00001619	16.964	Inter614t1-0	1.517	1	2	0.000	11.111	-2.3	0.120	0.000	D	F	1851.1	358.934	0.191	0.023	1505.110	746.987	0.027	-	-0.202	-0.005	-	-	-	12	7.742	131.339	-	PAVEMENT_GENERAL	Urban	F	1011101000011101	0000000000010000	-	-	-	-	-	-	-	-	-	-	Terminate	
Unknown	27.98389	01/15/0117 10:40.24	00001679	16.898	Inter614t1-0	1.199	1	2	0.000	11.111	1.6	0.095	0.000	D	F	1806.7	359.069	0.190	-0.014	1504.792	763.927	0.027	-	0.112	-0.132	-	-	-	12	8.040	135.857	-	PAVEMENT_GENERAL	Urban	F	1111101000011101	0000000000010000	-	-	-	-	-	-	-	-	-	-	Terminate	
Unknown	28.98391	01/15/0117 10:40.25	00001739	16.767	Inter614t1-0	0.914	1	2	0.000	11.111	-3.0	0.099	0.000	D	F	1801.4	358.705	0.192	0.035	1504.507	780.756	0.027	-	-0.242	-0.114	-	-	-	12	8.410	141.006	-	PAVEMENT_GENERAL	Urban	F	1011101000011101	0000000000010000	-	-	-	-	-	-	-	-	-	-	Terminate	
Unknown	29.98393	01/15/0117 10:40.26	00001799	16.692	Inter614t1-0	0.575	1	2	0.000	11.111	4.3	0.115	0.000	D	F	1820.8	359.244	0.193	-0.035	1504.168	797.475	0.027	-	0.265	-0.026	-	-	-	12	8.784	146.624	-	PAVEMENT_GENERAL	Urban	F	1011101000011101	0000000000010000	-	-	-	-	-	-	-	-	-	-	Terminate	
Unknown	30.98395	01/15/0117 10:40.27	00001859	16.716	Inter612t1-0	0.435	1	2	0.000	11.111	4.0	0.146	0.000	D	F	1873.9	359.689	0.194	-0.011	1504.028	814.168	0.026	-	0.111	0.106	-	-	-	12	9.110	152.284	-	PAVEMENT_GENERAL	Urban	F	1011101000011101	0000000000010000	-	-	-	-	-	-	-	-	-	-	Terminate	
Unknown	31.98397	01/15/0117 10:40.28	00001919	16.872	Inter612t1-0	0.550	1	2	0.000	11.111	-2.9	0.171	0.000	D	F	1930.6	1.149	0.194	0.002	1504.143	830.953	0.026	-	0.079	0.222	-	-	-	12	9.356	157.853	-	PAVEMENT_GENERAL	Urban	F	1011101000011101	0000000000010000	-	-	-	-	-	-	-	-	-	-	Terminate	
Unknown	32.98399	01/15/0117 10:40.29	00001979	17.169	Inter612t1-0	0.741	1	2	0.000	11.111	-6.8	0.190	0.000	D	F	1986.5	359.919	0.195	0.055	1504.334	847.964	0.025	-	-0.426	0.320	-	-	-	12	9.505	163.196	-	PAVEMENT_GENERAL	Urban	F	1011101000011101	0000000000010000	-	-	-	-	-	-	-	-	-	-	Terminate	
Unknown	33.98401	01/15/0117 10:40.30	00002039	17.408	Inter612t1-0	0.578	1	2	0.000	11.111	8.5	0.175	0.000	D	F	1972.3	359.340	0.194	-0.050	1504.171	865.261	0.026	-	0.319	0.228	-	-	-	12	9.665	168.252	-	PAVEMENT_GENERAL	Urban	F	1011101000011101	0000000000010000	-	-	-	-	-	-	-	-	-	-	Terminate	
Unknown	34.98403	01/15/0117 10:40.31	00002099	17.639	Inter612t1-0	0.612	1	2	0.000	11.111	-2.5	0.189	0.000	D	F	2011.2	0.781	0.193	-0.004	1504.205	882.781	0.025	-	0.070	0.248	-	-	-	12	9.813	173.085	-	PAVEMENT_GENERAL	Urban	F	1011101000011101	0000000000010000	-	-	-	-	-	-	-	-	-	-	Terminate	
Unknown	35.98405	01/15/0117 10:40.33	00002159	18.075	Inter612t1-0	0.734	1	2	0.000	11.111	-2.8	0.229	0.000	D	F	2109.6	359.923	0.195	0.028	1504.328	900.628	0.025	-	-0.224	0.450	-	-	-	12	9.825	177.592	-	PAVEMENT_GENERAL	Urban	F	1011101000011101	0000000000010000	-	-	-	-	-	-	-	-	-	-	Terminate	
Unknown	36.98407	01/15/0117 10:40.34	00002219	17.909	Inter612t1-0	0.669	1	2	0.000	11.111	1.7	0.004	0.000	D	F	1284.1	359.745	0.182	-0.011	1504.262	918.698	0.028	-	0.073	-0.521	-	-	-	12	10.156	181.876	-	PAVEMENT_GENERAL	Urban	F	1011101000011101	0000000000010000	-	-	-	-	-	-	-	-	-	-	Terminate	
Unknown	37.98409	01/15/0117 10:40.35	00002279	17.348	Inter612t1-0	0.653	1	2	0.000	11.111	1.1	0.007	0.000	D	F	1184.8	0.203	0.187	-0.015	1504.246	936.325	0.029	-	0.112	-0.527	-	-	-	12	10.756	186.602	-	PAVEMENT_GENERAL	Urban	F	1011101000011101	0000000000010000	-	-	-	-	-	-	-	-	-	-	Terminate	
Unknown	38.98411	01/15/0117 10:40.36	00002339	16.850	Inter612t1-0	0.750	1	2	0.000	11.111	1.1	0.021	0.000	D	F	1169.6	0.468	0.188	-0.008	1504.343	953.420	0.029	-	0.068	-0.471	-	-	-	12	11.386	191.860	-	PAVEMENT_GENERAL	Urban	F	1011101000011101	0000000000010000	-	-	-	-	-	-	-	-	-	-	Terminate	
Unknown	39.98413	01/15/0117 10:40.37	00002399	16.421	Inter612t1-0	0.962	1	2	0.000	11.111	-0.4	0.044	0.000	D	F	1248.4	1.164	0.190	-0.007	1504.555	970.048	0.028	-	0.116	-0.368	-	-	-	12	12.032	197.586	-	PAVEMENT_GENERAL	Urban	F	1011101000011101	0000000000010000	-	-	-	-	-	-	-	-	-	-	Terminate	
Unknown	40.98415	01/15/0117 10:40.38	00002459	16.152	Inter612t1-0	1.182	1	2	0.000	11.111	-8.3	0.101	0.000	D	F	1441.9	359.932	0.193	0.072	1504.776	986.317	0.027	-	-0.543	-0.111	-	-	-	11	11.072	178.832	-	PAVEMENT_GENERAL	Urban	F	1011101000011101	0000000000010000	-	-	-	-	-	-	-	-	-	-	Terminate	
Unknown	41.98417	01/15/0117 10:40.39	00002519	16.136	Inter613t1-0	0.979	1	2	0.000	11.111	1.0	0.132	0.000	D	F	1540.8	358.831	0.194	0.004	1504.572	1002.448	0.026	-	-0.033	0.054	-	-	-	11	11.482	185.277	-	PAVEMENT_GENERAL	Urban	F	1011101000011101	0000000000010000	-	-	-	-	-	-	-	-	-	-	Terminate	
Unknown	42.98419	01/15/0117 10:40.40	00002579	16.213	Inter613t1-0	0.793	1	2	0.000	11.111	7.3	0.152	0.000	D	F	1581.9	0.232	0.194	-0.064	1504.386	1018.618	0.026	-	0.491	0.105	-	-	-	12	13.328	216.077	-	PAVEMENT_GENERAL	Urban	F	1011101000011101	0000000000010000	-	-	-	-	-	-	-	-	-	-	Terminate	
Unknown	43.98421	01/15/0117 10:40.41	00002639	16.342	Inter613t1-0	0.950	1	2	0.000	11.111	-3.6	0.097	0.000	D	F	1451.2	0.610	0.190	0.021	1504.543	1034.921	0.027	-	-0.139	-0.077	-	-	-	12	13.593	222.127	-	PAVEMENT_GENERAL	Urban	F	1011101000011101	0000000000010000	-	-	-	-	-	-	-	-	-	-	Terminate	
Unknown	44.98423	01/15/0117 10:40.42	00002699	16.451	Inter613t1-0	1.024	1	2	0.000	11.111	-3.7	0.173	0.000	D	F	1658.3	359.847	0.195	0.028	1504.617	1051.285	0.026	-	-0.214	0.216	-	-	-	11	11.555	190.096	-	PAVEMENT_GENERAL	Urban	F	1011101000011101	0000000000010000	-	-	-	-	-	-	-	-	-	-	Terminate	
Unknown	45.98425	01/15/0117 10:40.43	00002759	16.642	Inter613t1-0	0.941	1	2	0.000	11.111	3.9	0.160	0.000	D	F	1627.6	359.841	0.194	-0.027	1504.534	1067.837	0.026	-	0.194	0.162	-	-	-	12	14.056	233.918	-	PAVEMENT_GENERAL	Urban	F	1011101000011101	0000000000010000	-	-	-	-	-	-	-	-	-	-	Terminate	
Unknown	46.98427	01/15/0117 10:40.44	00002819	16.736	Inter613t1-0	0.977	1	2	0.000	11.111	-0.6	0.123	0.000	D	F	1533.2	0.324	0.192	-0.001	1504.571	1084.539	0.026	-	0.013	0.005	-	-	-	12	14.314	239.570	-	PAVEMENT_GENERAL	Urban	F	1011101000011101	0000000000010000	-	-	-	-	-	-	-	-	-	-	Terminate	
Unknown	47.98429	01/15/0117 10:40.45	00002879	16.699	Inter613t1-0	1.047	1	2	0.000	11.111	-0.5	0.097	0.000	D	F	1457.4	0.133	0.191	0.006	1504.640	1101.265	0.027	-	-0.046	-0.098	-	-	-	11	11.320	189.036	-	PAVEMENT_GENERAL	Urban	F	1011101000011101	0000000000010000	-	-	-	-	-	-	-	-	-	-	Terminate	
Unknown	48.98431	01/15/0117 10:40.46	00002939	16.546	Inter613t1-0	1.085	1	2	0.000	11.111	-0.6	0.074	0.000	D	F	1357.9	0.135	0.190	0.003	1504.678	1117.897	0.027	-	-0.016	-0.208	-	-	-	11	11.500	190.282	-	PAVEMENT_GENERAL	Urban	F	1011101000011101	0000000000010000	-	-	-	-	-	-	-	-	-	-	Terminate	
Unknown	49.98433	01/15/0117 10:40.47	00002999	16.322	Inter613t1-0	1.113	1	2	0.000	11.111	0.3	0.069	0.000	D	F	1315.5	0.094	0.190	-0.002	1504.706	1134.335	0.028	-	0.014	-0.246	-	-	-	11	11.746	191.722	-	PAVEMENT_GENERAL	Urban	F	1011101000011101	0000000000010000	-	-	-	-	-	-	-	-	-	-	Terminate	
Unknown	50.98435	01/15/0117 10:40.48	00003059	16.072	Inter613t1-0	1.142	1	2	0.000	11.111	-2.1	0.060	0.000	D	F	1293.3	0.074	0.191	0.009	1504.735	1150.534	0.028	-	-0.070	-0.253	-	-	-	11	12.033	193.401	-	PAVEMENT_GENERAL	Urban	F	1011101000011101	0000000000010000	-	-	-	-	-	-	-	-	-	-	Terminate	
Unknown	51.98437	01/15/0117 10:40.49	00003119	15.880	Inter613t1-0	1.113	1	2	0.000	11.111	4.5	0.081	0.000	D	F	1369.0	359.901	0.192	-0.026	1504.707	1166.499	0.027	-	0.172	-0.153	-	-	-	11	12.299	195.312	-	PAVEMENT_GENERAL	Urban	F	1011101000011101	0000000000010000	-	-	-	-	-	-	-	-	-	-	Terminate	
Unknown	52.98439	01/15/0117 10:40.50	00003179	15.732	Inter613t1-0	1.237	1	2	0.000	11.111	1.9	0.086	0.000	D	F	1377.7	1.156	0.192	-0.033	1504.831	1182.303	0.027	-	0.251	-0.139	-	-	-	11	12.548	197.404	-	PAVEMENT_GENERAL	Urban	F	1011101000011101	0000000000010000	-	-	-	-	-	-	-	-	-	-	Terminate	
Unknown	53.98441	01/15/0117 10:40.51	00003239	15.602	Inter613t1-0	1.445	1	2	0.000	11.111	-9.9	0.088	0.000	D	F	1380.3	359.826	0.192	0.079	1505.038	1197.967	0.027	-	-0.609	-0.124	-	-	-	14	-0.261	-4.067	-	PAVEMENT_GENERAL	Urban	F	1011101000011101	0000000000010000	-	-	-	-	-	-	-	-	-	-	Terminate	
Unknown	54.98443	01/15/0117 10:40.52	00003299	15.507	Inter746t1-0	1.191	1	2	0.000	11.111	5.0	0.095	0.000	D	F	1406.0	358.705	0.193	-0.025	1504.784	1213.515	0.027	-	0.142	-0.079	-	-	-	11	13.021	201.916	-	PAVEMENT_GENERAL	Urban	F	1011101000011101	0000000000010000	-	-	-	-	-	-	-	-	-	-	Terminate	
Unknown	55.98445	01/15/0117 10:40.53	00003359	15.408	Inter746t1-0	0.981	1	2	0.000	11.111	3.4	0.090	0.000	D	F	1386.3	359.783	0.193	-0.030	1504.575	1228.971	0.027	-	0.233	-0.099	-	-	-	-	-	-	-	PAVEMENT_GENERAL	Urban	F	1011101000011101	0000000000010000	-	-	-	-	-	-	-	-	-	-	Terminate	
Unknown	56.98447	01/15/0117 10:40.54	00003419	14.980	Inter746t1-0	0.986	1	2	0.000	11.111	1.5	0.000	0.000	D	F	1021.7	0.261	0.189	-0.013	1504.579	1244.205	0.029	-	0.103	-0.532	-	-	-	-	-	-	-	PAVEMENT_GENERAL	Urban	F	1011101000011101	0000000000010000	-	-	-	-	-	-	-	-	-	-	Terminate	
Unknown	57.98449	01/15/0117 10:40.55	00003479	14.370	Inter746t1-0	1.089	1	2	0.000	11.111	-1.8	0.000	0.000	D	F	980.1	0.491	0.190	0.007	1504.682	1258.868	0.029	-	-0.045	-0.524	-	-	-	14	-0.234	-3.370	-	PAVEMENT_GENERAL	Urban	F	1011101000011101	0000000000010000	-	-	-	-	-	-	-	-	-	-	Terminate	
Unknown	58.98451	01/15/0117 10:40.56	00003539	14.240	Inter746t1-0	1.134	1	2	0.000	11.111	-3.0	0.127	0.000	D	F	1598.7	359.838	0.198	0.020	1504.727	1273.105	0.026	-	-0.154	0.110	-	-	-	14	0.047	0.673	-	PAVEMENT_GENERAL	Urban	F	1011101000011101	0000000000010000	-	-	-	-	-	-	-	-	-	-	Terminate	
Unknown	59.98453	01/15/0117 10:40.57	00003599	14.493	Inter746t1-0	1.050	1	2	0.000	11.111	-0.0	0.187	0.000	D	F	1827.6	359.539	0.200	0.003	1504.643	1287.441	0.025	-	-0.024	0.432	-	-	-	14	0.382	5.543	-	PAVEMENT_GENERAL	Urban	F	1011101000011101	0000000000010000	-	-	-	-	-	-	-	-	-	-	Terminate	
Unknown	60.98455	01/15/0117 10:40.58	00003659	14.922	Inter746t1-0	0.959	1	2	0.000	11.111	-0.7	0.187	0.000	D	F	1850.6	359.818	0.199	0.001	1504.552	1302.150	0.025	-	0.021	0.421	-	-	-	-	-	-	-	PAVEMENT_GENERAL	Urban	F	1011101000011101	0000000000010000	-	-	-	-	-	-	-	-	-	-	Terminate	
Unknown	61.98457	01/15/0117 10:40.59	00003719	15.458	Inter746t1-0	0.879	1	2	0.000	11.111	-1.8	0.228	0.000	D	F	1969.8	359.529	0.201	0.012	1504.472	1317.324	0.024	-	-0.095	0.601	-	-	-	-	-	-	-	PAVEMENT_GENERAL	Urban	F	1011101000011101	0000000000010000	-	-	-	-	-	-	-	-	-	-	Terminate	
Unknown	62.98459	01/15/0117 10:41.00	00003779	16.013	Inter746t1-0	0.752	1	2	0.000	11.111	7.1	0.217	0.000	D	F	1985.3	359.885	0.200	-0.049	1504.345	1333.071	0.024	-	0.351	0.536	-	-	-	-	-	-	-	PAVEMENT_GENERAL	Urban	F	1011101000011101	0000000000010000	-	-	-	-	-	-	-	-	-	-	Terminate	
Unknown	63.98461	01/15/0117 10:41.01	00003839	16.338	Inter746t1-0	0.830	1	2	0.000	11.111	-14.1	0.129	0.000	D	F	1808.1	0.096	0.191	0.085	1504.423	1349.297	0.026	-	-0.592	0.081	-	-	-	-	-	-	-	PAVEMENT_GENERAL	Urban	F	1111101000011101	0000000000010000	-	-	-	-	-	-	-	-	-	-	Terminate	
Unknown	64.98463	01/15/0117 10:41.02	00003899	16.328	Inter746t1-0	0.281	1	2	0.000	11.111	-16.7	0.101	0.000	D	F	1767.6	355.331	0.184	0.172	1503.874	1365.629	0.027	-	-1.346	-0.077	-	-	-	-	-	-	-	PAVEMENT_GENERAL	Urban	F	1011101000011101	0000000000010000	-	-	-	-	-	-	-	-	-	-	Terminate	
Unknown	65.98465	01/15/0117 10:41.03	00003959	16.230	Inter746t1-0	-1.428	1	2	0.000	11.111	15.9	0.063	0.000	D	F	1689.2	353.173	0.188	-0.069	1502.165	1381.822	0.027	-	0.439	-0.206	-	-	-	-	-	-	-	PAVEMENT_GENERAL	Urban	F	1011101000011101	0000000000010000	-	-	-	-	-	-	-	-	-	-	Terminate	
Unknown	66.98467	01/15/0117 10:41.04	00004019	15.744	-	-	CL	0	-	-	24.7	0.000	0.000	D	F	1545.6	0.217	0.169	-0.272	1501.047	1397.805	0.030	-	2.076	-0.604	-	-	-	-	-	-	-	PAVEMENT_GENERAL	Urban	F	1011101000011101	0000000000010000	-	-	-	-	-	-	-	-	-	-	Terminate	
Unknown	67.98470	01/15/0117 10:41.05	00004079	15.154	-	-	CL	0	-	-	-9.8	0.000	0.000	D	F	1488.3	0.805	0.188	0.085	1501.359	1413.248	0.029	-	-0.618	-0.580	-	-	-	-	-	-	-	PAVEMENT_GENERAL	Urban	F	1011101000011101	0000000000010000	-	-	-	-	-	-	-	-	-	-	Terminate	
Unknown	68.98471	01/15/0117 10:41.06	00004139	14.542	Inter749t31-0	-1.568	1	1	355.119	11.111	-0.2	0.000	0.063	D	F	1416.6	359.860	0.177	0.003	1501.411	1428.113	0.029	-	-0.044	-1.111	-	-	-	12	7.768	112.962	-	PAVEMENT_GENERAL	Urban	F	1011101000011101	0000000000010000	-	-	-	-	-	-	-	-	-	-	Terminate	
Unknown	69.98473	01/15/0117 10:41.07	00004199	12.038	Inter749t31-0	-0.513	1	1	355.485	11.111	-0.9	0.000	0.170	D	F	1156.1	359.858	0.160	0.004	1501.378	1441.519	0.034	-	-0.020	-2.637	-	-	-	12	9.582	115.350	-	PAVEMENT_GENERAL	Urban	F	1011101000011101	0000000000010000	-	-	-	-	-	-	-	-	-	-	Terminate	
Unknown	70.98476	01/15/0117 10:41.08	00004259	10.077	Inter749t31-0	0.430	1	1	356.903	11.111	-3.6	0.000	0.000	D	F	990.5	359.407	0.198	0.017	1501.316	1452.323	0.028	-	-0.120	-0.504	-	-	-	12	12.140	122.330	-	PAVEMENT_GENERAL	Urban	F	1011101000011101	0000000000010000	-	-	-	-	-	-	-	-	-	-	Terminate	
Unknown	71.98477	01/15/0117 10:41.09	00004319	9.580	Inter749t31-0	0.805	1	1	356.903	11.111	-1.4	0.000	0.000	D	F	941.4	358.934	0.196	0.008	1501.160	1462.150	0.029	-	-0.043	-0.494	-	-	-	-	-	-	-	PAVEMENT_GENERAL	Urban	F	1011101000011101	0000000000010000	-	-	-	-	-	-	-	-	-	-	Terminate	
Unknown	72.98479	01/15/0117 10:41.10	00004379	9.666	Inter749t11-0	0.856	LT1	2	0.000	11.111	-8.6	0.106	0.000	D	F	1408.0	358.141	0.202	0.028	1500.919	1471.677	0.025	-	-0.224	0.308	-	-	-	-	-	-	-	PAVEMENT_GENERAL	Urban	F	1011101000011101	0000000000010000	-	-	-	-	-	-	-	-	-	-	Terminate	
Unknown	73.98481	01/15/0117 10:41.11	00004439	10.050	Inter749t11-0	0.247	LT1	2	0.000	11.111	-50.4	0.093	0.000	D	F	1378.8	354.278	0.195	0.210	1500.309	1481.514	0.025	-	-1.512	0.207	-	-	-	-	-	-	-	PAVEMENT_GENERAL	Urban	F	1011101000011101	0000000000010000	-	-	-	-	-	-	-	-	-	-	Terminate	
Unknown	74.98483	01/15/0117 10:41.12	00004499	9.892	Inter749t65-0	0.478	1	1	333.073	11.111	-107.5	0.076	0.000	D	F	1271.8	340.216	0.178	0.457	1498.114	1491.244	0.029	-	-3.303	-0.208	-	-	-	-	-	-	-	PAVEMENT_GENERAL	Urban	F	1011101000011101	0000000000010000	-	-	-	-	-	-	-	-	-	-	Terminate	
Unknown	75.98486	01/15/0117 10:41.13	00004559	10.119	Inter749t65-0	1.554	1	1	312.398	11.111	-111.3	0.138	0.000	D	F	1510.1	322.514	0.184	0.445	1493.147	1499.855	0.026	-	-3.393	0.272	-	-	-	-	-	-	-	PAVEMENT_GENERAL	Urban	F	1011101000011101	0000000000010000	-	-	-	-	-	-	-	-	-	-	Terminate	
Unknown	76.98487	01/15/0117 10:41.14	00004619	10.134	Inter749t77-0	-1.016	1	1	269.734	11.111	-180.4	0.092	0.000	D	F	1378.2	295.276	0.150	0.717	1485.268	1506.132	0.035	-	-5.508	-0.241	-	-	-	Ambient250	13.590	137.716	-	PAVEMENT_GENERAL	Urban	F	1011101000011101	0000000000010000	-	-	-	-	-	-	-	-	-	-	Terminate	
Unknown	77.98489	01/15/0117 10:41.15	00004679	9.668	Inter749t3-4	0.548	2	2	270.000	11.111	-81.1	0.000	0.000	D	F	951.5	266.683	0.094	0.383	1475.539	1507.679	0.033	-	-3.068	-0.582	-	-	-	Ambient250	14.385	139.072	-	PAVEMENT_GENERAL	Urban	F	1011101000011101	0000000000010000	-	-	-	-	-	-	-	-	-	-	Terminate	
Unknown	78.98492	01/15/0117 10:41.16	00004739	9.153	Inter749t17-0	-0.655	1	1	270.065	11.111	79.1	0.000	0.000	D	F	899.5	263.682	0.189	-0.343	1466.204	1506.477	0.029	-	2.106	-0.580	-	-	-	Ambient250	15.325	140.269	-	PAVEMENT_GENERAL	Urban	F	1011101000011101	0000000000010000	-	-	-	-	-	-	-	-	-	-	Terminate	
Unknown	79.98493	01/15/0117 10:41.17	00004799	8.636	Inter749t17-0	-0.410	1	1	270.092	11.111	28.4	0.000	0.000	D	F	848.9	276.157	0.189	-0.101	1457.338	1506.732	0.029	-	0.747	-0.488	-	-	-	Ambient250	16.436	141.935	-	PAVEMENT_GENERAL	Urban	F	1011101000011101	0000000000010000	-	-	-	-	-	-	-	-	-	-	Terminate	
Unknown	80.98495	01/15/0117 10:41.18	00004859	8.155	Inter749t17-0	0.525	1	1	270.109	11.111	-25.9	0.000	0.000	D	F	801.5	275.204	0.196	0.076	1448.996	1507.677	0.028	-	-0.581	-0.483	-	-	-	Ambient250	17.674	144.124	-	PAVEMENT_GENERAL	Urban	F	1011101000011101	0000000000010000	-	-	-	-	-	-	-	-	-	-	Terminate	
Unknown	81.98497	01/15/0117 10:41.19	00004919	7.681	Inter749t17-0	0.892	1	1	270.084	11.111	-6.9	0.000	0.000	D	F	754.9	271.707	0.196	0.011	1441.090	1508.059	0.028	-	-0.118	-0.470	-	-	-	Ambient250	19.107	146.750	-	PAVEMENT_GENERAL	Urban	F	1011101000011101	0000000000010000	-	-	-	-	-	-	-	-	-	-	Terminate	
Unknown	82.98499	01/15/0117 10:41.20	00004979	7.212	Inter749t17-0	1.031	1	1	270.061	11.111	-10.3	0.000	0.000	D	F	708.8	270.868	0.197	0.028	1433.645	1508.213	0.028	-	-0.203	-0.468	-	-	-	Ambient250	20.773	149.822	-	PAVEMENT_GENERAL	Urban	F	1011101000011101	0000000000010000	-	-	-	-	-	-	-	-	-	-	Terminate	
Unknown	83.98502	01/15/0117 10:41.21	00005039	6.745	Inter749t17-0	0.987	1	1	270.061	11.111	-13.0	0.000	0.000	D	F	663.0	269.027	0.197	0.025	1426.667	1508.176	0.028	-	-0.199	-0.466	-	-	-	Ambient250	22.740	153.392	-	PAVEMENT_GENERAL	Urban	F	1011101000011101	0000000000010000	-	-	-	-	-	-	-	-	-	-	Terminate	
Unknown	84.98503	01/15/0117 10:41.22	00005099	7.438	Inter749t17-0	0.724	1	1	270.061	11.111	-9.3	0.236	0.000	D	F	1792.7	267.331	0.218	0.020	1419.812	1507.921	0.019	-	-0.159	1.617	-	-	-	Ambient250	21.116	157.069	-	PAVEMENT_GENERAL	Urban	F	1011101000011101	0000000000010000	-	-	-	-	-	-	-	-	-	-	Terminate	
Unknown	85.98505	01/15/0117 10:41.23	00005159	9.006	Inter749t1-3	0.295	2	2	270.000	11.111	32.2	0.266	0.000	D	F	1934.5	267.448	0.215	-0.117	1411.590	1507.495	0.019	-	0.769	1.499	-	-	-	Ambient250	17.697	159.380	-	PAVEMENT_GENERAL	Urban	F	1011101000011101	0000000000010000	-	-	-	-	-	-	-	-	-	-	Terminate	
Unknown	86.98507	01/15/0117 10:41.24	00005219	10.267	Inter749t1-3	0.325	2	2	270.000	11.111	2.3	0.194	0.000	D	F	1916.1	271.485	0.207	-0.009	1401.898	1507.525	0.022	-	0.134	0.934	-	-	-	Ambient250	15.377	157.875	-	PAVEMENT_GENERAL	Urban	F	1011101000011101	0000000000010000	-	-	-	-	-	-	-	-	-	-	Terminate	
Unknown	87.98509	01/15/0117 10:41.25	00005279	10.991	Inter747t1-3	0.493	2	2	270.000	11.111	-19.5	0.183	0.000	D	F	1961.5	269.936	0.206	0.088	1391.254	1507.700	0.023	-	-0.636	0.712	-	-	-	Ambient250	14.566	160.102	349.752	PAVEMENT_GENERAL	Urban	F	1011101000011101	0000000000010000	-	-	-	-	-	-	-	-	-	-	Terminate	
Unknown	88.98512	01/15/0117 10:41.26	00005339	11.942	Inter747t1-3	0.226	2	2	270.000	11.111	3.0	0.231	0.000	D	F	2148.4	268.197	0.208	-0.010	1379.810	1507.432	0.022	-	0.049	1.012	-	-	-	Ambient250	13.330	159.191	113.042	PAVEMENT_GENERAL	Urban	F	1011101000011101	0000000000010000	-	-	-	-	-	-	-	-	-	-	Terminate	
Unknown	89.98513	01/15/0117 10:41.27	00005399	12.946	Inter747t1-3	-0.086	2	2	270.000	11.111	3.4	0.240	0.000	D	F	2270.9	268.913	0.207	-0.019	1367.368	1507.121	0.022	-	0.150	0.984	-	-	-	Ambient250	12.149	157.280	65.210	PAVEMENT_GENERAL	Urban	F	1011101000011101	0000000000010000	-	-	-	-	-	-	-	-	-	-	Terminate	
Unknown	90.98515	01/15/0117 10:41.28	00005459	13.913	Inter747t1-3	-0.250	2	2	270.000	11.111	12.8	0.243	0.000	D	F	2393.8	269.957	0.205	-0.073	1353.937	1506.957	0.022	-	0.532	0.942	-	-	-	Ambient250	11.096	154.381	45.678	PAVEMENT_GENERAL	Urban	F	1011101000011101	0000000000010000	-	-	-	-	-	-	-	-	-	-	Terminate	
Unknown	91.98518	01/15/0117 10:41.29	00005519	14.837	Inter747t1-3	0.026	2	2	270.000	11.111	0.9	0.249	0.000	D	F	2530.3	271.987	0.204	-0.015	1339.563	1507.233	0.022	-	0.173	0.921	-	-	-	Ambient250	10.146	150.540	34.979	PAVEMENT_GENERAL	Urban	F	1011101000011101	0000000000010000	-	-	-	-	-	-	-	-	-	-	Terminate	
Unknown	92.98519	01/15/0117 10:41.30	00005579	15.751	Inter747t1-3	0.532	2	2	270.000	11.111	2.0	0.252	0.000	D	F	2125.8	271.744	0.195	-0.007	1324.270	1507.739	0.022	-	0.012	0.745	-	-	-	Ambient250	9.255	145.779	27.943	PAVEMENT_GENERAL	Urban	F	1011101000011101	0000000000010000	-	-	-	-	-	-	-	-	-	-	Terminate	
Unknown	93.98521	01/15/0117 10:41.31	00005639	16.258	Inter747t1-3	0.994	2	2	270.000	11.111	-33.3	0.148	0.000	D	F	1842.8	270.277	0.190	0.249	1308.215	1508.201	0.026	-	-1.708	0.140	-	-	-	Ambient250	8.627	140.257	24.500	PAVEMENT_GENERAL	Urban	F	1011101000011101	0000000000010000	-	-	-	-	-	-	-	-	-	-	Terminate	
Unknown	94.98523	01/15/0117 10:41.32	00005699	16.353	Inter747t1-3	0.135	2	2	270.000	11.111	12.4	0.153	0.000	D	F	1860.5	264.212	0.189	-0.011	1291.946	1507.342	0.026	-	-0.168	0.169	-	-	-	Ambient250	8.226	134.519	23.116	PAVEMENT_GENERAL	Urban	F	1011101000011101	0000000000010000	-	-	-	-	-	-	-	-	-	-	Terminate	
Unknown	95.98525	01/15/0117 10:41.33	00005759	16.523	Inter747t1-3	-0.784	2	2	270.000	11.111	27.0	0.166	0.000	D	F	1891.5	270.563	0.184	-0.266	1275.542	1506.423	0.026	-	2.039	0.205	-	-	-	Ambient250	7.786	128.648	21.479	PAVEMENT_GENERAL	Urban	F	1111101000011101	0000000000010000	-	-	-	-	-	-	-	-	-	-	Terminate	
Unknown	96.98528	01/15/0117 10:41.34	00005819	16.724	Inter747t1-3	-0.194	2	2	270.000	11.111	-9.8	0.173	0.000	D	F	1916.0	272.290	0.195	0.068	1258.933	1507.013	0.026	-	-0.470	0.229	-	-	-	Ambient250	7.329	122.571	19.801	PAVEMENT_GENERAL	Urban	F	1011101000011101	0000000000010000	-	-	-	-	-	-	-	-	-	-	Terminate	
Unknown	97.98529	01/15/0117 10:41.35	00005879	16.974	Inter747t1-3	0.217	2	2	270.000	11.111	-5.3	0.196	0.000	D	F	1977.3	270.461	0.194	0.050	1242.093	1507.424	0.025	-	-0.393	0.292	-	-	-	Ambient250	6.849	116.263	18.052	PAVEMENT_GENERAL	Urban	F	1011101000011101	0000000000010000	-	-	-	-	-	-	-	-	-	-	Terminate	
Unknown	98.98531	01/15/0117 10:41.36	00005939	17.374	Inter747t1-3	0.233	2	2	270.000	11.111	-1.3	0.213	0.000	D	F	2037.1	269.571	0.195	0.021	1224.926	1507.440	0.025	-	-0.169	0.419	-	-	-	Ambient250	6.310	109.628	16.027	PAVEMENT_GENERAL	Urban	F	1011101000011101	0000000000010000	-	-	-	-	-	-	-	-	-	-	Terminate	
Unknown	99.98534	01/15/0117 10:41.37	00005999	17.775	Inter747t1-3	0.124	2	2	270.000	11.111	1.7	0.212	0.000	D	F	2062.0	269.840	0.195	-0.015	1207.348	1507.330	0.025	-	0.124	0.385	-	-	-	Ambient250	5.771	102.583	14.166	PAVEMENT_GENERAL	Urban	F	1011101000011101	0000000000010000	-	-	-	-	-	-	-	-	-	-	Terminate	
Unknown	100.98535	01/15/0117 10:41.38	00006059	18.153	Inter748t1-3	0.130	2	2	270.000	11.111	2.1	0.212	0.000	D	F	2091.7	270.328	0.194	-0.020	1189.383	1507.337	0.025	-	0.168	0.369	-	-	-	Ambient250	5.242	95.150	12.489	PAVEMENT_GENERAL	Urban	F	1111101000011101	0000000000010000	-	-	-	-	-	-	-	-	-	-	Terminate	
Unknown	101.98537	01/15/0117 10:41.39	00006119	18.563	Inter748t1-3	0.259	2	2	270.000	11.111	-1.8	0.212	0.000	D	F	2126.5	270.327	0.193	0.016	1171.026	1507.465	0.025	-	-0.112	0.375	-	-	-	Ambient250	4.704	87.325	10.876	PAVEMENT_GENERAL	Urban	F	1011101000011101	0000000000010000	-	-	-	-	-	-	-	-	-	-	Terminate	
Unknown	102.98539	01/15/0117 10:41.40	00006179	18.717	Inter748t1-3	0.321	2	2	270.000	11.111	-0.2	0.095	0.000	D	F	1955.3	270.056	0.185	0.001	1152.341	1507.527	0.027	-	-0.031	-0.130	-	-	-	Ambient250	4.230	79.172	9.675	PAVEMENT_GENERAL	Urban	F	1011101000011101	0000000000010000	-	-	-	-	-	-	-	-	-	-	Terminate	
Unknown	103.98541	01/15/0117 10:41.41	00006239	18.514	Inter748t1-3	0.333	2	2	270.000	11.111	-0.5	0.088	0.000	D	F	1492.6	269.982	0.187	0.005	1133.724	1507.540	0.028	-	-0.036	-0.211	-	-	-	Ambient250	3.840	71.088	8.908	PAVEMENT_GENERAL	Urban	F	1011101000011101	0000000000010000	-	-	-	-	-	-	-	-	-	-	Terminate	
Unknown	104.98544	01/15/0117 10:41.42	00006299	18.273	Inter748t1-3	0.313	2	2	270.000	11.111	-0.4	0.078	0.000	D	F	1444.6	269.877	0.188	0.003	1115.329	1507.519	0.028	-	-0.028	-0.242	-	-	-	Ambient250	3.460	63.225	8.169	PAVEMENT_GENERAL	Urban	F	1011101000011101	0000000000010000	-	-	-	-	-	-	-	-	-	-	Terminate	
Unknown	105.98545	01/15/0117 10:41.43	00006359	18.036	Inter748t1-3	0.266	2	2	270.000	11.111	1.0	0.081	0.000	D	F	1438.0	269.840	0.188	-0.006	1097.175	1507.473	0.028	-	0.032	-0.230	-	-	-	Ambient250	3.083	55.603	7.411	PAVEMENT_GENERAL	Urban	F	1011101000011101	0000000000010000	-	-	-	-	-	-	-	-	-	-	Terminate	
Unknown	106.98547	01/15/0117 10:41.44	00006419	17.821	Inter748t1-3	0.241	2	2	270.000	11.111	0.4	0.086	0.000	D	F	1446.0	270.000	0.189	-0.004	1079.249	1507.448	0.028	-	0.033	-0.196	-	-	-	Ambient250	2.705	48.210	6.615	PAVEMENT_GENERAL	Urban	F	1011101000011101	0000000000010000	-	-	-	-	-	-	-	-	-	-	Terminate	
Unknown	107.98550	01/15/0117 10:41.45	00006479	17.625	Inter748t1-3	0.250	2	2	270.000	11.111	0.3	0.083	0.000	D	F	1428.2	270.072	0.189	-0.003	1061.526	1507.457	0.028	-	0.021	-0.202	-	-	-	Ambient250	2.327	41.018	5.784	PAVEMENT_GENERAL	Urban	F	1011101000011101	0000000000010000	-	-	-	-	-	-	-	-	-	-	Terminate	
Unknown	108.98551	01/15/0117 10:41.46	00006539	17.413	Inter748t1-3	0.279	2	2	270.000	11.111	0.1	0.078	0.000	D	F	1395.3	270.119	0.189	-0.001	1044.004	1507.486	0.028	-	0.007	-0.226	-	-	-	Ambient250	1.954	34.029	4.946	PAVEMENT_GENERAL	Urban	F	1011101000011101	0000000000010000	-	-	-	-	-	-	-	-	-	-	Terminate	
Unknown	109.98553	01/15/0117 10:41.47	00006599	16.903	Inter748t1-3	0.317	2	2	270.000	11.111	-0.1	0.000	0.000	D	F	1152.7	270.141	0.186	-0.000	1026.825	1507.523	0.029	-	0.003	-0.558	-	-	-	-	-	-	-	PAVEMENT_GENERAL	Urban	F	1011101000011101	0000000000010000	-	-	-	-	-	-	-	-	-	-	Terminate	
Unknown	110.98555	01/15/0117 10:41.48	00006659	16.349	Inter748t1-3	0.358	2	2	270.000	11.111	-0.6	0.000	0.000	D	F	1115.0	270.134	0.187	0.003	1010.200	1507.564	0.029	-	-0.025	-0.550	-	-	-	-	-	-	-	PAVEMENT_GENERAL	Urban	F	1011101000011101	0000000000010000	-	-	-	-	-	-	-	-	-	-	Terminate	
Unknown	111.98557	01/15/0117 10:41.49	00006719	16.130	Inter752t1-3	-0.302	2	2	269.967	24.444	-0.3	0.097	0.000	D	F	1439.0	270.088	0.745	-0.118	994.000	1507.595	0.063	-	-0.029	-0.077	-	-	-	-	-	-	-	FREEWAY_SMOOTH	Urban	F	1011101000011101	0000000000010000	-	-	-	-	-	-	-	-	-	-	Terminate	
Unknown	112.98560	01/15/0117 10:41.50	00006779	16.073	Inter752t1-3	-0.287	2	2	269.637	24.444	-1.4	0.120	0.000	D	F	1500.5	269.585	0.397	-0.484	977.911	1507.568	0.091	-	-0.184	0.050	-	-	-	-	-	-	-	FREEWAY_SMOOTH	Urban	F	1011101000011101	0000000000010000	-	-	-	-	-	-	-	-	-	-	Terminate	
Unknown	113.98561	01/15/0117 10:41.51	00006839	16.229	Inter752t1-3	-0.198	2	2	268.822	24.444	-2.6	0.127	0.000	D	F	1523.6	269.677	0.401	-0.896	961.758	1507.444	0.144	-	-0.095	0.084	-	-	-	-	-	-	-	FREEWAY_SMOOTH	Urban	F	1011101000011101	0000000000010000	-	-	-	-	-	-	-	-	-	-	Terminate	
Unknown	114.98563	01/15/0117 10:41.52	00006899	16.250	Inter752t1-3	-0.008	2	2	267.546	24.444	-12.6	0.099	0.000	D	F	1437.9	267.627	0.390	-1.203	945.511	1507.117	0.202	-	-0.861	-0.044	-	-	-	-	-	-	-	FREEWAY_SMOOTH	Urban	F	1011101000011101	0000000000010000	-	-	-	-	-	-	-	-	-	-	Terminate	
Unknown	115.98566	01/15/0117 10:41.53	00006959	16.157	Inter752t1-3	-0.201	2	2	265.799	24.444	-16.2	0.067	0.000	D	F	1332.9	264.077	0.335	-1.572	929.340	1505.976	0.251	-	-1.142	-0.145	-	-	-	-	-	-	-	FREEWAY_SMOOTH	Urban	F	1011101000011101	0000000000010000	-	-	-	-	-	-	-	-	-	-	Terminate	
Unknown	116.98567	01/15/0117 10:41.54	00007019	15.949	Inter752t1-3	-0.727	2	2	263.626	24.444	13.8	0.058	0.000	D	F	1269.8	263.160	0.349	-2.222	913.407	1503.962	0.285	-	0.743	-0.225	-	-	-	-	-	-	-	FREEWAY_SMOOTH	Urban	F	1011101000011101	0000000000010000	-	-	-	-	-	-	-	-	-	-	Terminate	
Unknown	117.98569	01/15/0117 10:41.55	00007079	15.724	Inter752t1-3	-0.402	2	2	261.040	24.444	-18.3	0.065	0.000	D	F	1284.6	262.912	0.450	-2.346	897.675	1502.157	0.347	-	-1.041	-0.215	-	-	-	-	-	-	-	FREEWAY_SMOOTH	Urban	F	1011101000011101	0000000000010000	-	-	-	-	-	-	-	-	-	-	Terminate	
Unknown	118.98571	01/15/0117 10:41.56	00007139	15.666	Inter752t1-3	-0.195	2	2	258.098	24.444	-15.3	0.115	0.000	D	F	1481.6	257.618	0.357	-2.723	882.244	1499.503	0.405	-	-1.275	0.066	-	-	-	-	-	-	-	FREEWAY_SMOOTH	Urban	F	1011101000011101	0000000000010000	-	-	-	-	-	-	-	-	-	-	Terminate	
Unknown	119.98573	01/15/0117 10:41.57	00007199	15.743	Inter752t1-3	-0.340	2	2	254.702	24.444	-11.8	0.143	0.000	D	F	1543.6	254.269	0.363	-3.153	867.025	1495.643	0.447	-	-0.876	0.120	-	-	-	-	-	-	-	FREEWAY_SMOOTH	Urban	F	1011101000011101	0000000000010000	-	-	-	-	-	-	-	-	-	-	Terminate	
Unknown	120.98576	01/15/0117 10:41.58	00007259	15.965	Inter752t1-3	-0.391	2	2	250.903	24.444	-12.6	0.157	0.000	D	F	1605.4	250.976	0.177	-3.383	851.902	1490.871	0.478	-	-0.939	0.168	-	-	-	-	-	-	-	FREEWAY_SMOOTH	Urban	F	1011101000011101	0000000000010000	-	-	-	-	-	-	-	-	-	-	Terminate	
Unknown	121.98577	01/15/0117 10:41.59	00007319	16.131	Inter752t1-3	-0.291	2	2	246.946	24.444	-14.3	0.155	0.000	D	F	1599.2	247.503	0.232	-3.373	836.907	1485.149	0.484	-	-1.030	0.147	-	-	-	-	-	-	-	FREEWAY_SMOOTH	Urban	F	1011101000011101	0000000000010000	-	-	-	-	-	-	-	-	-	-	Terminate	
Unknown	122.98579	01/15/0117 10:42.00	00007379	16.227	Inter752t1-3	-0.173	2	2	242.955	24.444	-23.4	0.138	0.000	D	F	1546.4	242.738	0.176	-3.295	822.215	1478.362	0.491	-	-1.631	0.052	-	-	-	-	-	-	-	FREEWAY_SMOOTH	Urban	F	1011101000011101	0000000000010000	-	-	-	-	-	-	-	-	-	-	Terminate	
Unknown	123.98581	01/15/0117 10:42.01	00007439	16.274	Inter752t1-3	-0.436	2	2	238.949	24.444	-15.1	0.123	0.000	D	F	1516.9	237.476	0.113	-3.354	808.164	1470.205	0.476	-	-1.201	0.037	-	-	-	-	-	-	-	FREEWAY_SMOOTH	Urban	F	1011101000011101	0000000000010000	-	-	-	-	-	-	-	-	-	-	Terminate	
Unknown	124.98583	01/15/0117 10:42.02	00007499	16.107	Inter752t1-3	-0.849	2	2	234.949	24.444	-11.1	0.078	0.000	D	F	1350.3	233.426	0.103	-3.385	794.833	1460.987	0.452	-	-1.000	-0.189	-	-	-	-	-	-	-	FREEWAY_SMOOTH	Urban	F	1011101000011101	0000000000010000	-	-	-	-	-	-	-	-	-	-	Terminate	
Unknown	125.98586	01/15/0117 10:42.03	00007559	15.941	Inter752t1-3	-1.029	2	2	231.061	24.444	-3.5	0.079	0.000	D	F	1364.8	231.636	0.234	-3.459	782.176	1451.159	0.441	-	-0.381	-0.167	-	-	-	-	-	-	-	FREEWAY_SMOOTH	Urban	F	1011101000011101	0000000000010000	-	-	-	-	-	-	-	-	-	-	Terminate	
Unknown	126.98587	01/15/0117 10:42.04	00007619	15.770	Inter752t1-3	-0.585	2	2	227.103	24.444	-12.2	0.085	0.000	D	F	1374.4	229.493	0.343	-3.398	769.945	1441.068	0.467	-	-0.821	-0.166	-	-	-	-	-	-	-	FREEWAY_SMOOTH	Urban	F	1011101000011101	0000000000010000	-	-	-	-	-	-	-	-	-	-	Terminate	
Unknown	127.98589	01/15/0117 10:42.05	00007679	15.614	Inter752t1-3	-0.016	2	2	223.196	24.444	-28.0	0.088	0.000	D	F	1381.6	224.190	0.253	-3.259	758.458	1430.383	0.502	-	-1.895	-0.141	-	-	-	-	-	-	-	FREEWAY_SMOOTH	Urban	F	1011101000011101	0000000000010000	-	-	-	-	-	-	-	-	-	-	Terminate	
Unknown	128.98592	01/15/0117 10:42.06	00007739	15.485	Inter752t1-3	-0.162	2	2	219.406	24.444	-22.9	0.083	0.000	D	F	1375.0	217.183	0.061	-3.288	748.345	1418.586	0.493	-	-1.733	-0.109	-	-	-	-	-	-	-	FREEWAY_SMOOTH	Urban	F	1011101000011101	0000000000010000	-	-	-	-	-	-	-	-	-	-	Terminate	
Unknown	129.98593	01/15/0117 10:42.07	00007799	15.401	Inter752t1-3	-0.823	2	2	215.606	24.444	11.7	0.090	0.000	D	F	1385.5	214.347	0.114	-3.575	739.516	1405.921	0.453	-	0.353	-0.086	-	-	-	-	-	-	-	FREEWAY_SMOOTH	Urban	F	1011101000011101	0000000000010000	-	-	-	-	-	-	-	-	-	-	Terminate	
Unknown	130.98595	01/15/0117 10:42.08	00007859	15.280	Inter752t1-3	-0.697	2	2	211.835	24.444	-26.8	0.085	0.000	D	F	1369.9	212.864	0.271	-3.302	730.934	1393.200	0.461	-	-1.482	-0.127	-	-	-	-	-	-	-	FREEWAY_SMOOTH	Urban	F	1011101000011101	0000000000010000	-	-	-	-	-	-	-	-	-	-	Terminate	
Unknown	131.98598	01/15/0117 10:42.09	00007919	15.203	Inter752t1-3	-0.692	2	2	208.081	24.444	-0.4	0.097	0.000	D	F	1412.6	208.043	0.202	-3.474	723.369	1379.982	0.461	-	-0.400	-0.047	-	-	-	-	-	-	-	FREEWAY_SMOOTH	Urban	F	1011101000011101	0000000000010000	-	-	-	-	-	-	-	-	-	-	Terminate	
Unknown	132.98599	01/15/0117 10:42.10	00007979	15.158	Inter752t1-3	-0.531	2	2	204.335	24.444	-18.2	0.108	0.000	D	F	1444.5	204.863	0.232	-3.346	716.569	1366.414	0.470	-	-1.226	-0.014	-	-	-	-	-	-	-	FREEWAY_SMOOTH	Urban	F	1011101000011101	0000000000010000	-	-	-	-	-	-	-	-	-	-	Terminate	
Unknown	133.98601	01/15/0117 10:42.11	00008039	15.167	Inter752t1-3	-0.463	2	2	200.592	24.444	-16.3	0.115	0.000	D	F	1474.1	200.570	0.208	-3.366	710.762	1352.412	0.474	-	-1.110	0.034	-	-	-	-	-	-	-	FREEWAY_SMOOTH	Urban	F	1011101000011101	0000000000010000	-	-	-	-	-	-	-	-	-	-	Terminate	
Unknown	134.98604	01/15/0117 10:42.12	00008099	15.237	Inter752t1-3	-0.553	2	2	196.814	24.444	-17.3	0.146	0.000	D	F	1543.9	196.066	-0.056	-3.239	706.018	1337.977	0.456	-	-1.184	0.084	-	-	-	-	-	-	-	FREEWAY_SMOOTH	Urban	F	1011101000011101	0000000000010000	-	-	-	-	-	-	-	-	-	-	Terminate	
Unknown	135.98605	01/15/0117 10:42.13	00008159	15.366	Inter752t1-3	-0.829	2	2	193.346	24.444	-9.9	0.160	0.000	D	F	1599.7	192.117	-0.039	-2.900	702.350	1323.130	0.394	-	-0.862	0.154	-	-	-	-	-	-	-	FREEWAY_SMOOTH	Urban	F	1011101000011101	0000000000010000	-	-	-	-	-	-	-	-	-	-	Terminate	
Unknown	136.98607	01/15/0117 10:42.14	00008219	15.486	Inter752t1-3	-0.909	2	2	190.238	24.444	2.0	0.159	0.000	D	F	1595.0	191.444	0.086	-2.651	699.317	1308.004	0.345	-	0.012	0.132	-	-	-	-	-	-	-	FREEWAY_SMOOTH	Urban	F	1011101000011101	0000000000010000	-	-	-	-	-	-	-	-	-	-	Terminate	
Unknown	137.98610	01/15/0117 10:42.15	00008279	15.613	Inter752t1-3	-0.388	2	2	187.498	24.444	-14.3	0.160	0.000	D	F	1600.2	189.674	0.108	-2.157	696.441	1292.722	0.319	-	-0.845	0.130	-	-	-	-	-	-	-	FREEWAY_SMOOTH	Urban	F	1011101000011101	0000000000010000	-	-	-	-	-	-	-	-	-	-	Terminate	
Unknown	138.98611	01/15/0117 10:42.16	00008339	15.741	Inter752t1-3	0.019	2	2	185.190	24.444	-17.4	0.162	0.000	D	F	1603.0	185.705	0.014	-1.732	694.338	1277.189	0.282	-	-1.140	0.125	-	-	-	-	-	-	-	FREEWAY_SMOOTH	Urban	F	1011101000011101	0000000000010000	-	-	-	-	-	-	-	-	-	-	Terminate	
Unknown	139.98613	01/15/0117 10:42.17	00008399	15.873	Inter752t1-3	-0.097	2	2	183.267	24.444	-8.3	0.160	0.000	D	F	1610.7	181.860	-0.036	-1.388	693.318	1261.418	0.227	-	-0.757	0.132	-	-	-	-	-	-	-	FREEWAY_SMOOTH	Urban	F	1011101000011101	0000000000010000	-	-	-	-	-	-	-	-	-	-	Terminate	
Unknown	140.98616	01/15/0117 10:42.18	00008459	16.011	Inter752t1-3	-0.391	2	2	181.774	24.444	4.9	0.160	0.000	D	F	1612.7	181.536	0.012	-1.122	692.935	1245.479	0.169	-	0.202	0.136	-	-	-	-	-	-	-	FREEWAY_SMOOTH	Urban	F	1011101000011101	0000000000010000	-	-	-	-	-	-	-	-	-	-	Terminate	
Unknown	141.98618	01/15/0117 10:42.19	00008519	16.139	Inter752t1-3	-0.275	2	2	180.725	24.444	-3.7	0.164	0.000	D	F	1615.5	181.527	0.023	-0.670	692.488	1229.410	0.119	-	-0.203	0.127	-	-	-	-	-	-	-	FREEWAY_SMOOTH	Urban	F	1011101000011101	0000000000010000	-	-	-	-	-	-	-	-	-	-	Terminate	
Unknown	142.98619	01/15/0117 10:42.20	00008579	16.356	Inter752t1-3	-0.076	2	2	180.130	24.444	-3.5	0.192	0.000	D	F	1709.9	180.656	0.018	-0.265	692.184	1213.182	0.066	-	-0.217	0.273	-	-	-	-	-	-	-	FREEWAY_SMOOTH	Urban	F	1011101000011101	0000000000010000	-	-	-	-	-	-	-	-	-	-	Terminate	
Unknown	143.98621	01/15/0117 10:42.21	00008639	16.462	Inter754t3-3	0.740	2	2	180.000	11.111	-1.9	0.132	0.000	D	F	1547.8	180.377	0.232	0.008	692.053	1196.754	0.025	-	-0.066	0.057	-	-	-	Ambient374	4.035	66.422	10.280	PAVEMENT_GENERAL	Urban	F	1011101000011101	0000000000010000	-	-	-	-	-	-	-	-	-	-	Terminate	
Unknown	144.98624	01/15/0117 10:42.22	00008699	16.536	Inter754t3-3	0.769	2	2	180.000	11.111	-3.5	0.173	0.000	D	F	1654.6	179.692	0.194	0.029	692.024	1180.272	0.026	-	-0.222	0.196	-	-	-	Ambient374	3.625	59.938	9.170	PAVEMENT_GENERAL	Urban	F	1011101000011101	0000000000010000	-	-	-	-	-	-	-	-	-	-	Terminate	
Unknown	145.98625	01/15/0117 10:42.23	00008759	16.697	Inter754t3-3	0.707	2	2	180.000	11.111	4.8	0.129	0.000	D	F	1547.7	180.293	0.191	-0.046	692.086	1163.640	0.026	-	0.344	0.036	-	-	-	Ambient374	3.192	53.303	7.959	PAVEMENT_GENERAL	Urban	F	1011101000011101	0000000000010000	-	-	-	-	-	-	-	-	-	-	Terminate	
Unknown	146.98627	01/15/0117 10:42.24	00008819	16.385	Inter754t3-3	0.817	2	2	180.000	11.111	-7.9	0.000	0.000	D	F	1117.3	180.132	0.185	0.063	691.976	1147.034	0.029	-	-0.397	-0.552	-	-	-	Ambient374	2.850	46.697	7.314	PAVEMENT_GENERAL	Urban	F	1011101000011101	0000000000010000	-	-	-	-	-	-	-	-	-	-	Terminate	
Unknown	147.98630	01/15/0117 10:42.25	00008879	15.863	Inter754t3-3	0.587	2	2	180.000	11.111	-4.5	0.011	0.000	D	F	1083.3	178.057	0.187	0.062	692.206	1130.919	0.029	-	-0.460	-0.491	-	-	-	Ambient374	2.558	40.582	6.922	PAVEMENT_GENERAL	Urban	F	1011101000011101	0000000000010000	-	-	-	-	-	-	-	-	-	-	Terminate	
Unknown	148.98631	01/15/0117 10:42.26	00008939	15.407	Inter754t3-3	0.074	2	2	180.000	11.111	18.5	0.023	0.000	D	F	1125.6	178.964	0.188	-0.140	692.719	1115.299	0.029	-	0.966	-0.427	-	-	-	Ambient374	2.269	34.965	6.467	PAVEMENT_GENERAL	Urban	F	1011101000011101	0000000000010000	-	-	-	-	-	-	-	-	-	-	Terminate	
Unknown	149.98633	01/15/0117 10:42.27	00008999	15.072	Inter754t3-3	0.138	2	2	180.000	11.111	-10.1	0.055	0.000	D	F	1214.6	180.428	0.192	0.071	692.656	1100.075	0.028	-	-0.457	-0.276	-	-	-	Ambient374	1.819	27.410	5.404	PAVEMENT_GENERAL	Urban	F	1011101000011101	0000000000010000	-	-	-	-	-	-	-	-	-	-	Terminate	
Unknown	150.98636	01/15/0117 10:42.28	00009059	14.808	Inter754t11-0	0.307	LT1	0	176.930	11.111	-2.7	0.056	0.000	D	F	1216.1	178.264	0.192	0.023	692.834	1085.139	0.028	-	-0.277	-0.255	-	-	-	Ambient374	1.675	24.809	5.160	PAVEMENT_GENERAL	Urban	F	1011101000011101	0000000000010000	-	-	-	-	-	-	-	-	-	-	Terminate	
Unknown	151.98637	01/15/0117 10:42.29	00009119	14.692	Inter754t11-0	0.544	LT1	0	176.272	11.111	-4.6	0.131	0.000	D	F	1490.2	177.341	0.195	0.031	693.383	1070.436	0.026	-	-0.247	0.081	-	-	-	Ambient374	1.369	20.109	4.286	PAVEMENT_GENERAL	Urban	F	1011101000011101	0000000000010000	-	-	-	-	-	-	-	-	-	-	Terminate	
Unknown	152.98639	01/15/0117 10:42.30	00009179	14.596	Inter754t11-0	0.731	LT1	0	176.649	11.111	3.4	0.000	0.000	D	F	1397.1	176.859	0.189	-0.014	694.151	1055.735	0.029	-	0.101	-0.572	-	-	-	Ambient374	1.055	15.394	3.349	PAVEMENT_GENERAL	Urban	F	1011101000011101	0000000000010000	-	-	-	-	-	-	-	-	-	-	Terminate	
Unknown	153.98642	01/15/0117 10:42.31	00009239	13.356	Inter754t9-0	1.735	1	1	179.994	11.111	9.0	0.000	0.125	D	F	1289.7	179.674	0.159	-0.088	694.667	1041.593	0.032	-	0.676	-2.067	-	-	-	Ambient374	0.836	11.166	3.328	PAVEMENT_GENERAL	Urban	F	1011101000011101	0000000000010000	-	-	-	-	-	-	-	-	-	-	Terminate	
Unknown	154.98643	01/15/0117 10:42.32	00009299	12.042	Inter754t11-0	1.369	LT1	0	178.656	11.111	-19.5	0.000	0.000	D	F	1183.1	177.788	0.187	0.110	694.822	1029.071	0.029	-	-0.892	-0.536	-	-	-	Ambient374	0.718	8.645	4.233	PAVEMENT_GENERAL	Urban	F	1011101000011101	0000000000010000	-	-	-	-	-	-	-	-	-	-	Terminate	
Unknown	155.98645	01/15/0117 10:42.33	00009359	11.514	Inter754t1-1	0.764	1	1	180.000	11.111	13.7	0.000	0.000	D	F	1131.1	175.154	0.192	-0.056	695.639	1017.324	0.029	-	0.337	-0.525	-	-	-	Ambient374	0.600	6.903	4.559	PAVEMENT_GENERAL	Urban	F	1011101000011101	0000000000010000	-	-	-	-	-	-	-	-	-	-	Terminate	
Unknown	156.98647	01/15/0117 10:42.34	00009419	10.974	Inter754t1-1	0.519	1	1	180.000	11.111	23.6	0.000	0.000	D	F	1078.3	182.562	0.182	-0.133	695.885	1006.093	0.029	-	1.100	-0.522	-	-	-	Ambient374	0.517	5.674	5.822	PAVEMENT_GENERAL	Urban	F	1011101000011101	0000000000010000	-	-	-	-	-	-	-	-	-	-	Terminate	
Unknown	157.98650	01/15/0117 10:42.35	00009479	10.462	Inter686t1-0	1.125	1	1	180.000	11.111	-19.7	0.000	0.000	D	F	1028.0	182.447	0.193	0.093	695.271	995.393	0.029	-	-0.675	-0.512	-	-	-	Ambient374	0.475	4.975	10.765	PAVEMENT_GENERAL	Urban	F	1011101000011101	0000000000010000	-	-	-	-	-	-	-	-	-	-	Terminate	
Unknown	158.98651	01/15/0117 10:42.36	00009539	9.953	Inter686t1-0	1.144	1	1	180.000	11.111	-26.4	0.000	0.000	D	F	978.1	177.984	0.192	0.110	695.252	985.188	0.029	-	-0.859	-0.509	-	-	-	Ambient374	0.479	4.771	-	PAVEMENT_GENERAL	Urban	F	1011101000011101	0000000000010000	-	-	-	-	-	-	-	-	-	-	Terminate	
Unknown	159.98653	01/15/0117 10:42.37	00009599	9.455	Inter686t1-0	0.409	1	1	180.000	11.111	9.3	0.000	0.000	D	F	929.1	174.568	0.195	-0.038	695.987	975.514	0.029	-	0.204	-0.494	-	-	-	Ambient374	0.539	5.099	-	PAVEMENT_GENERAL	Urban	F	1011101000011101	0000000000010000	-	-	-	-	-	-	-	-	-	-	Terminate	
Unknown	160.98656	01/15/0117 10:42.38	00009659	8.955	Inter686t1-0	-0.001	1	1	180.000	11.111	28.1	0.000	0.000	D	F	880.2	180.190	0.191	-0.097	696.398	966.324	0.029	-	0.777	-0.494	-	-	-	Ambient374	0.660	5.910	-	PAVEMENT_GENERAL	Urban	F	1011101000011101	0000000000010000	-	-	-	-	-	-	-	-	-	-	Terminate	
Unknown	161.98657	01/15/0117 10:42.39	00009719	8.482	Inter686t1-0	0.161	1	1	180.000	11.111	-19.5	0.058	0.000	D	F	1028.6	180.442	0.198	0.068	696.236	957.612	0.028	-	-0.472	-0.376	-	-	-	Ambient374	0.849	7.199	-	PAVEMENT_GENERAL	Urban	F	1011101000011101	0000000000010000	-	-	-	-	-	-	-	-	-	-	Terminate	
Unknown	162.98659	01/15/0117 10:42.40	00009779	9.171	Inter686t1-0	0.053	1	1	180.000	11.111	11.9	0.210	0.000	D	F	1780.1	179.172	0.213	-0.045	696.343	948.875	0.021	-	0.279	1.104	-	-	-	Ambient374	0.923	8.463	-	PAVEMENT_GENERAL	Urban	F	1011101000011101	0000000000010000	-	-	-	-	-	-	-	-	-	-	Terminate	
Unknown	163.98662	01/15/0117 10:42.41	00009839	10.418	Inter686t1-0	0.095	1	1	180.000	11.111	-2.5	0.252	0.000	D	F	2024.6	180.792	0.212	0.007	696.301	939.089	0.021	-	-0.023	1.257	-	-	-	Ambient374	0.833	8.678	20.787	PAVEMENT_GENERAL	Urban	F	1011101000011101	0000000000010000	-	-	-	-	-	-	-	-	-	-	Terminate	
Unknown	164.98663	01/15/0117 10:42.42	00009899	11.669	Inter686t1-0	0.127	1	1	180.000	11.111	-4.4	0.273	0.000	D	F	2151.5	179.464	0.210	0.026	696.269	928.042	0.021	-	-0.217	1.194	-	-	-	Ambient374	0.654	7.632	4.574	PAVEMENT_GENERAL	Urban	F	1011101000011101	0000000000010000	-	-	-	-	-	-	-	-	-	-	Terminate	
Unknown	165.98665	01/15/0117 10:42.43	00009959	11.863	Inter686t1-0	-0.007	1	1	180.000	11.111	2.3	0.000	0.039	D	F	1208.4	179.483	0.187	-0.013	696.403	916.072	0.028	-	0.096	-0.648	-	-	-	Ambient374	0.477	5.664	3.041	PAVEMENT_GENERAL	Urban	F	1011101000011101	0000000000010000	-	-	-	-	-	-	-	-	-	-	Terminate	
Unknown	166.98668	01/15/0117 10:42.44	00010019	9.776	Inter686t1-0	-0.052	1	1	180.000	11.111	3.7	0.000	0.143	D	F	942.4	180.109	0.164	-0.016	696.448	905.167	0.033	-	0.121	-2.320	-	-	-	Ambient374	0.487	4.760	-	PAVEMENT_GENERAL	Urban	F	1011101000011101	0000000000010000	-	-	-	-	-	-	-	-	-	-	Terminate	
Unknown	167.98669	01/15/0117 10:42.45	00010079	8.064	Inter686t1-0	0.001	1	1	180.000	11.111	-1.3	0.000	0.000	D	F	793.0	180.455	0.208	0.005	696.395	896.427	0.029	-	-0.030	-0.472	-	-	-	Ambient374	0.747	6.021	-	PAVEMENT_GENERAL	Urban	F	1011101000011101	0000000000010000	-	-	-	-	-	-	-	-	-	-	Terminate	
