"Name"	"Project"	"Time"	ZoneName	Time	SystemTime	Frame	Velocity	LaneName	LanePos	LaneIndex	LaneCount	LaneHeading	SpeedLimit	Steer	Accel	Brake	Gear	Horn	SubjectEngineRPM	SubjectHeading	SubjectPitch	SubjectRoll	SubjectX	SubjectY	SubjectZ	Signal	LatAccel	LongAccel	Collision	CollisionAngle	CollisionVelocity	VehAhead	HeadwayTime	HeadwayDist	TTC	TerrainType	CultureType	Slip	DigitalInputs	DigitalInputs2	ActiveTrigger	EntityName	DistToEntity	TimeToEntity	EntityVelocity	EntityAccel	EntityHeading	EntityX	EntityY	EntityZ	GrabData	
"Student22mode3"	"Tanvi_6"	"Feb 15, 2017 10:46:18 AM"	Unknown	0.98335	01/15/0117 10:46.23	00000059	0.002	Inter625t13-0	-0.088	1	2	0.000	11.111	7.6	0.111	0.000	D	F	0.0	0.002	0.153	-0.002	1503.500	523.206	0.019	-	-0.000	0.000	-	-	-	-	-	-	-	PAVEMENT_GENERAL	Urban	F	1011101000011101	0000000000010000	-	car	928.855	774705.562	0.000	0.000	180.000	696.000	987.000	-0.000	Terminate	
"Student22mode3"	"Tanvi_6"	"Feb 15, 2017 10:46:18 AM"	Unknown	1.98337	01/15/0117 10:46.24	00000119	0.000	Inter625t13-0	-0.088	1	2	0.000	11.111	12.9	0.122	0.000	D	F	0.0	0.001	0.197	-0.000	1503.500	523.208	0.026	-	0.000	-0.001	-	-	-	-	-	-	-	PAVEMENT_GENERAL	Urban	F	1011101000011101	0000000000010000	-	car	928.855	4213363.500	0.000	0.000	180.000	696.000	987.000	-0.000	Terminate	
"Student22mode3"	"Tanvi_6"	"Feb 15, 2017 10:46:18 AM"	Unknown	2.98339	01/15/0117 10:46.25	00000179	-0.000	Inter625t13-0	-0.088	1	2	0.000	11.111	12.4	0.118	0.000	D	F	0.0	0.000	0.207	-0.000	1503.500	523.208	0.028	-	0.000	-0.000	-	-	-	-	-	-	-	PAVEMENT_GENERAL	Urban	F	1111101000011101	0000000000010000	-	car	928.854	-116246672.000	0.000	0.000	180.000	696.000	987.000	-0.000	Terminate	
"Student22mode3"	"Tanvi_6"	"Feb 15, 2017 10:46:18 AM"	Unknown	3.98341	01/15/0117 10:46.26	00000239	-0.000	Inter625t13-0	-0.088	1	2	0.000	11.111	12.0	0.109	0.000	D	F	0.0	0.000	0.210	-0.000	1503.500	523.208	0.028	-	0.000	-0.000	-	-	-	-	-	-	-	PAVEMENT_GENERAL	Urban	F	1011101000011101	0000000000010000	-	car	928.854	-22308618.000	0.000	0.000	180.000	696.000	987.000	-0.000	Terminate	
"Student22mode3"	"Tanvi_6"	"Feb 15, 2017 10:46:18 AM"	Unknown	4.98343	01/15/0117 10:46.27	00000299	-0.000	Inter625t13-0	-0.088	1	2	0.000	11.111	11.7	0.111	0.000	D	F	0.0	0.000	0.210	-0.000	1503.500	523.208	0.028	-	0.000	0.000	-	-	-	-	-	-	-	PAVEMENT_GENERAL	Urban	F	1011101000011101	0000000000010000	-	car	928.854	-24860132.000	0.000	0.000	180.000	696.000	987.000	-0.000	Terminate	
"Student22mode3"	"Tanvi_6"	"Feb 15, 2017 10:46:18 AM"	Unknown	5.98345	01/15/0117 10:46.28	00000359	-0.000	Inter625t13-0	-0.088	1	2	0.000	11.111	10.1	0.108	0.000	D	F	0.0	0.000	0.209	-0.000	1503.500	523.208	0.028	-	0.000	0.000	-	-	-	-	-	-	-	PAVEMENT_GENERAL	Urban	F	1011101000011101	0000000000010000	-	car	928.854	-34381212.000	0.000	0.000	180.000	696.000	987.000	-0.000	Terminate	
"Student22mode3"	"Tanvi_6"	"Feb 15, 2017 10:46:18 AM"	Unknown	6.98347	01/15/0117 10:46.29	00000419	-0.000	Inter625t13-0	-0.088	1	2	0.000	11.111	13.7	0.111	0.000	D	F	0.0	0.000	0.209	0.000	1503.500	523.208	0.028	-	-0.000	0.000	-	-	-	-	-	-	-	PAVEMENT_GENERAL	Urban	F	1011101000011101	0000000000010000	-	car	928.854	-48206684.000	0.000	0.000	180.000	696.000	987.000	-0.000	Terminate	
"Student22mode3"	"Tanvi_6"	"Feb 15, 2017 10:46:18 AM"	Unknown	7.98349	01/15/0117 10:46.30	00000479	-0.000	Inter625t13-0	-0.088	1	2	0.000	11.111	12.5	0.111	0.000	D	F	0.0	0.000	0.209	0.000	1503.500	523.208	0.028	-	0.000	0.000	-	-	-	-	-	-	-	PAVEMENT_GENERAL	Urban	F	1011101000011101	0000000000010000	-	car	928.854	-64946052.000	0.000	0.000	180.000	696.000	987.000	-0.000	Terminate	
"Student22mode3"	"Tanvi_6"	"Feb 15, 2017 10:46:18 AM"	Unknown	8.98351	01/15/0117 10:46.31	00000539	-0.000	Inter625t13-0	-0.088	1	2	0.000	11.111	11.8	0.115	0.000	D	F	0.0	0.000	0.209	0.000	1503.500	523.208	0.028	-	0.000	0.000	-	-	-	-	-	-	-	PAVEMENT_GENERAL	Urban	F	1011101000011101	0000000000010000	-	car	928.854	-83368880.000	0.000	0.000	180.000	696.000	987.000	-0.000	Terminate	
"Student22mode3"	"Tanvi_6"	"Feb 15, 2017 10:46:18 AM"	Unknown	9.98353	01/15/0117 10:46.32	00000599	-0.000	Inter625t13-0	-0.088	1	2	0.000	11.111	12.8	0.113	0.000	D	F	0.0	0.000	0.209	0.000	1503.500	523.208	0.028	-	-0.000	0.000	-	-	-	-	-	-	-	PAVEMENT_GENERAL	Urban	F	1011101000011101	0000000000010000	-	car	928.854	-102689280.000	0.000	0.000	180.000	696.000	987.000	-0.000	Terminate	
"Student22mode3"	"Tanvi_6"	"Feb 15, 2017 10:46:18 AM"	Unknown	10.98355	01/15/0117 10:46.33	00000659	-0.000	Inter625t13-0	-0.088	1	2	0.000	11.111	13.9	0.116	0.000	D	F	0.0	0.000	0.209	0.000	1503.500	523.208	0.028	-	0.000	0.000	-	-	-	-	-	-	-	PAVEMENT_GENERAL	Urban	F	1011101000011101	0000000000010000	-	car	928.854	-122599048.000	0.000	0.000	180.000	696.000	987.000	-0.000	Terminate	
"Student22mode3"	"Tanvi_6"	"Feb 15, 2017 10:46:18 AM"	Unknown	11.98357	01/15/0117 10:46.34	00000719	0.000	Inter625t13-0	-0.088	1	2	0.000	11.111	19.6	0.118	0.000	D	F	66.7	0.000	0.209	-0.000	1503.500	523.208	0.028	-	0.000	0.001	-	-	-	-	-	-	-	PAVEMENT_GENERAL	Urban	F	1011101000011111	0000000000010000	-	car	928.854	37881640.000	0.000	0.000	180.000	696.000	987.000	-0.000	Terminate	
"Student22mode3"	"Tanvi_6"	"Feb 15, 2017 10:46:18 AM"	Unknown	12.98359	01/15/0117 10:46.35	00000779	1.615	Inter625t13-0	-0.081	1	2	0.000	11.111	20.3	0.116	0.000	D	F	400.0	0.222	0.233	-0.005	1503.507	523.691	0.014	-	0.050	2.786	-	-	-	-	-	-	-	PAVEMENT_GENERAL	Urban	F	1111101000011101	0000000000010000	-	car	928.620	1163.022	0.000	0.000	180.000	696.000	987.000	-0.000	Terminate	
"Student22mode3"	"Tanvi_6"	"Feb 15, 2017 10:46:18 AM"	Unknown	13.98361	01/15/0117 10:46.36	00000839	3.763	Inter625t13-0	-0.014	1	2	0.000	11.111	8.6	0.116	0.000	D	F	1471.9	1.292	0.216	0.004	1503.574	526.473	0.017	-	-0.004	1.684	-	-	-	-	-	-	-	PAVEMENT_GENERAL	Urban	F	1011101000011101	0000000000010000	-	car	927.297	518.116	0.000	0.000	180.000	696.000	987.000	-0.000	Terminate	
"Student22mode3"	"Tanvi_6"	"Feb 15, 2017 10:46:18 AM"	Unknown	14.98363	01/15/0117 10:46.37	00000899	5.188	Inter625t13-0	0.124	1	2	0.000	11.111	4.2	0.122	0.000	D	F	1677.8	1.828	0.214	-0.006	1503.712	530.995	0.020	-	0.039	1.186	-	-	-	-	-	-	-	PAVEMENT_GENERAL	Urban	F	1011101000011101	0000000000010000	-	car	925.185	384.661	0.000	0.000	180.000	696.000	987.000	-0.000	Terminate	
"Student22mode3"	"Tanvi_6"	"Feb 15, 2017 10:46:18 AM"	Unknown	15.98365	01/15/0117 10:46.38	00000959	6.301	Inter625t49-0	0.308	1	1	0.006	11.111	-1.4	0.129	0.000	D	F	1493.0	1.759	0.210	0.002	1503.896	536.760	0.022	-	-0.019	0.946	-	-	-	-	-	-	-	PAVEMENT_GENERAL	Urban	F	1011101000011101	0000000000010000	-	car	922.526	318.454	0.000	0.000	180.000	696.000	987.000	-0.000	Terminate	
"Student22mode3"	"Tanvi_6"	"Feb 15, 2017 10:46:18 AM"	Unknown	16.98367	01/15/0117 10:46.39	00001019	7.193	Inter625t49-0	0.506	1	1	0.007	11.111	-1.1	0.143	0.000	D	F	1556.7	1.667	0.210	0.002	1504.095	543.510	0.022	-	-0.018	0.864	-	-	-	-	-	-	-	PAVEMENT_GENERAL	Urban	F	1011101000011101	0000000000010000	-	car	919.433	280.668	0.000	0.000	180.000	696.000	987.000	-0.000	Terminate	
"Student22mode3"	"Tanvi_6"	"Feb 15, 2017 10:46:18 AM"	Unknown	17.98369	01/15/0117 10:46.40	00001079	8.104	Inter625t49-0	0.705	1	1	0.008	11.111	-2.2	0.148	0.000	D	F	1645.7	1.354	0.209	0.006	1504.295	551.146	0.022	-	-0.048	0.901	-	-	-	-	-	-	-	PAVEMENT_GENERAL	Urban	F	1011101000011101	0000000000010000	-	car	915.959	249.124	0.000	0.000	180.000	696.000	987.000	-0.000	Terminate	
"Student22mode3"	"Tanvi_6"	"Feb 15, 2017 10:46:18 AM"	Unknown	18.98371	01/15/0117 10:46.41	00001139	8.886	Inter625t49-0	0.892	1	1	0.006	11.111	2.3	0.164	0.000	D	F	1734.5	1.378	0.210	-0.010	1504.483	559.630	0.022	-	0.062	0.841	-	-	-	-	-	-	-	PAVEMENT_GENERAL	Urban	F	1011101000011101	0000000000010000	-	car	912.129	230.178	0.000	0.000	180.000	696.000	987.000	-0.000	Terminate	
"Student22mode3"	"Tanvi_6"	"Feb 15, 2017 10:46:18 AM"	Unknown	19.98373	01/15/0117 10:46.42	00001199	9.679	Inter625t49-0	1.077	1	1	0.005	11.111	-11.4	0.168	0.000	D	F	1803.6	0.664	0.209	0.042	1504.669	568.920	0.023	-	-0.306	0.770	-	-	-	11	22.806	220.745	-	PAVEMENT_GENERAL	Urban	F	1011101000011101	0000000000010000	-	car	907.990	208.962	0.000	0.000	180.000	696.000	987.000	-0.000	Terminate	
"Student22mode3"	"Tanvi_6"	"Feb 15, 2017 10:46:18 AM"	Unknown	20.98375	01/15/0117 10:46.43	00001259	10.443	Inter625t49-0	1.071	1	1	0.005	11.111	8.0	0.185	0.000	D	F	1902.9	359.915	0.209	-0.038	1504.664	578.989	0.023	-	0.220	0.785	-	-	-	11	21.885	228.549	-	PAVEMENT_GENERAL	Urban	F	1011101000011101	0000000000010000	-	car	903.406	191.475	0.000	0.000	180.000	696.000	987.000	-0.000	Terminate	
"Student22mode3"	"Tanvi_6"	"Feb 15, 2017 10:46:18 AM"	Unknown	21.98377	01/15/0117 10:46.44	00001319	11.336	Inter625t15-0	1.118	1	2	0.000	11.111	-7.6	0.210	0.000	D	F	2050.9	0.065	0.208	0.033	1504.711	589.884	0.022	-	-0.243	0.927	-	-	-	11	20.778	235.537	-	PAVEMENT_GENERAL	Urban	F	1011101000011101	0000000000010000	-	car	898.593	180.254	0.000	0.000	180.000	696.000	987.000	-0.000	Terminate	
"Student22mode3"	"Tanvi_6"	"Feb 15, 2017 10:46:18 AM"	Unknown	22.98379	01/15/0117 10:46.45	00001379	12.283	Inter614t1-0	1.022	1	2	0.000	11.111	4.8	0.219	0.000	D	F	2177.8	359.420	0.207	-0.020	1504.615	601.690	0.022	-	0.136	0.952	-	-	-	-	-	-	-	PAVEMENT_GENERAL	Urban	F	1011101000011101	0000000000010000	-	car	893.365	165.572	0.000	0.000	180.000	696.000	987.000	-0.000	Terminate	
"Student22mode3"	"Tanvi_6"	"Feb 15, 2017 10:46:18 AM"	Unknown	23.98381	01/15/0117 10:46.46	00001439	13.191	Inter614t1-0	0.996	1	2	0.000	11.111	1.3	0.228	0.000	D	F	2286.2	0.263	0.206	-0.006	1504.589	614.429	0.022	-	0.090	0.921	-	-	-	-	-	-	-	PAVEMENT_GENERAL	Urban	F	1011101000011101	0000000000010000	-	car	887.936	162.476	0.000	0.000	180.000	696.000	987.000	-0.000	Terminate	
"Student22mode3"	"Tanvi_6"	"Feb 15, 2017 10:46:18 AM"	Unknown	24.98383	01/15/0117 10:46.47	00001499	14.085	Inter614t1-0	1.093	1	2	0.000	11.111	0.7	0.226	0.000	D	F	1990.9	0.509	0.202	-0.004	1504.686	628.086	0.023	-	0.031	0.763	-	-	-	-	-	-	-	PAVEMENT_GENERAL	Urban	F	1011101000011101	0000000000010000	-	car	882.396	157.591	0.000	0.000	180.000	696.000	987.000	-0.000	Terminate	
"Student22mode3"	"Tanvi_6"	"Feb 15, 2017 10:46:18 AM"	Unknown	25.98385	01/15/0117 10:46.48	00001559	14.764	Inter614t1-0	1.254	1	2	0.000	11.111	-3.3	0.222	0.000	D	F	1935.6	0.758	0.201	0.018	1504.847	642.518	0.023	-	-0.073	0.647	-	-	-	-	-	-	-	PAVEMENT_GENERAL	Urban	F	1011101000011101	0000000000010000	-	car	876.789	156.431	0.000	0.000	180.000	696.000	987.000	-0.000	Terminate	
"Student22mode3"	"Tanvi_6"	"Feb 15, 2017 10:46:18 AM"	Unknown	26.98387	01/15/0117 10:46.49	00001619	15.362	Inter614t1-0	1.369	1	2	0.000	11.111	-0.6	0.192	0.000	D	F	1881.9	0.165	0.197	0.006	1504.962	657.593	0.024	-	-0.066	0.463	-	-	-	-	-	-	-	PAVEMENT_GENERAL	Urban	F	1011101000011101	0000000000010000	-	car	871.099	151.426	0.000	0.000	180.000	696.000	987.000	-0.000	Terminate	
"Student22mode3"	"Tanvi_6"	"Feb 15, 2017 10:46:18 AM"	Unknown	27.98389	01/15/0117 10:46.50	00001679	15.753	Inter614t1-0	1.411	1	2	0.000	11.111	1.5	0.185	0.000	D	F	1887.1	0.204	0.197	-0.009	1505.004	673.154	0.025	-	0.066	0.368	-	-	-	-	-	-	-	PAVEMENT_GENERAL	Urban	F	1011101000011101	0000000000010000	-	car	865.388	153.295	0.000	0.000	180.000	696.000	987.000	-0.000	Terminate	
"Student22mode3"	"Tanvi_6"	"Feb 15, 2017 10:46:18 AM"	Unknown	28.98391	01/15/0117 10:46.51	00001739	16.099	Inter614t1-0	1.501	1	2	0.000	11.111	-7.1	0.183	0.000	D	F	1894.9	0.222	0.197	0.044	1505.094	689.085	0.025	-	-0.289	0.324	-	-	-	-	-	-	-	PAVEMENT_GENERAL	Urban	F	1011101000011101	0000000000010000	-	car	859.840	156.216	0.000	0.000	180.000	696.000	987.000	-0.000	Terminate	
"Student22mode3"	"Tanvi_6"	"Feb 15, 2017 10:46:18 AM"	Unknown	29.98393	01/15/0117 10:46.52	00001799	16.420	Inter614t1-0	1.436	1	2	0.000	11.111	5.9	0.182	0.000	D	F	1917.6	359.781	0.196	-0.038	1505.029	705.344	0.025	-	0.267	0.315	-	-	-	-	-	-	-	PAVEMENT_GENERAL	Urban	F	1011101000011101	0000000000010000	-	car	854.296	156.529	0.000	0.000	180.000	696.000	987.000	-0.000	Terminate	
"Student22mode3"	"Tanvi_6"	"Feb 15, 2017 10:46:18 AM"	Unknown	30.98395	01/15/0117 10:46.53	00001859	16.722	Inter614t1-0	1.515	1	2	0.000	11.111	2.1	0.180	0.000	D	F	1939.9	0.811	0.195	-0.030	1505.108	721.916	0.025	-	0.216	0.294	-	-	-	-	-	-	-	PAVEMENT_GENERAL	Urban	F	1011101000011101	0000000000010000	-	car	849.066	170.460	0.000	0.000	180.000	696.000	987.000	-0.000	Terminate	
"Student22mode3"	"Tanvi_6"	"Feb 15, 2017 10:46:18 AM"	Unknown	31.98397	01/15/0117 10:46.54	00001919	17.014	Inter614t1-0	1.582	1	2	0.000	11.111	-7.1	0.190	0.000	D	F	1973.9	359.016	0.194	0.079	1505.175	738.783	0.025	-	-0.621	0.311	-	-	-	-	-	-	-	PAVEMENT_GENERAL	Urban	F	1011101000011101	0000000000010000	-	car	844.031	160.216	0.000	0.000	180.000	696.000	987.000	-0.000	Terminate	
"Student22mode3"	"Tanvi_6"	"Feb 15, 2017 10:46:18 AM"	Unknown	32.98399	01/15/0117 10:46.55	00001979	17.333	Inter614t1-0	1.236	1	2	0.000	11.111	-0.9	0.192	0.000	D	F	2002.0	358.892	0.195	-0.003	1504.829	755.953	0.025	-	0.030	0.324	-	-	-	-	-	-	-	PAVEMENT_GENERAL	Urban	F	1011101000011101	0000000000010000	-	car	838.822	165.044	0.000	0.000	180.000	696.000	987.000	-0.000	Terminate	
"Student22mode3"	"Tanvi_6"	"Feb 15, 2017 10:46:18 AM"	Unknown	33.98401	01/15/0117 10:46.56	00002039	17.681	Inter614t1-0	0.829	1	2	0.000	11.111	6.4	0.208	0.000	D	F	2052.8	358.453	0.195	-0.028	1504.422	773.449	0.025	-	0.145	0.383	-	-	-	-	-	-	-	PAVEMENT_GENERAL	Urban	F	1011101000011101	0000000000010000	-	car	833.792	167.574	0.000	0.000	180.000	696.000	987.000	-0.000	Terminate	
"Student22mode3"	"Tanvi_6"	"Feb 15, 2017 10:46:18 AM"	Unknown	34.98403	01/15/0117 10:46.57	00002099	18.086	Inter614t1-0	0.555	1	2	0.000	11.111	-0.9	0.228	0.000	D	F	2109.9	359.737	0.194	-0.007	1504.148	791.324	0.025	-	0.105	0.438	-	-	-	-	-	-	-	PAVEMENT_GENERAL	Urban	F	1011101000011101	0000000000010000	-	car	829.141	191.189	0.000	0.000	180.000	696.000	987.000	-0.000	Terminate	
"Student22mode3"	"Tanvi_6"	"Feb 15, 2017 10:46:18 AM"	Unknown	35.98405	01/15/0117 10:46.58	00002159	18.543	Inter612t1-0	0.476	1	2	0.000	11.111	4.9	0.247	0.000	D	F	2156.2	0.139	0.195	-0.045	1504.069	809.637	0.025	-	0.332	0.464	-	-	-	-	-	-	-	PAVEMENT_GENERAL	Urban	F	1011101000011101	0000000000010000	-	car	824.945	209.832	0.000	0.000	180.000	696.000	987.000	-0.000	Terminate	
"Student22mode3"	"Tanvi_6"	"Feb 15, 2017 10:46:18 AM"	Unknown	36.98407	01/15/0117 10:46.59	00002219	19.004	Inter612t1-0	0.562	1	2	0.000	11.111	-3.4	0.250	0.000	D	F	2195.4	0.022	0.194	0.035	1504.155	828.411	0.025	-	-0.261	0.458	-	-	-	-	-	-	-	PAVEMENT_GENERAL	Urban	F	1011101000011101	0000000000010000	-	car	821.209	224.844	0.000	0.000	180.000	696.000	987.000	-0.000	Terminate	
"Student22mode3"	"Tanvi_6"	"Feb 15, 2017 10:46:18 AM"	Unknown	37.98409	01/15/0117 10:47.00	00002279	19.479	Inter612t1-0	0.556	1	2	0.000	11.111	1.5	0.268	0.000	D	F	2246.8	0.173	0.193	-0.020	1504.149	847.650	0.024	-	0.157	0.490	-	-	-	-	-	-	-	PAVEMENT_GENERAL	Urban	F	1011101000011101	0000000000010000	-	car	817.716	251.456	0.000	0.000	180.000	696.000	987.000	-0.000	Terminate	
"Student22mode3"	"Tanvi_6"	"Feb 15, 2017 10:46:18 AM"	Unknown	38.98411	01/15/0117 10:47.01	00002339	19.975	Inter612t1-0	0.654	1	2	0.000	11.111	1.4	0.275	0.000	D	F	2290.3	0.455	0.192	-0.013	1504.247	867.376	0.024	-	0.096	0.494	-	-	-	-	-	-	-	PAVEMENT_GENERAL	Urban	F	1011101000011101	0000000000010000	-	car	814.692	294.362	0.000	0.000	180.000	696.000	987.000	-0.000	Terminate	
"Student22mode3"	"Tanvi_6"	"Feb 15, 2017 10:46:18 AM"	Unknown	39.98413	01/15/0117 10:47.02	00002399	19.826	Inter612t1-0	0.850	1	2	0.000	11.111	-0.1	0.000	0.000	D	F	1386.3	0.730	0.180	-0.010	1504.443	887.385	0.029	-	0.069	-0.595	-	-	-	-	-	-	-	PAVEMENT_GENERAL	Urban	F	1011101000011101	0000000000010000	-	car	812.198	373.617	0.000	0.000	180.000	696.000	987.000	-0.000	Terminate	
"Student22mode3"	"Tanvi_6"	"Feb 15, 2017 10:46:18 AM"	Unknown	40.98415	01/15/0117 10:47.03	00002459	19.238	Inter612t1-0	1.008	1	2	0.000	11.111	-3.9	0.002	0.000	D	F	1312.3	359.802	0.182	0.059	1504.601	906.916	0.029	-	-0.441	-0.584	-	-	-	-	-	-	-	PAVEMENT_GENERAL	Urban	F	1011101000011101	0000000000010000	-	car	810.198	412.914	0.000	0.000	180.000	696.000	987.000	-0.000	Terminate	
"Student22mode3"	"Tanvi_6"	"Feb 15, 2017 10:46:18 AM"	Unknown	41.98417	01/15/0117 10:47.04	00002519	18.660	Inter612t1-0	0.920	1	2	0.000	11.111	0.9	0.004	0.000	D	F	1273.0	359.920	0.184	-0.022	1504.513	925.864	0.029	-	0.166	-0.571	-	-	-	-	-	-	-	PAVEMENT_GENERAL	Urban	F	1011101000011101	0000000000010000	-	car	808.461	564.249	0.000	0.000	180.000	696.000	987.000	-0.000	Terminate	
"Student22mode3"	"Tanvi_6"	"Feb 15, 2017 10:46:18 AM"	Unknown	42.98419	01/15/0117 10:47.05	00002579	18.375	Inter612t1-0	0.864	1	2	0.000	11.111	-1.0	0.152	0.000	D	F	1665.9	359.606	0.190	0.014	1504.457	944.320	0.026	-	-0.109	0.047	-	-	-	-	-	-	-	PAVEMENT_GENERAL	Urban	F	1011101000011101	0000000000010000	-	car	807.223	737.346	0.000	0.000	180.000	696.000	987.000	-0.000	Terminate	
"Student22mode3"	"Tanvi_6"	"Feb 15, 2017 10:46:18 AM"	Unknown	43.98421	01/15/0117 10:47.06	00002639	18.483	Inter612t1-0	0.784	1	2	0.000	11.111	3.4	0.199	0.000	D	F	1787.8	0.101	0.194	-0.030	1504.378	962.737	0.026	-	0.232	0.235	-	-	-	-	-	-	-	PAVEMENT_GENERAL	Urban	F	1011101000011101	0000000000010000	-	car	806.382	1544.675	0.000	0.000	180.000	696.000	987.000	-0.000	Terminate	
"Student22mode3"	"Tanvi_6"	"Feb 15, 2017 10:46:18 AM"	Unknown	44.98423	01/15/0117 10:47.07	00002699	18.810	Inter612t1-0	0.882	1	2	0.000	11.111	-1.4	0.240	0.000	D	F	1862.3	0.428	0.193	0.005	1504.475	981.375	0.025	-	-0.028	0.355	-	-	-	-	-	-	-	PAVEMENT_GENERAL	Urban	F	1011101000011101	0000000000010000	-	car	806.135	-84322.234	0.000	0.000	180.000	696.000	987.000	-0.000	Terminate	
"Student22mode3"	"Tanvi_6"	"Feb 15, 2017 10:46:18 AM"	Unknown	45.98425	01/15/0117 10:47.08	00002759	19.174	Inter613t1-0	0.966	1	2	0.000	11.111	-0.0	0.259	0.000	D	F	1889.5	0.023	0.192	0.008	1504.559	1000.365	0.025	-	-0.073	0.370	-	-	-	-	-	-	-	PAVEMENT_GENERAL	Urban	F	1011101000011101	0000000000010000	-	car	806.310	-2485.063	0.000	0.000	180.000	696.000	987.000	-0.000	Terminate	
"Student22mode3"	"Tanvi_6"	"Feb 15, 2017 10:46:18 AM"	Unknown	46.98427	01/15/0117 10:47.09	00002819	19.527	Inter613t1-0	0.980	1	2	0.000	11.111	0.4	0.228	0.000	D	F	1883.1	0.054	0.191	-0.003	1504.574	1019.718	0.025	-	0.018	0.334	-	-	-	-	-	-	-	PAVEMENT_GENERAL	Urban	F	1111101000011101	0000000000010000	-	car	806.876	-998.753	0.000	0.000	180.000	696.000	987.000	-0.000	Terminate	
"Student22mode3"	"Tanvi_6"	"Feb 15, 2017 10:46:18 AM"	Unknown	47.98429	01/15/0117 10:47.10	00002879	19.355	Inter613t1-0	1.003	1	2	0.000	11.111	0.4	0.053	0.000	D	F	1439.8	0.047	0.184	0.001	1504.596	1039.217	0.028	-	-0.004	-0.370	-	-	-	-	-	-	-	PAVEMENT_GENERAL	Urban	F	1011101000011101	0000000000010000	-	car	807.921	-639.674	0.000	0.000	180.000	696.000	987.000	-0.000	Terminate	
"Student22mode3"	"Tanvi_6"	"Feb 15, 2017 10:46:18 AM"	Unknown	48.98431	01/15/0117 10:47.11	00002939	19.213	Inter613t1-0	1.029	1	2	0.000	11.111	-0.9	0.217	0.000	D	F	1847.7	0.031	0.191	0.008	1504.622	1058.440	0.026	-	-0.060	0.244	-	-	-	-	-	-	-	PAVEMENT_GENERAL	Urban	F	1011101000011101	0000000000010000	-	car	809.412	-475.822	0.000	0.000	180.000	696.000	987.000	-0.000	Terminate	
"Student22mode3"	"Tanvi_6"	"Feb 15, 2017 10:46:18 AM"	Unknown	49.98433	01/15/0117 10:47.12	00002999	19.526	Inter613t1-0	1.030	1	2	0.000	11.111	2.4	0.208	0.000	D	F	1846.5	0.094	0.191	-0.019	1504.623	1077.809	0.025	-	0.132	0.291	-	-	-	-	-	-	-	PAVEMENT_GENERAL	Urban	F	1011101000011101	0000000000010000	-	car	811.347	-366.959	0.000	0.000	180.000	696.000	987.000	-0.000	Terminate	
"Student22mode3"	"Tanvi_6"	"Feb 15, 2017 10:46:18 AM"	Unknown	50.98435	01/15/0117 10:47.13	00003059	19.423	Inter613t1-0	1.124	1	2	0.000	11.111	1.6	0.071	0.000	D	F	1474.5	0.492	0.184	-0.014	1504.718	1097.334	0.028	-	0.111	-0.308	-	-	-	-	-	-	-	PAVEMENT_GENERAL	Urban	F	1011101000011101	0000000000010000	-	car	813.850	-291.626	0.000	0.000	180.000	696.000	987.000	-0.000	Terminate	
"Student22mode3"	"Tanvi_6"	"Feb 15, 2017 10:46:18 AM"	Unknown	51.98437	01/15/0117 10:47.14	00003119	19.151	Inter613t1-0	1.250	1	2	0.000	11.111	-6.7	0.088	0.000	D	F	1505.7	359.707	0.186	0.075	1504.843	1116.616	0.028	-	-0.562	-0.239	-	-	-	-	-	-	-	PAVEMENT_GENERAL	Urban	F	1011101000011101	0000000000010000	-	car	816.803	-278.423	0.000	0.000	180.000	696.000	987.000	-0.000	Terminate	
"Student22mode3"	"Tanvi_6"	"Feb 15, 2017 10:46:18 AM"	Unknown	52.98439	01/15/0117 10:47.15	00003179	18.949	Inter613t1-0	1.086	1	2	0.000	11.111	3.8	0.104	0.000	D	F	1533.4	359.702	0.187	-0.035	1504.680	1135.659	0.028	-	0.266	-0.174	-	-	-	-	-	-	-	PAVEMENT_GENERAL	Urban	F	1011101000011101	0000000000010000	-	car	819.871	-246.284	0.000	0.000	180.000	696.000	987.000	-0.000	Terminate	
"Student22mode3"	"Tanvi_6"	"Feb 15, 2017 10:46:18 AM"	Unknown	53.98441	01/15/0117 10:47.16	00003239	18.842	Inter613t1-0	1.018	1	2	0.000	11.111	-4.5	0.136	0.000	D	F	1624.8	359.569	0.189	0.037	1504.611	1154.545	0.027	-	-0.271	-0.050	-	-	-	-	-	-	-	PAVEMENT_GENERAL	Urban	F	1011101000011101	0000000000010000	-	car	823.427	-223.508	0.000	0.000	180.000	696.000	987.000	-0.000	Terminate	
"Student22mode3"	"Tanvi_6"	"Feb 15, 2017 10:46:18 AM"	Unknown	54.98443	01/15/0117 10:47.17	00003299	18.885	Inter613t1-0	0.794	1	2	0.000	11.111	8.8	0.168	0.000	D	F	1716.8	359.451	0.190	-0.068	1504.387	1173.394	0.026	-	0.432	0.095	-	-	-	-	-	-	-	PAVEMENT_GENERAL	Urban	F	1011101000011101	0000000000010000	-	car	827.238	-203.416	0.000	0.000	180.000	696.000	987.000	-0.000	Terminate	
"Student22mode3"	"Tanvi_6"	"Feb 15, 2017 10:46:18 AM"	Unknown	55.98445	01/15/0117 10:47.18	00003359	18.536	Inter613t1-0	0.845	1	2	0.000	11.111	-0.1	0.000	0.000	D	F	1263.7	0.751	0.182	-0.014	1504.439	1192.177	0.029	-	0.123	-0.581	-	-	-	-	-	-	-	PAVEMENT_GENERAL	Urban	F	1011101000011101	0000000000010000	-	car	831.709	-173.459	0.000	0.000	180.000	696.000	987.000	-0.000	Terminate	
"Student22mode3"	"Tanvi_6"	"Feb 15, 2017 10:46:18 AM"	Unknown	56.98447	01/15/0117 10:47.19	00003419	17.959	Inter615t9-0	1.053	1	2	0.000	11.111	-1.6	0.000	0.000	D	F	1224.7	0.499	0.185	0.013	1504.646	1210.423	0.029	-	-0.111	-0.573	-	-	-	-	-	-	-	PAVEMENT_GENERAL	Urban	F	1011101000011101	0000000000010000	-	car	836.584	-169.577	0.000	0.000	180.000	696.000	987.000	-0.000	Terminate	
"Student22mode3"	"Tanvi_6"	"Feb 15, 2017 10:46:18 AM"	Unknown	57.98449	01/15/0117 10:47.20	00003479	17.366	Inter615t31-0	1.356	1	1	355.148	11.111	-32.4	0.000	0.000	D	F	1183.3	355.505	0.172	0.320	1504.341	1228.083	0.030	-	-2.396	-0.588	-	-	-	22	2.682	46.576	2.682	PAVEMENT_GENERAL	Urban	F	1011101000011101	0000000000010000	-	car	841.167	-230.846	0.000	0.000	180.000	696.000	987.000	-0.000	Terminate	
"Student22mode3"	"Tanvi_6"	"Feb 15, 2017 10:46:18 AM"	Unknown	58.98451	01/15/0117 10:47.21	00003539	16.771	Inter615t31-0	0.619	1	1	356.013	11.111	17.5	0.000	0.021	D	F	1141.8	350.737	0.182	-0.064	1502.165	1245.002	0.029	-	0.361	-0.685	-	-	-	22	1.767	29.640	1.767	PAVEMENT_GENERAL	Urban	F	1011101000011101	0000000000010000	-	car	844.084	-341.176	0.000	0.000	180.000	696.000	987.000	-0.000	Terminate	
"Student22mode3"	"Tanvi_6"	"Feb 15, 2017 10:46:18 AM"	Unknown	59.98453	01/15/0117 10:47.22	00003599	13.382	Inter615t31-0	0.033	1	1	356.903	11.111	41.9	0.000	0.499	D	F	910.4	358.759	-0.093	-0.372	1500.477	1260.492	0.042	-	2.197	-6.229	-	-	-	22	1.050	14.047	1.050	PAVEMENT_GENERAL	Urban	F	1011101000011101	0000000000010000	-	car	847.335	-210.156	0.000	0.000	180.000	696.000	987.000	-0.000	Terminate	
"Student22mode3"	"Tanvi_6"	"Feb 15, 2017 10:46:18 AM"	Unknown	60.98455	01/15/0117 10:47.23	00003659	5.289	Inter615t11-0	0.653	LT1	2	0.000	11.111	30.1	0.000	0.904	D	F	500.6	4.779	-0.381	-0.058	1500.716	1270.123	0.045	-	0.440	-9.172	-	-	-	22	0.833	4.403	0.833	PAVEMENT_GENERAL	Urban	F	1011101000011101	0000000000010000	-	car	850.709	-392.931	0.000	0.000	180.000	696.000	987.000	-0.000	Terminate	
"Student22mode3"	"Tanvi_6"	"Feb 15, 2017 10:46:18 AM"	Unknown	61.98457	01/15/0117 10:47.24	00003719	-0.009	Inter615t11-0	0.808	LT1	2	0.000	11.111	19.2	0.000	0.833	D	F	477.5	5.606	0.092	0.004	1500.870	1271.656	0.040	-	-0.012	-0.064	-	-	-	22	-	2.871	-	PAVEMENT_GENERAL	Urban	F	1011101000011101	0000000000010000	-	car	851.365	214188.516	0.000	0.000	180.000	696.000	987.000	-0.000	Terminate	
"Student22mode3"	"Tanvi_6"	"Feb 15, 2017 10:46:18 AM"	Unknown	62.98459	01/15/0117 10:47.25	00003779	0.002	Inter615t11-0	0.808	LT1	2	0.000	11.111	15.3	0.000	0.000	D	F	477.5	5.605	0.198	0.000	1500.870	1271.655	0.032	-	0.001	0.019	-	-	-	22	-	2.872	-	PAVEMENT_GENERAL	Urban	F	1011101000011101	0000000000010000	-	car	851.364	-918893.875	0.000	0.000	180.000	696.000	987.000	-0.000	Terminate	
"Student22mode3"	"Tanvi_6"	"Feb 15, 2017 10:46:18 AM"	Unknown	63.98461	01/15/0117 10:47.26	00003839	0.011	Inter615t11-0	0.809	LT1	2	0.000	11.111	12.6	0.000	0.000	D	F	477.5	5.610	0.193	-0.000	1500.871	1271.664	0.024	-	-0.000	0.004	-	-	-	22	256.919	2.862	256.919	PAVEMENT_GENERAL	Urban	F	1111101000011101	0000000000010000	-	car	851.369	-180228.250	0.000	0.000	180.000	696.000	987.000	-0.000	Terminate	
"Student22mode3"	"Tanvi_6"	"Feb 15, 2017 10:46:18 AM"	Unknown	64.98463	01/15/0117 10:47.27	00003899	0.093	Inter615t11-0	0.813	LT1	2	0.000	11.111	4.2	0.000	0.000	D	F	477.5	5.618	0.204	-0.000	1500.875	1271.700	0.025	-	0.001	0.178	-	-	-	22	30.509	2.826	30.509	PAVEMENT_GENERAL	Urban	F	1011101000011101	0000000000010000	-	car	851.384	-21667.328	0.000	0.000	180.000	696.000	987.000	-0.000	Terminate	
"Student22mode3"	"Tanvi_6"	"Feb 15, 2017 10:46:18 AM"	Unknown	65.98465	01/15/0117 10:47.28	00003959	0.299	Inter615t11-0	0.832	LT1	2	0.000	11.111	2.5	0.000	0.000	D	F	477.5	5.632	0.205	0.000	1500.895	1271.896	0.025	-	0.000	0.186	-	-	-	22	10.326	3.087	-	PAVEMENT_GENERAL	Urban	F	1011101000011101	0000000000010000	-	car	851.468	-6708.918	0.000	0.000	180.000	696.000	987.000	-0.000	Terminate	
"Student22mode3"	"Tanvi_6"	"Feb 15, 2017 10:46:18 AM"	Unknown	66.98467	01/15/0117 10:47.29	00004019	0.589	Inter615t11-0	0.870	LT1	2	0.000	11.111	-3.9	0.132	0.000	D	F	1294.0	5.624	0.262	0.000	1500.932	1272.275	0.025	-	-0.007	2.162	-	-	-	22	8.579	5.055	-	PAVEMENT_GENERAL	Urban	F	1011101000011101	0000000000010000	-	car	851.630	-3402.224	0.000	0.000	180.000	696.000	987.000	-0.000	Terminate	
"Student22mode3"	"Tanvi_6"	"Feb 15, 2017 10:46:18 AM"	Unknown	67.98470	01/15/0117 10:47.30	00004079	3.612	Inter615t11-0	1.070	LT1	2	0.000	11.111	-13.1	0.148	0.000	D	F	1532.0	5.214	0.204	0.014	1501.132	1274.491	0.015	-	-0.090	2.084	-	-	-	22	2.004	7.239	-	PAVEMENT_GENERAL	Urban	F	1011101000011101	0000000000010000	-	car	852.561	-561.358	0.000	0.000	180.000	696.000	987.000	-0.000	Terminate	
"Student22mode3"	"Tanvi_6"	"Feb 15, 2017 10:46:18 AM"	Unknown	68.98471	01/15/0117 10:47.31	00004139	5.799	Inter615t11-0	1.380	LT1	2	0.000	11.111	-33.7	0.213	0.000	D	F	1983.1	3.223	0.223	0.063	1501.443	1279.173	0.016	-	-0.441	2.200	-	-	-	22	1.537	8.914	-	PAVEMENT_GENERAL	Urban	F	1011101000011101	0000000000010000	-	car	854.439	-374.594	0.000	0.000	180.000	696.000	987.000	-0.000	Terminate	
"Student22mode3"	"Tanvi_6"	"Feb 15, 2017 10:46:18 AM"	Unknown	69.98473	01/15/0117 10:47.32	00004199	7.598	-	-	INT	0	-	-	-65.6	0.118	0.000	D	F	1587.9	357.424	0.193	0.163	1501.401	1285.971	0.020	-	-1.253	0.794	-	-	-	-	-	-	-	PAVEMENT_GENERAL	Urban	F	1011101000011101	0000000000010000	-	car	856.741	-369.093	0.000	0.000	180.000	696.000	987.000	-0.000	Terminate	
"Student22mode3"	"Tanvi_6"	"Feb 15, 2017 10:46:18 AM"	Unknown	70.98476	01/15/0117 10:47.33	00004259	7.327	-Inter615t61-0	-0.556	-1	1	89.733	11.111	-142.4	0.004	0.000	D	F	745.1	342.877	0.178	0.335	1499.984	1293.372	0.030	-	-2.633	-0.617	-	-	-	-	-	-	-	PAVEMENT_GENERAL	Urban	F	1011101000011101	0000000000010000	-	car	858.021	-1796.389	0.000	0.000	180.000	696.000	987.000	-0.000	Terminate	
"Student22mode3"	"Tanvi_6"	"Feb 15, 2017 10:46:18 AM"	Unknown	71.98477	01/15/0117 10:47.34	00004319	7.396	-Inter615t83-0	0.132	-1	1	179.883	11.111	-126.8	0.139	0.000	D	F	1419.7	322.155	0.188	0.285	1496.294	1299.559	0.024	-	-2.286	0.493	-	-	-	24	16.689	123.428	-	PAVEMENT_GENERAL	Urban	F	1011101000011101	0000000000010000	-	car	856.805	407.634	0.000	0.000	180.000	696.000	987.000	-0.000	Terminate	
"Student22mode3"	"Tanvi_6"	"Feb 15, 2017 10:46:18 AM"	Unknown	72.98479	01/15/0117 10:47.35	00004379	8.069	Inter615t75-0	0.925	1	1	269.734	11.111	-147.7	0.171	0.000	D	F	1526.5	302.552	0.189	0.415	1490.391	1304.497	0.024	-	-3.147	0.569	-	-	-	22	3.371	27.197	-	PAVEMENT_GENERAL	Urban	F	1111101000011101	0000000000010000	-	car	853.129	181.357	0.000	0.000	180.000	696.000	987.000	-0.000	Terminate	
"Student22mode3"	"Tanvi_6"	"Feb 15, 2017 10:46:18 AM"	Unknown	73.98481	01/15/0117 10:47.36	00004439	8.746	Inter615t77-0	-0.059	1	1	269.734	11.111	-119.3	0.178	0.000	D	F	1575.1	278.909	0.175	0.370	1482.450	1307.076	0.025	-	-2.962	0.658	-	-	-	-	-	-	-	PAVEMENT_GENERAL	Urban	F	1011101000011101	0000000000010000	-	car	846.730	113.011	0.000	0.000	180.000	696.000	987.000	-0.000	Terminate	
"Student22mode3"	"Tanvi_6"	"Feb 15, 2017 10:46:18 AM"	Unknown	74.98483	01/15/0117 10:47.37	00004499	9.469	Inter615t3-4	-0.262	2	2	270.000	11.111	-16.0	0.180	0.000	D	F	1620.6	264.042	0.202	0.013	1473.372	1306.869	0.023	-	-0.519	0.789	-	-	-	-	-	-	-	PAVEMENT_GENERAL	Urban	F	1011101000011101	0000000000010000	-	car	838.250	92.284	0.000	0.000	180.000	696.000	987.000	-0.000	Terminate	
"Student22mode3"	"Tanvi_6"	"Feb 15, 2017 10:46:18 AM"	Unknown	75.98486	01/15/0117 10:47.38	00004559	10.237	Inter615t17-0	-1.095	1	1	270.073	11.111	47.5	0.194	0.000	D	F	1673.4	267.763	0.206	-0.196	1463.557	1306.039	0.023	-	1.462	0.771	-	-	-	22	4.770	48.832	-	PAVEMENT_GENERAL	Urban	F	1011101000011101	0000000000010000	-	car	828.863	86.348	0.000	0.000	180.000	696.000	987.000	-0.000	Terminate	
"Student22mode3"	"Tanvi_6"	"Feb 15, 2017 10:46:18 AM"	Unknown	76.98487	01/15/0117 10:47.39	00004619	11.037	Inter615t17-0	-0.679	1	1	270.106	11.111	20.4	0.203	0.000	D	F	1725.0	275.513	0.201	-0.087	1452.940	1306.467	0.023	-	0.854	0.785	-	-	-	-	-	-	-	PAVEMENT_GENERAL	Urban	F	1011101000011101	0000000000010000	-	car	819.235	84.381	0.000	0.000	180.000	696.000	987.000	-0.000	Terminate	
"Student22mode3"	"Tanvi_6"	"Feb 15, 2017 10:46:18 AM"	Unknown	77.98489	01/15/0117 10:47.40	00004679	11.856	Inter615t17-0	0.529	1	1	270.085	11.111	-13.9	0.220	0.000	D	F	1803.9	275.571	0.207	0.064	1441.563	1307.696	0.023	-	-0.510	0.827	-	-	-	-	-	-	-	PAVEMENT_GENERAL	Urban	F	1011101000011101	0000000000010000	-	car	809.250	77.927	0.000	0.000	180.000	696.000	987.000	-0.000	Terminate	
"Student22mode3"	"Tanvi_6"	"Feb 15, 2017 10:46:18 AM"	Unknown	78.98492	01/15/0117 10:47.41	00004739	12.669	Inter615t17-0	1.237	1	1	270.061	11.111	-24.7	0.236	0.000	D	F	1846.3	270.833	0.202	0.150	1429.323	1308.424	0.023	-	-1.150	0.806	-	-	-	-	-	-	-	PAVEMENT_GENERAL	Urban	F	1011101000011101	0000000000010000	-	car	798.312	69.249	0.000	0.000	180.000	696.000	987.000	-0.000	Terminate	
"Student22mode3"	"Tanvi_6"	"Feb 15, 2017 10:46:18 AM"	Unknown	79.98493	01/15/0117 10:47.42	00004799	13.475	Inter615t1-3	1.201	2	2	270.000	11.111	14.6	0.243	0.000	D	F	1888.9	270.487	0.204	-0.098	1416.248	1308.401	0.023	-	0.687	0.779	-	-	-	-	-	-	-	PAVEMENT_GENERAL	Urban	F	1011101000011101	0000000000010000	-	car	786.346	64.150	0.000	0.000	180.000	696.000	987.000	-0.000	Terminate	
"Student22mode3"	"Tanvi_6"	"Feb 15, 2017 10:46:18 AM"	Unknown	80.98495	01/15/0117 10:47.43	00004859	14.235	Inter615t1-3	1.225	2	2	270.000	11.111	-8.3	0.259	0.000	D	F	1940.4	268.534	0.201	0.082	1402.392	1308.425	0.023	-	-0.664	0.756	-	-	-	-	-	-	-	PAVEMENT_GENERAL	Urban	F	1011101000011101	0000000000010000	-	car	773.723	59.050	0.000	0.000	180.000	696.000	987.000	-0.000	Terminate	
"Student22mode3"	"Tanvi_6"	"Feb 15, 2017 10:46:18 AM"	Unknown	81.98497	01/15/0117 10:47.44	00004919	14.975	Inter616t1-3	0.902	2	2	270.000	11.111	13.3	0.268	0.000	D	F	1983.1	269.756	0.201	-0.093	1387.788	1308.109	0.023	-	0.692	0.724	-	-	-	-	-	-	-	PAVEMENT_GENERAL	Urban	F	1011101000011101	0000000000010000	-	car	760.321	55.867	0.000	0.000	180.000	696.000	987.000	-0.000	Terminate	
"Student22mode3"	"Tanvi_6"	"Feb 15, 2017 10:46:18 AM"	Unknown	82.98499	01/15/0117 10:47.45	00004979	15.696	Inter616t1-3	0.968	2	2	270.000	11.111	-16.7	0.268	0.000	D	F	2020.7	269.773	0.200	0.113	1372.451	1308.174	0.023	-	-0.766	0.683	-	-	-	-	-	-	-	PAVEMENT_GENERAL	Urban	F	1011101000011101	0000000000010000	-	car	746.465	52.546	0.000	0.000	180.000	696.000	987.000	-0.000	Terminate	
"Student22mode3"	"Tanvi_6"	"Feb 15, 2017 10:46:18 AM"	Unknown	83.98502	01/15/0117 10:47.46	00005039	16.357	Inter616t1-3	0.622	2	2	270.000	11.111	8.3	0.249	0.000	D	F	2031.6	268.569	0.198	-0.053	1356.420	1307.828	0.024	-	0.343	0.600	-	-	-	-	-	-	-	PAVEMENT_GENERAL	Urban	F	1011101000011101	0000000000010000	-	car	731.865	49.163	0.000	0.000	180.000	696.000	987.000	-0.000	Terminate	
"Student22mode3"	"Tanvi_6"	"Feb 15, 2017 10:46:18 AM"	Unknown	84.98503	01/15/0117 10:47.47	00005099	16.844	Inter616t1-3	0.405	2	2	270.000	11.111	-7.9	0.182	0.000	D	F	1940.9	269.645	0.191	0.034	1339.795	1307.612	0.025	-	-0.194	0.282	-	-	-	-	-	-	-	PAVEMENT_GENERAL	Urban	F	1011101000011101	0000000000010000	-	car	716.851	47.400	0.000	0.000	180.000	696.000	987.000	-0.000	Terminate	
"Student22mode3"	"Tanvi_6"	"Feb 15, 2017 10:46:18 AM"	Unknown	85.98505	01/15/0117 10:47.48	00005159	17.144	Inter616t1-3	0.054	2	2	270.000	11.111	-6.3	0.203	0.000	D	F	2002.8	268.022	0.196	0.043	1322.815	1307.261	0.025	-	-0.353	0.365	-	-	-	-	-	-	-	PAVEMENT_GENERAL	Urban	F	1011101000011101	0000000000010000	-	car	701.532	45.182	0.000	0.000	180.000	696.000	987.000	-0.000	Terminate	
"Student22mode3"	"Tanvi_6"	"Feb 15, 2017 10:46:18 AM"	Unknown	86.98507	01/15/0117 10:47.49	00005219	17.585	Inter616t1-3	-0.659	2	2	270.000	11.111	17.0	0.222	0.000	D	F	2066.5	268.170	0.196	-0.128	1305.474	1306.548	0.024	-	0.899	0.462	-	-	-	-	-	-	-	PAVEMENT_GENERAL	Urban	F	1011101000011101	0000000000010000	-	car	685.804	43.331	0.000	0.000	180.000	696.000	987.000	-0.000	Terminate	
"Student22mode3"	"Tanvi_6"	"Feb 15, 2017 10:46:18 AM"	Unknown	87.98509	01/15/0117 10:47.50	00005279	18.057	Inter616t1-3	-0.742	2	2	270.000	11.111	5.7	0.259	0.000	D	F	2130.2	271.367	0.194	-0.080	1287.662	1306.465	0.024	-	0.619	0.518	-	-	-	-	-	-	-	PAVEMENT_GENERAL	Urban	F	1011101000011101	0000000000010000	-	car	670.041	42.734	0.000	0.000	180.000	696.000	987.000	-0.000	Terminate	
"Student22mode3"	"Tanvi_6"	"Feb 15, 2017 10:46:18 AM"	Unknown	88.98512	01/15/0117 10:47.51	00005339	18.571	Inter616t1-3	-0.367	2	2	270.000	11.111	-8.3	0.266	0.000	D	F	2172.5	270.473	0.194	0.072	1269.352	1306.840	0.024	-	-0.548	0.510	-	-	-	-	-	-	-	PAVEMENT_GENERAL	Urban	F	1011101000011101	0000000000010000	-	car	654.169	40.524	0.000	0.000	180.000	696.000	987.000	-0.000	Terminate	
"Student22mode3"	"Tanvi_6"	"Feb 15, 2017 10:46:18 AM"	Unknown	89.98513	01/15/0117 10:47.52	00005399	19.110	Inter616t1-3	-0.346	2	2	270.000	11.111	12.3	0.293	0.000	D	F	2236.0	270.085	0.194	-0.076	1250.517	1306.861	0.024	-	0.506	0.568	-	-	-	-	-	-	-	PAVEMENT_GENERAL	Urban	F	1011101000011101	0000000000010000	-	car	637.797	38.564	0.000	0.000	180.000	696.000	987.000	-0.000	Terminate	
"Student22mode3"	"Tanvi_6"	"Feb 15, 2017 10:46:18 AM"	Unknown	90.98515	01/15/0117 10:47.53	00005459	19.289	Inter616t1-3	-0.030	2	2	270.000	11.111	-5.0	0.000	0.000	D	F	1446.3	271.504	0.179	0.021	1231.199	1307.177	0.029	-	-0.090	-0.571	-	-	-	-	-	-	-	PAVEMENT_GENERAL	Urban	F	1011101000011101	0000000000010000	-	car	621.300	38.146	0.000	0.000	180.000	696.000	987.000	-0.000	Terminate	
"Student22mode3"	"Tanvi_6"	"Feb 15, 2017 10:46:18 AM"	Unknown	91.98518	01/15/0117 10:47.54	00005519	18.703	Inter616t1-3	0.239	2	2	270.000	11.111	1.7	0.000	0.000	D	F	1277.6	269.924	0.182	0.022	1212.204	1307.446	0.029	-	-0.241	-0.583	-	-	-	-	-	-	-	PAVEMENT_GENERAL	Urban	F	1011101000011101	0000000000010000	-	car	605.220	38.055	0.000	0.000	180.000	696.000	987.000	-0.000	Terminate	
"Student22mode3"	"Tanvi_6"	"Feb 15, 2017 10:46:18 AM"	Unknown	92.98519	01/15/0117 10:47.55	00005579	18.124	Inter617t1-3	0.257	2	2	270.000	11.111	-4.2	0.000	0.000	D	F	1235.9	269.969	0.185	0.036	1193.791	1307.464	0.029	-	-0.214	-0.575	-	-	-	-	-	-	-	PAVEMENT_GENERAL	Urban	F	1011101000011101	0000000000010000	-	car	589.665	38.680	0.000	0.000	180.000	696.000	987.000	-0.000	Terminate	
"Student22mode3"	"Tanvi_6"	"Feb 15, 2017 10:46:18 AM"	Unknown	93.98521	01/15/0117 10:47.56	00005639	17.573	Inter617t1-3	0.167	2	2	270.000	11.111	5.4	0.062	0.000	D	F	1343.3	269.908	0.188	-0.046	1175.951	1307.373	0.029	-	0.354	-0.448	-	-	-	-	-	-	-	PAVEMENT_GENERAL	Urban	F	1011101000011101	0000000000010000	-	car	574.695	39.278	0.000	0.000	180.000	696.000	987.000	-0.000	Terminate	
"Student22mode3"	"Tanvi_6"	"Feb 15, 2017 10:46:18 AM"	Unknown	94.98523	01/15/0117 10:47.57	00005699	17.398	Inter617t1-3	0.214	2	2	270.000	11.111	-2.4	0.072	0.000	D	F	1412.3	270.092	0.190	0.020	1158.483	1307.421	0.027	-	-0.146	-0.148	-	-	-	-	-	-	-	PAVEMENT_GENERAL	Urban	F	1011101000011101	0000000000010000	-	car	560.277	39.221	0.000	0.000	180.000	696.000	987.000	-0.000	Terminate	
"Student22mode3"	"Tanvi_6"	"Feb 15, 2017 10:46:18 AM"	Unknown	95.98525	01/15/0117 10:47.58	00005759	16.930	Inter617t1-3	0.194	2	2	270.000	11.111	0.7	0.104	0.000	D	F	1457.5	269.802	0.193	0.002	1141.315	1307.401	0.028	-	-0.015	-0.249	-	-	-	-	-	-	-	PAVEMENT_GENERAL	Urban	F	1011101000011101	0000000000010000	-	car	546.241	39.650	0.000	0.000	180.000	696.000	987.000	-0.000	Terminate	
"Student22mode3"	"Tanvi_6"	"Feb 15, 2017 10:46:18 AM"	Unknown	96.98528	01/15/0117 10:47.59	00005819	17.045	Inter617t1-3	0.144	2	2	270.000	11.111	-0.2	0.125	0.000	D	F	1565.5	269.807	0.191	0.003	1124.345	1307.351	0.026	-	-0.019	0.084	-	-	-	-	-	-	-	PAVEMENT_GENERAL	Urban	F	1011101000011101	0000000000010000	-	car	532.527	38.915	0.000	0.000	180.000	696.000	987.000	-0.000	Terminate	
"Student22mode3"	"Tanvi_6"	"Feb 15, 2017 10:46:18 AM"	Unknown	97.98529	01/15/0117 10:48.00	00005879	17.031	Inter617t1-3	0.106	2	2	270.000	11.111	6.1	0.166	0.000	D	F	1652.0	270.122	0.195	-0.037	1107.334	1307.313	0.026	-	0.276	0.162	-	-	-	-	-	-	-	PAVEMENT_GENERAL	Urban	F	1011101000011101	0000000000010000	-	car	518.981	38.687	0.000	0.000	180.000	696.000	987.000	-0.000	Terminate	
"Student22mode3"	"Tanvi_6"	"Feb 15, 2017 10:46:18 AM"	Unknown	98.98531	01/15/0117 10:48.01	00005939	17.187	Inter617t1-3	0.261	2	2	270.000	11.111	-0.6	0.164	0.000	D	F	1655.4	270.801	0.193	-0.002	1090.225	1307.468	0.026	-	0.035	0.152	-	-	-	-	-	-	-	PAVEMENT_GENERAL	Urban	F	1011101000011101	0000000000010000	-	car	505.689	38.358	0.000	0.000	180.000	696.000	987.000	-0.000	Terminate	
"Student22mode3"	"Tanvi_6"	"Feb 15, 2017 10:46:18 AM"	Unknown	99.98534	01/15/0117 10:48.02	00005999	17.216	Inter617t1-3	0.456	2	2	270.000	11.111	-3.0	0.000	0.000	D	F	1098.9	270.356	0.183	0.025	1072.993	1307.663	0.027	-	-0.199	-0.383	-	-	-	-	-	-	-	PAVEMENT_GENERAL	Urban	F	1011101000011101	0000000000010000	-	car	492.563	37.760	0.000	0.000	180.000	696.000	987.000	-0.000	Terminate	
"Student22mode3"	"Tanvi_6"	"Feb 15, 2017 10:46:18 AM"	Unknown	100.98535	01/15/0117 10:48.03	00006059	16.174	Inter617t1-3	0.521	2	2	270.000	11.111	4.1	0.000	0.212	D	F	1072.1	270.465	0.122	-0.034	1056.118	1307.728	0.032	-	0.249	-2.869	-	-	-	-	-	-	-	PAVEMENT_GENERAL	Urban	F	1011101000011101	0000000000010000	-	car	479.877	40.022	0.000	0.000	180.000	696.000	987.000	-0.000	Terminate	
"Student22mode3"	"Tanvi_6"	"Feb 15, 2017 10:46:18 AM"	Unknown	101.98537	01/15/0117 10:48.04	00006119	12.538	Inter617t1-3	0.689	2	2	270.000	11.111	-1.0	0.000	0.251	D	F	1020.3	270.785	0.138	0.005	1041.756	1307.896	0.036	-	-0.026	-3.699	-	-	-	-	-	-	-	PAVEMENT_GENERAL	Urban	F	1011101000011101	0000000000010000	-	car	469.362	51.737	0.000	0.000	180.000	696.000	987.000	-0.000	Terminate	
"Student22mode3"	"Tanvi_6"	"Feb 15, 2017 10:46:18 AM"	Unknown	102.98539	01/15/0117 10:48.05	00006179	9.057	Inter617t1-3	0.818	2	2	270.000	11.111	-1.2	0.000	0.200	D	F	864.3	270.577	0.152	0.004	1031.004	1308.024	0.035	-	-0.034	-3.101	-	-	-	-	-	-	-	PAVEMENT_GENERAL	Urban	F	1011101000011101	0000000000010000	-	car	461.628	71.286	0.000	0.000	180.000	696.000	987.000	-0.000	Terminate	
"Student22mode3"	"Tanvi_6"	"Feb 15, 2017 10:46:18 AM"	Unknown	103.98541	01/15/0117 10:48.06	00006239	8.197	Inter617t1-3	0.887	2	2	270.000	11.111	-0.6	0.000	0.000	D	F	805.6	270.410	0.196	0.002	1022.533	1308.094	0.028	-	-0.016	-0.476	-	-	-	-	-	-	-	PAVEMENT_GENERAL	Urban	F	1011101000011101	0000000000010000	-	car	455.598	78.504	0.000	0.000	180.000	696.000	987.000	-0.000	Terminate	
"Student22mode3"	"Tanvi_6"	"Feb 15, 2017 10:46:18 AM"	Unknown	104.98544	01/15/0117 10:48.07	00006299	8.264	Inter617t1-3	0.937	2	2	270.000	11.111	1.1	0.160	0.000	D	F	1501.6	270.325	0.208	-0.004	1014.438	1308.144	0.023	-	0.025	0.702	-	-	-	-	-	-	-	PAVEMENT_GENERAL	Urban	F	1011101000011101	0000000000010000	-	car	449.897	77.765	0.000	0.000	180.000	696.000	987.000	-0.000	Terminate	
"Student22mode3"	"Tanvi_6"	"Feb 15, 2017 10:46:18 AM"	Unknown	105.98545	01/15/0117 10:48.08	00006359	8.988	Inter617t1-3	0.999	2	2	270.000	11.111	-3.8	0.190	0.000	D	F	1615.0	270.383	0.208	0.014	1005.827	1308.206	0.023	-	-0.088	0.818	-	-	-	-	-	-	-	PAVEMENT_GENERAL	Urban	F	1011101000011101	0000000000010000	-	car	443.920	71.643	0.000	0.000	180.000	696.000	987.000	-0.000	Terminate	
"Student22mode3"	"Tanvi_6"	"Feb 15, 2017 10:46:18 AM"	Unknown	106.98547	01/15/0117 10:48.09	00006419	10.171	Inter618t1-1	0.308	2	2	270.000	24.444	-3.5	0.243	0.000	D	F	1993.5	269.740	0.210	0.014	996.281	1308.208	0.020	-	-0.108	1.271	-	-	-	31	1.870	19.021	70.300	FREEWAY_SMOOTH	Urban	F	1011101000011101	0000000000010000	-	car	437.349	62.663	0.000	0.000	180.000	696.000	987.000	-0.000	Terminate	
"Student22mode3"	"Tanvi_6"	"Feb 15, 2017 10:46:18 AM"	Unknown	107.98550	01/15/0117 10:48.10	00006479	11.359	Inter618t1-1	0.199	2	2	269.897	24.444	-3.7	0.243	0.000	D	F	2094.1	269.096	0.318	-0.120	985.505	1308.094	0.039	-	-0.139	1.131	-	-	-	31	1.675	19.028	-	FREEWAY_SMOOTH	Urban	F	1011101000011101	0000000000010000	-	car	429.976	55.565	0.000	0.000	180.000	696.000	987.000	-0.000	Terminate	
"Student22mode3"	"Tanvi_6"	"Feb 15, 2017 10:46:18 AM"	Unknown	108.98551	01/15/0117 10:48.11	00006539	12.439	Inter618t1-1	-0.018	2	2	269.525	24.444	-1.4	0.247	0.000	D	F	2219.3	268.469	0.310	-0.294	973.604	1307.824	0.062	-	-0.080	1.051	-	-	-	31	1.605	19.959	-	FREEWAY_SMOOTH	Urban	F	1011101000011101	0000000000010000	-	car	421.895	50.299	0.000	0.000	180.000	696.000	987.000	-0.000	Terminate	
"Student22mode3"	"Tanvi_6"	"Feb 15, 2017 10:46:18 AM"	Unknown	109.98553	01/15/0117 10:48.12	00006599	13.454	Inter618t1-1	-0.234	2	2	268.807	24.444	-2.2	0.229	0.000	D	F	2321.4	268.069	0.307	-0.467	960.656	1307.429	0.084	-	-0.124	0.929	-	-	-	31	1.622	21.820	-	FREEWAY_SMOOTH	Urban	F	1011101000011101	0000000000010000	-	car	413.233	46.365	0.000	0.000	180.000	696.000	987.000	-0.000	Terminate	
"Student22mode3"	"Tanvi_6"	"Feb 15, 2017 10:46:18 AM"	Unknown	110.98555	01/15/0117 10:48.13	00006659	14.097	Inter618t1-1	-0.373	2	2	267.672	24.444	-2.9	0.178	0.000	D	F	1802.9	267.414	0.302	-0.652	946.837	1306.878	0.111	-	-0.180	0.435	-	-	-	31	1.725	24.323	-	FREEWAY_SMOOTH	Urban	F	1011101000011101	0000000000010000	-	car	404.139	43.973	0.000	0.000	180.000	696.000	987.000	-0.000	Terminate	
"Student22mode3"	"Tanvi_6"	"Feb 15, 2017 10:46:18 AM"	Unknown	111.98557	01/15/0117 10:48.14	00006719	14.410	Inter618t1-1	-0.388	2	2	266.124	24.444	-7.3	0.134	0.000	D	F	1686.4	266.374	0.299	-0.825	932.580	1306.106	0.137	-	-0.370	0.187	-	-	-	31	1.881	27.110	-	FREEWAY_SMOOTH	Urban	F	1011101000011101	0000000000010000	-	car	394.879	42.474	0.000	0.000	180.000	696.000	987.000	-0.000	Terminate	
"Student22mode3"	"Tanvi_6"	"Feb 15, 2017 10:46:18 AM"	Unknown	112.98560	01/15/0117 10:48.15	00006779	14.518	Inter618t1-1	-0.361	2	2	264.139	24.444	-3.2	0.125	0.000	D	F	1675.1	264.255	0.302	-1.029	918.161	1304.924	0.163	-	-0.384	0.108	-	-	-	31	2.047	29.724	-	FREEWAY_SMOOTH	Urban	F	1011101000011101	0000000000010000	-	car	385.495	40.727	0.000	0.000	180.000	696.000	987.000	-0.000	Terminate	
"Student22mode3"	"Tanvi_6"	"Feb 15, 2017 10:46:18 AM"	Unknown	113.98561	01/15/0117 10:48.16	00006839	14.709	Inter618t1-1	-0.222	2	2	261.759	24.444	-9.6	0.150	0.000	D	F	1743.5	262.753	0.319	-1.197	903.651	1303.293	0.192	-	-0.563	0.220	-	-	-	31	2.239	32.928	-	FREEWAY_SMOOTH	Urban	F	1011101000011101	0000000000010000	-	car	376.005	39.334	0.000	0.000	180.000	696.000	987.000	-0.000	Terminate	
"Student22mode3"	"Tanvi_6"	"Feb 15, 2017 10:46:18 AM"	Unknown	114.98563	01/15/0117 10:48.17	00006899	15.030	Inter618t1-1	0.059	2	2	258.924	24.444	-14.0	0.190	0.000	D	F	1863.1	260.303	0.329	-1.371	888.963	1301.106	0.225	-	-0.779	0.418	-	-	-	31	2.385	35.840	-	FREEWAY_SMOOTH	Urban	F	1011101000011101	0000000000010000	-	car	366.283	36.955	0.000	0.000	180.000	696.000	987.000	-0.000	Terminate	
"Student22mode3"	"Tanvi_6"	"Feb 15, 2017 10:46:18 AM"	Unknown	115.98566	01/15/0117 10:48.18	00006959	15.466	Inter618t1-1	0.315	2	2	255.609	24.444	-21.4	0.196	0.000	D	F	1895.0	256.058	0.331	-1.510	874.032	1298.023	0.261	-	-1.343	0.439	-	-	-	31	2.488	38.488	-	FREEWAY_SMOOTH	Urban	F	1011101000011101	0000000000010000	-	car	356.013	33.300	0.000	0.000	180.000	696.000	987.000	-0.000	Terminate	
"Student22mode3"	"Tanvi_6"	"Feb 15, 2017 10:46:18 AM"	Unknown	116.98567	01/15/0117 10:48.19	00007019	15.893	Inter618t1-1	0.317	2	2	251.861	24.444	-13.8	0.198	0.000	D	F	1922.7	251.939	0.194	-1.638	858.975	1293.658	0.271	-	-0.924	0.414	-	-	-	31	2.566	40.779	-	FREEWAY_SMOOTH	Urban	F	1011101000011101	0000000000010000	-	car	344.916	30.145	0.000	0.000	180.000	696.000	987.000	-0.000	Terminate	
"Student22mode3"	"Tanvi_6"	"Feb 15, 2017 10:46:18 AM"	Unknown	117.98569	01/15/0117 10:48.20	00007079	16.293	Inter618t1-1	0.363	2	2	247.984	24.444	-20.3	0.196	0.000	D	F	1940.3	248.109	0.200	-1.583	843.835	1288.198	0.273	-	-1.313	0.387	-	-	-	31	2.588	42.163	-	FREEWAY_SMOOTH	Urban	F	1011101000011101	0000000000010000	-	car	333.163	27.502	0.000	0.000	180.000	696.000	987.000	-0.000	Terminate	
"Student22mode3"	"Tanvi_6"	"Feb 15, 2017 10:46:18 AM"	Unknown	118.98571	01/15/0117 10:48.21	00007139	16.671	Inter618t1-1	0.303	2	2	244.018	24.444	-14.9	0.199	0.000	D	F	1962.4	243.785	0.185	-1.617	828.794	1281.463	0.271	-	-1.065	0.374	-	-	-	31	2.615	43.601	-	FREEWAY_SMOOTH	Urban	F	1011101000011101	0000000000010000	-	car	320.662	24.931	0.000	0.000	180.000	696.000	987.000	-0.000	Terminate	
"Student22mode3"	"Tanvi_6"	"Feb 15, 2017 10:46:18 AM"	Unknown	119.98573	01/15/0117 10:48.22	00007199	16.588	Inter618t1-1	0.238	2	2	239.989	24.444	-17.9	0.025	0.000	D	F	1631.9	239.512	0.162	-1.570	814.045	1273.578	0.273	-	-1.413	-0.469	-	-	-	31	2.705	44.863	-	FREEWAY_SMOOTH	Urban	F	1011101000011101	0000000000010000	-	car	307.579	23.256	0.000	0.000	180.000	696.000	987.000	-0.000	Terminate	
"Student22mode3"	"Tanvi_6"	"Feb 15, 2017 10:46:18 AM"	Unknown	120.98576	01/15/0117 10:48.23	00007259	16.183	Inter618t1-1	0.035	2	2	236.035	24.444	-14.3	0.037	0.000	D	F	1594.6	235.260	0.167	-1.612	800.247	1264.754	0.267	-	-1.115	-0.380	-	-	-	31	2.867	46.399	-	FREEWAY_SMOOTH	Urban	F	1011101000011101	0000000000010000	-	car	294.313	22.118	0.000	0.000	180.000	696.000	987.000	-0.000	Terminate	
"Student22mode3"	"Tanvi_6"	"Feb 15, 2017 10:46:18 AM"	Unknown	121.98577	01/15/0117 10:48.24	00007319	15.810	Inter618t1-1	-0.168	2	2	232.180	24.444	-8.2	0.042	0.000	D	F	1584.7	231.877	0.178	-1.665	787.395	1255.239	0.260	-	-0.720	-0.358	-	-	-	31	3.054	48.288	-	FREEWAY_SMOOTH	Urban	F	1011101000011101	0000000000010000	-	car	281.022	21.209	0.000	0.000	180.000	696.000	987.000	-0.000	Terminate	
"Student22mode3"	"Tanvi_6"	"Feb 15, 2017 10:46:18 AM"	Unknown	122.98579	01/15/0117 10:48.25	00007379	15.481	Inter618t1-1	-0.084	2	2	228.421	24.444	-15.7	0.053	0.000	D	F	1601.9	229.407	0.216	-1.627	775.291	1245.333	0.263	-	-0.953	-0.303	-	-	-	31	3.238	50.121	-	FREEWAY_SMOOTH	Urban	F	1011101000011101	0000000000010000	-	car	267.868	20.480	0.000	0.000	180.000	696.000	987.000	-0.000	Terminate	
"Student22mode3"	"Tanvi_6"	"Feb 15, 2017 10:46:18 AM"	Unknown	123.98581	01/15/0117 10:48.26	00007439	15.222	Inter618t1-1	0.042	2	2	224.734	24.444	-14.5	0.067	0.000	D	F	1611.8	224.817	0.190	-1.621	764.044	1234.898	0.266	-	-1.093	-0.223	-	-	-	31	3.468	52.791	-	FREEWAY_SMOOTH	Urban	F	1011101000011101	0000000000010000	-	car	254.707	19.219	0.000	0.000	180.000	696.000	987.000	-0.000	Terminate	
"Student22mode3"	"Tanvi_6"	"Feb 15, 2017 10:46:18 AM"	Unknown	124.98583	01/15/0117 10:48.27	00007499	15.024	Inter618t1-1	0.037	2	2	221.121	24.444	-12.1	0.072	0.000	D	F	1610.8	221.330	0.194	-1.650	753.738	1223.839	0.266	-	-0.813	-0.177	-	-	-	31	3.703	55.640	-	FREEWAY_SMOOTH	Urban	F	1011101000011101	0000000000010000	-	car	241.416	18.137	0.000	0.000	180.000	696.000	987.000	-0.000	Terminate	
"Student22mode3"	"Tanvi_6"	"Feb 15, 2017 10:46:18 AM"	Unknown	125.98586	01/15/0117 10:48.28	00007559	14.885	Inter618t1-1	0.095	2	2	217.498	24.444	-19.2	0.104	0.000	D	F	1658.9	217.720	0.196	-1.606	744.215	1212.327	0.267	-	-1.139	-0.010	-	-	-	31	3.931	58.510	-	FREEWAY_SMOOTH	Urban	F	1011101000011101	0000000000010000	-	car	228.069	16.996	0.000	0.000	180.000	696.000	987.000	-0.000	Terminate	
"Student22mode3"	"Tanvi_6"	"Feb 15, 2017 10:46:18 AM"	Unknown	126.98587	01/15/0117 10:48.29	00007619	14.926	Inter618t1-1	-0.025	2	2	213.905	24.444	-19.4	0.120	0.000	D	F	1693.0	212.981	0.165	-1.598	735.603	1200.174	0.263	-	-1.220	0.066	-	-	-	31	4.116	61.429	-	FREEWAY_SMOOTH	Urban	F	1011101000011101	0000000000010000	-	car	214.462	15.548	0.000	0.000	180.000	696.000	987.000	-0.000	Terminate	
"Student22mode3"	"Tanvi_6"	"Feb 15, 2017 10:46:18 AM"	Unknown	127.98589	01/15/0117 10:48.30	00007679	14.993	Inter618t1-1	-0.442	2	2	210.291	24.444	-4.8	0.127	0.000	D	F	1714.8	208.322	0.131	-1.662	727.991	1187.302	0.250	-	-0.754	0.105	-	-	-	31	4.249	63.705	-	FREEWAY_SMOOTH	Urban	F	1011101000011101	0000000000010000	-	car	200.482	14.163	0.000	0.000	180.000	696.000	987.000	-0.000	Terminate	
"Student22mode3"	"Tanvi_6"	"Feb 15, 2017 10:46:18 AM"	Unknown	128.98592	01/15/0117 10:48.31	00007739	15.087	Inter618t1-1	-0.559	2	2	206.663	24.444	-3.9	0.125	0.000	D	F	1718.5	208.246	0.235	-1.726	720.899	1174.035	0.247	-	-0.194	0.080	-	-	-	31	4.414	66.594	-	FREEWAY_SMOOTH	Urban	F	1011101000011101	0000000000010000	-	car	186.326	13.199	0.000	0.000	180.000	696.000	987.000	-0.000	Terminate	
"Student22mode3"	"Tanvi_6"	"Feb 15, 2017 10:46:18 AM"	Unknown	129.98593	01/15/0117 10:48.32	00007799	15.161	Inter618t1-1	0.085	2	2	203.024	24.444	-11.9	0.127	0.000	D	F	1725.6	206.472	0.300	-1.663	713.944	1160.604	0.266	-	-0.685	0.074	-	-	-	31	4.583	69.485	-	FREEWAY_SMOOTH	Urban	F	1011101000011101	0000000000010000	-	car	172.169	12.129	0.000	0.000	180.000	696.000	987.000	-0.000	Terminate	
"Student22mode3"	"Tanvi_6"	"Feb 15, 2017 10:46:18 AM"	Unknown	130.98595	01/15/0117 10:48.33	00007859	15.221	Inter618t1-1	0.785	2	2	199.377	24.444	-40.3	0.127	0.000	D	F	1730.1	199.952	0.192	-1.416	707.783	1146.722	0.288	-	-2.524	0.060	-	-	-	31	4.757	72.409	-	FREEWAY_SMOOTH	Urban	F	1011101000011101	0000000000010000	-	car	157.797	10.770	0.000	0.000	180.000	696.000	987.000	-0.000	Terminate	
"Student22mode3"	"Tanvi_6"	"Feb 15, 2017 10:46:18 AM"	Unknown	131.98598	01/15/0117 10:48.34	00007919	15.309	Inter618t1-1	0.399	2	2	195.740	24.444	-17.6	0.132	0.000	D	F	1742.6	193.195	0.106	-1.596	703.531	1132.074	0.275	-	-1.221	0.105	-	-	-	31	4.928	75.435	-	FREEWAY_SMOOTH	Urban	F	1011101000011101	0000000000010000	-	car	142.910	9.486	0.000	0.000	180.000	696.000	987.000	-0.000	Terminate	
"Student22mode3"	"Tanvi_6"	"Feb 15, 2017 10:46:18 AM"	Unknown	132.98599	01/15/0117 10:48.35	00007979	15.413	Inter618t1-1	-0.314	2	2	192.222	24.444	-4.3	0.138	0.000	D	F	1764.9	189.866	0.041	-1.490	700.508	1117.016	0.229	-	-0.531	0.120	-	-	-	31	5.062	78.021	-	FREEWAY_SMOOTH	Urban	F	1011101000011101	0000000000010000	-	car	127.735	8.367	0.000	0.000	180.000	696.000	987.000	-0.000	Terminate	
"Student22mode3"	"Tanvi_6"	"Feb 15, 2017 10:46:18 AM"	Unknown	133.98601	01/15/0117 10:48.36	00008039	15.539	Inter618t1-1	-0.688	2	2	189.127	24.444	-7.3	0.139	0.000	D	F	1776.5	188.834	0.087	-1.290	698.001	1101.744	0.193	-	-0.421	0.120	-	-	-	31	5.197	80.758	-	FREEWAY_SMOOTH	Urban	F	1011101000011101	0000000000010000	-	car	112.402	7.302	0.000	0.000	180.000	696.000	987.000	-0.000	Terminate	
"Student22mode3"	"Tanvi_6"	"Feb 15, 2017 10:46:18 AM"	Unknown	134.98604	01/15/0117 10:48.37	00008099	15.676	Inter618t1-1	-0.637	2	2	186.439	24.444	-3.8	0.145	0.000	D	F	1796.6	187.416	0.113	-1.099	695.832	1086.288	0.167	-	-0.284	0.139	-	-	-	-	-	-	-	FREEWAY_SMOOTH	Urban	F	1011101000011101	0000000000010000	-	car	96.929	6.237	0.000	0.000	180.000	696.000	987.000	-0.000	Terminate	
"Student22mode3"	"Tanvi_6"	"Feb 15, 2017 10:46:18 AM"	Unknown	135.98605	01/15/0117 10:48.38	00008159	15.815	Inter618t1-1	-0.263	2	2	184.206	24.444	-10.1	0.143	0.000	D	F	1802.1	185.767	0.114	-0.838	693.997	1070.650	0.146	-	-0.618	0.130	-	-	-	-	-	-	-	FREEWAY_SMOOTH	Urban	F	1011101000011101	0000000000010000	-	car	81.314	5.182	0.000	0.000	180.000	696.000	987.000	-0.000	Terminate	
"Student22mode3"	"Tanvi_6"	"Feb 15, 2017 10:46:18 AM"	Unknown	136.98607	01/15/0117 10:48.39	00008219	15.391	Inter618t1-1	0.080	2	2	182.454	24.444	-10.0	0.000	0.027	D	F	1508.7	183.255	0.088	-0.610	692.746	1055.030	0.126	-	-0.700	-0.644	-	-	-	-	-	-	-	FREEWAY_SMOOTH	Urban	F	1011101000011101	0000000000010000	-	car	65.748	4.295	0.000	0.000	180.000	696.000	987.000	-0.000	Terminate	
"Student22mode3"	"Tanvi_6"	"Feb 15, 2017 10:46:18 AM"	Unknown	137.98610	01/15/0117 10:48.40	00008279	12.399	Inter618t1-1	0.150	2	2	181.267	24.444	-13.5	0.000	0.307	D	F	1169.1	180.696	0.003	-0.420	692.221	1040.942	0.106	-	-0.639	-4.047	-	-	-	-	-	-	-	FREEWAY_SMOOTH	Urban	F	1011101000011101	0000000000010000	-	car	51.714	4.185	0.000	0.000	180.000	696.000	987.000	-0.000	Terminate	
"Student22mode3"	"Tanvi_6"	"Feb 15, 2017 10:46:18 AM"	Unknown	138.98611	01/15/0117 10:48.41	00008339	7.490	Inter618t1-1	-0.085	2	2	180.663	24.444	2.4	0.000	0.382	D	F	697.8	178.849	-0.055	-0.374	692.288	1030.943	0.088	-	0.007	-4.899	-	-	-	-	-	-	-	FREEWAY_SMOOTH	Urban	F	1011101000011101	0000000000010000	-	car	41.740	5.584	0.000	0.000	180.000	696.000	987.000	-0.000	Terminate	
"Student22mode3"	"Tanvi_6"	"Feb 15, 2017 10:46:18 AM"	Unknown	139.98613	01/15/0117 10:48.42	00008399	4.562	Inter618t1-1	-0.216	2	2	180.409	24.444	6.4	0.000	0.000	D	F	477.5	179.447	0.087	-0.282	692.367	1025.432	0.066	-	0.035	-0.443	-	-	-	-	-	-	-	FREEWAY_SMOOTH	Urban	F	1011101000011101	0000000000010000	-	car	36.329	9.202	0.600	2.000	179.866	696.000	986.915	-0.000	Terminate	
"Student22mode3"	"Tanvi_6"	"Feb 15, 2017 10:46:18 AM"	Unknown	140.98616	01/15/0117 10:48.43	00008459	4.351	Inter618t1-1	-0.269	2	2	180.253	24.444	-0.1	0.074	0.000	D	F	1145.9	179.652	0.097	-0.225	692.393	1021.060	0.055	-	0.002	0.452	-	-	-	-	-	-	-	FREEWAY_SMOOTH	Urban	F	1011101000011101	0000000000010000	-	car	33.557	19.365	2.600	2.000	176.629	696.091	985.334	-0.000	Terminate	
"Student22mode3"	"Tanvi_6"	"Feb 15, 2017 10:46:18 AM"	Unknown	141.98618	01/15/0117 10:48.44	00008519	4.402	Inter618t1-1	-0.316	2	2	180.130	24.444	-3.2	0.000	0.000	D	F	667.0	179.596	0.086	-0.157	692.425	1016.545	0.049	-	-0.042	-0.468	-	-	-	-	-	-	-	FREEWAY_SMOOTH	Urban	F	1011101000011101	0000000000010000	-	car	32.643	-153.733	4.600	2.000	177.342	696.275	981.755	-0.000	Terminate	
"Student22mode3"	"Tanvi_6"	"Feb 15, 2017 10:46:18 AM"	Unknown	142.98619	01/15/0117 10:48.45	00008579	3.892	Inter618t1-1	-0.490	2	2	180.021	24.444	-64.6	0.000	0.000	D	F	591.0	176.763	0.082	-0.045	692.593	1012.416	0.042	-	-0.409	-0.482	-	-	-	-	-	-	-	FREEWAY_SMOOTH	Urban	F	1011101000011101	0000000000010000	-	car	34.081	-12.699	6.600	2.000	179.382	696.387	976.173	-0.000	Terminate	
"Student22mode3"	"Tanvi_6"	"Feb 15, 2017 10:46:18 AM"	Unknown	143.98621	01/15/0117 10:48.46	00008639	3.427	Inter618t1-1	-1.006	2	2	180.011	24.444	-61.9	0.000	0.000	D	F	520.5	171.345	0.097	-0.016	693.107	1008.793	0.035	-	-0.186	-0.466	-	-	-	-	-	-	-	FREEWAY_SMOOTH	Urban	F	1011101000011101	0000000000010000	-	car	37.979	-7.371	8.600	2.000	180.021	696.399	968.589	-0.000	Terminate	
"Student22mode3"	"Tanvi_6"	"Feb 15, 2017 10:46:18 AM"	Unknown	144.98624	01/15/0117 10:48.47	00008699	4.437	Inter618t1-1	-1.689	2	2	180.001	24.444	-2.7	0.196	0.000	D	F	1733.6	169.267	0.146	-0.008	693.789	1005.259	0.017	-	0.033	2.435	-	-	-	-	-	-	-	FREEWAY_SMOOTH	Urban	F	1011101000011101	0000000000010000	-	car	43.967	-7.109	10.600	2.000	180.004	696.397	959.006	-0.000	Terminate	
"Student22mode3"	"Tanvi_6"	"Feb 15, 2017 10:46:18 AM"	Unknown	145.98625	01/15/0117 10:48.48	00008759	6.745	Inter686t1-0	1.623	1	1	180.000	11.111	26.7	0.247	0.000	D	F	2202.7	170.530	0.224	-0.059	694.773	999.711	0.016	-	0.443	2.173	-	-	-	-	-	-	-	PAVEMENT_GENERAL	Urban	F	1011101000011101	0000000000010000	-	car	49.955	-8.454	12.600	2.000	180.003	696.397	947.422	-0.000	Terminate	
"Student22mode3"	"Tanvi_6"	"Feb 15, 2017 10:46:18 AM"	Unknown	146.98627	01/15/0117 10:48.49	00008819	8.628	Inter686t1-0	0.768	1	1	180.000	11.111	37.7	0.196	0.000	D	F	1873.2	175.746	0.209	-0.110	695.628	991.975	0.020	-	0.859	1.237	-	-	-	car	6.191	53.418	-	PAVEMENT_GENERAL	Urban	F	1011101000011101	0000000000010000	-	car	55.783	-9.318	14.600	2.000	180.003	696.397	933.838	-0.000	Terminate	
"Student22mode3"	"Tanvi_6"	"Feb 15, 2017 10:46:18 AM"	Unknown	147.98630	01/15/0117 10:48.50	00008879	9.739	Inter686t1-0	0.554	1	1	180.000	11.111	6.1	0.178	0.000	D	F	1842.6	179.965	0.206	-0.020	695.842	982.777	0.021	-	0.205	0.936	-	-	-	car	6.141	59.804	-	PAVEMENT_GENERAL	Urban	F	1011101000011101	0000000000010000	-	car	62.165	-9.061	16.600	2.000	180.002	696.397	918.254	-0.000	Terminate	
"Student22mode3"	"Tanvi_6"	"Feb 15, 2017 10:46:18 AM"	Unknown	148.98631	01/15/0117 10:48.51	00008939	10.335	Inter686t1-0	0.571	1	1	180.000	11.111	-7.1	0.146	0.000	D	F	1824.9	179.875	0.205	0.029	695.825	972.718	0.024	-	-0.203	0.522	-	-	-	car	6.512	67.303	-	PAVEMENT_GENERAL	Urban	F	1011101000011101	0000000000010000	-	car	69.665	-8.673	18.367	1.000	180.002	696.397	900.695	-0.000	Terminate	
"Student22mode3"	"Tanvi_6"	"Feb 15, 2017 10:46:18 AM"	Unknown	149.98633	01/15/0117 10:48.52	00008999	11.083	Inter686t1-0	0.481	1	1	180.000	11.111	5.7	0.199	0.000	D	F	2004.5	179.683	0.209	-0.023	695.915	962.034	0.023	-	0.189	0.868	-	-	-	car	6.809	75.464	-	PAVEMENT_GENERAL	Urban	F	1011101000011101	0000000000010000	-	car	77.825	-9.539	19.242	0.500	180.002	696.397	881.851	-0.000	Terminate	
"Student22mode3"	"Tanvi_6"	"Feb 15, 2017 10:46:18 AM"	Unknown	150.98636	01/15/0117 10:48.53	00009059	12.007	Inter686t1-0	0.499	1	1	180.000	11.111	-1.9	0.220	0.000	D	F	2141.4	180.232	0.208	0.007	695.897	950.493	0.022	-	-0.041	0.940	-	-	-	car	6.947	83.411	-	PAVEMENT_GENERAL	Urban	F	1011101000011101	0000000000010000	-	car	85.772	-11.089	19.742	0.500	180.002	696.397	862.363	-0.000	Terminate	
"Student22mode3"	"Tanvi_6"	"Feb 15, 2017 10:46:18 AM"	Unknown	151.98637	01/15/0117 10:48.54	00009119	12.916	Inter686t1-0	0.507	1	1	180.000	11.111	0.3	0.182	0.000	D	F	2005.1	179.923	0.202	-0.000	695.889	938.018	0.022	-	-0.003	0.769	-	-	-	car	7.039	90.910	-	PAVEMENT_GENERAL	Urban	F	1011101000011101	0000000000010000	-	car	93.271	-12.954	20.116	0.000	180.002	696.397	842.390	-0.000	Terminate	
"Student22mode3"	"Tanvi_6"	"Feb 15, 2017 10:46:18 AM"	Unknown	152.98639	01/15/0117 10:48.55	00009179	13.349	Inter686t1-0	0.509	1	1	180.000	11.111	3.2	0.138	0.000	D	F	1649.4	180.226	0.197	-0.024	695.887	924.849	0.025	-	0.155	0.240	-	-	-	car	7.331	97.856	-	PAVEMENT_GENERAL	Urban	F	1011101000011101	0000000000010000	-	car	100.217	-14.809	20.116	0.000	180.002	696.397	822.274	-0.000	Terminate	
"Student22mode3"	"Tanvi_6"	"Feb 15, 2017 10:46:18 AM"	Unknown	153.98642	01/15/0117 10:48.56	00009239	13.588	Inter686t1-0	0.563	1	1	180.000	11.111	-1.1	0.150	0.000	D	F	1686.0	180.107	0.199	0.006	695.833	911.383	0.025	-	-0.056	0.268	-	-	-	car	7.691	104.506	-	PAVEMENT_GENERAL	Urban	F	1011101000011101	0000000000010000	-	car	106.867	-16.371	20.116	0.000	179.981	696.400	802.158	-0.000	Terminate	
"Student22mode3"	"Tanvi_6"	"Feb 15, 2017 10:46:18 AM"	Unknown	154.98643	01/15/0117 10:48.57	00009299	13.984	Inter686t1-0	0.581	1	1	180.000	11.111	2.3	0.198	0.000	D	F	1830.1	180.105	0.202	-0.014	695.815	897.618	0.024	-	0.072	0.524	-	-	-	car	7.927	110.858	-	PAVEMENT_GENERAL	Urban	F	1011101000011101	0000000000010000	-	car	113.219	-18.464	20.116	0.000	179.995	696.403	782.042	-0.000	Terminate	
