ZoneName	Time	SystemTime	Frame	Velocity	LaneName	LanePos	LaneIndex	LaneCount	LaneHeading	SpeedLimit	Steer	Accel	Brake	Gear	Horn	SubjectEngineRPM	SubjectHeading	SubjectPitch	SubjectRoll	SubjectX	SubjectY	SubjectZ	Signal	LatAccel	LongAccel	Collision	CollisionAngle	CollisionVelocity	VehAhead	HeadwayTime	HeadwayDist	TTC	TerrainType	CultureType	Slip	DigitalInputs	DigitalInputs2	ActiveTrigger	EntityName	DistToEntity	TimeToEntity	EntityVelocity	EntityAccel	EntityHeading	EntityX	EntityY	EntityZ	GrabData	
Unknown	0.98335	01/16/0117 09:31.01	00000059	0.002	Inter625t13-0	-0.088	1	2	0.000	11.111	-0.5	0.000	0.000	D	F	0.0	0.000	0.153	0.000	1503.500	523.206	0.019	-	0.000	0.000	-	-	-	-	-	-	-	PAVEMENT_GENERAL	Urban	F	1011101000011101	0000000000010000	-	-	-	-	-	-	-	-	-	-	Terminate	
Unknown	1.98337	01/16/0117 09:31.02	00000119	0.000	Inter625t13-0	-0.088	1	2	0.000	11.111	-3.4	0.000	0.000	D	F	0.0	0.000	0.197	0.000	1503.500	523.208	0.026	-	-0.000	-0.001	-	-	-	-	-	-	-	PAVEMENT_GENERAL	Urban	F	1011101000011101	0000000000010000	-	-	-	-	-	-	-	-	-	-	Terminate	
Unknown	2.98339	01/16/0117 09:31.03	00000179	0.001	Inter625t13-0	-0.088	1	2	0.000	11.111	-2.9	0.000	0.000	D	F	244.4	0.000	0.207	0.000	1503.500	523.208	0.028	-	-0.000	-0.000	-	-	-	-	-	-	-	PAVEMENT_GENERAL	Urban	F	1011101000011111	0000000000010000	-	-	-	-	-	-	-	-	-	-	Terminate	
Unknown	3.98341	01/16/0117 09:31.04	00000239	0.012	Inter625t13-0	-0.088	1	2	0.000	11.111	-2.6	0.021	0.000	D	F	628.1	0.000	0.209	0.000	1503.500	523.210	0.027	-	-0.000	0.073	-	-	-	-	-	-	-	PAVEMENT_GENERAL	Urban	F	1011101000011101	0000000000010000	-	-	-	-	-	-	-	-	-	-	Terminate	
Unknown	4.98343	01/16/0117 09:31.05	00000299	0.718	Inter625t13-0	-0.088	1	2	0.000	11.111	-2.7	0.092	0.000	D	F	1156.2	0.000	0.242	0.001	1503.500	523.362	0.019	-	-0.005	2.311	-	-	-	-	-	-	-	PAVEMENT_GENERAL	Urban	F	1011101000011101	0000000000010000	-	-	-	-	-	-	-	-	-	-	Terminate	
Unknown	5.98345	01/16/0117 09:31.06	00000359	2.999	Inter625t13-0	-0.092	1	2	0.000	11.111	-0.8	0.122	0.000	D	F	1408.0	359.922	0.218	-0.001	1503.496	525.238	0.016	-	0.003	2.096	-	-	-	-	-	-	-	PAVEMENT_GENERAL	Urban	F	1011101000011101	0000000000010000	-	-	-	-	-	-	-	-	-	-	Terminate	
Unknown	6.98347	01/16/0117 09:31.07	00000419	4.844	Inter625t13-0	-0.100	1	2	0.000	11.111	-0.1	0.145	0.000	D	F	1672.8	359.878	0.215	0.000	1503.488	529.211	0.018	-	0.002	1.559	-	-	-	-	-	-	-	PAVEMENT_GENERAL	Urban	F	1011101000011101	0000000000010000	-	-	-	-	-	-	-	-	-	-	Terminate	
Unknown	7.98349	01/16/0117 09:31.08	00000479	6.475	Inter625t49-0	-0.112	1	1	0.005	11.111	0.1	0.175	0.000	D	F	1705.1	359.863	0.212	0.000	1503.476	534.874	0.019	-	0.002	1.502	-	-	-	-	-	-	-	PAVEMENT_GENERAL	Urban	F	1011101000011101	0000000000010000	-	-	-	-	-	-	-	-	-	-	Terminate	
Unknown	8.98351	01/16/0117 09:31.09	00000539	7.824	Inter625t49-0	-0.123	1	1	0.007	11.111	0.7	0.198	0.000	D	F	1755.0	0.000	0.215	-0.002	1503.466	542.035	0.020	-	0.015	1.326	-	-	-	-	-	-	-	PAVEMENT_GENERAL	Urban	F	1011101000011101	0000000000010000	-	-	-	-	-	-	-	-	-	-	Terminate	
Unknown	9.98353	01/16/0117 09:31.10	00000599	8.997	Inter625t49-0	-0.119	1	1	0.008	11.111	0.7	0.187	0.000	D	F	1808.8	0.076	0.210	-0.002	1503.471	550.471	0.021	-	0.018	1.045	-	-	-	-	-	-	-	PAVEMENT_GENERAL	Urban	F	1011101000011101	0000000000010000	-	-	-	-	-	-	-	-	-	-	Terminate	
Unknown	10.98355	01/16/0117 09:31.11	00000659	9.988	Inter625t49-0	-0.096	1	1	0.006	11.111	0.7	0.192	0.000	D	F	1890.4	0.204	0.209	-0.001	1503.495	559.972	0.022	-	0.021	0.945	-	-	-	-	-	-	-	PAVEMENT_GENERAL	Urban	F	1011101000011101	0000000000010000	-	-	-	-	-	-	-	-	-	-	Terminate	
Unknown	11.98357	01/16/0117 09:31.12	00000719	10.883	Inter625t49-0	-0.049	1	1	0.005	11.111	0.8	0.190	0.000	D	F	1966.8	0.313	0.207	-0.003	1503.544	570.417	0.022	-	0.025	0.838	-	-	-	-	-	-	-	PAVEMENT_GENERAL	Urban	F	1011101000011101	0000000000010000	-	-	-	-	-	-	-	-	-	-	Terminate	
Unknown	12.98359	01/16/0117 09:31.13	00000779	11.682	Inter625t49-0	0.021	1	1	0.005	11.111	-1.4	0.194	0.000	D	F	2057.6	0.337	0.206	0.007	1503.614	581.704	0.023	-	-0.045	0.781	-	-	-	-	-	-	-	PAVEMENT_GENERAL	Urban	F	1011101000011101	0000000000010000	-	-	-	-	-	-	-	-	-	-	Terminate	
Unknown	13.98361	01/16/0117 09:31.14	00000839	12.434	Inter625t15-0	0.065	1	2	0.000	11.111	-2.1	0.192	0.000	D	F	2141.3	0.062	0.205	0.011	1503.658	593.764	0.023	-	-0.083	0.739	-	-	-	-	-	-	-	PAVEMENT_GENERAL	Urban	F	1011101000011101	0000000000010000	-	-	-	-	-	-	-	-	-	-	Terminate	
Unknown	14.98363	01/16/0117 09:31.15	00000899	13.117	Inter614t1-0	0.047	1	2	0.000	11.111	-0.7	0.196	0.000	D	F	1802.8	359.819	0.203	0.005	1503.640	606.557	0.024	-	-0.036	0.603	-	-	-	-	-	-	-	PAVEMENT_GENERAL	Urban	F	1011101000011101	0000000000010000	-	-	-	-	-	-	-	-	-	-	Terminate	
Unknown	15.98365	01/16/0117 09:31.16	00000959	13.688	Inter614t1-0	-0.014	1	2	0.000	11.111	0.9	0.194	0.000	D	F	1814.3	359.679	0.202	-0.003	1503.580	619.963	0.024	-	0.014	0.551	-	-	-	-	-	-	-	PAVEMENT_GENERAL	Urban	F	1011101000011101	0000000000010000	-	-	-	-	-	-	-	-	-	-	Terminate	
Unknown	16.98367	01/16/0117 09:31.17	00001019	14.217	Inter614t1-0	-0.069	1	2	0.000	11.111	0.7	0.196	0.000	D	F	1838.2	359.871	0.201	-0.005	1503.525	633.919	0.024	-	0.039	0.510	-	-	-	-	-	-	-	PAVEMENT_GENERAL	Urban	F	1011101000011101	0000000000010000	-	-	-	-	-	-	-	-	-	-	Terminate	
Unknown	17.98369	01/16/0117 09:31.18	00001079	14.706	Inter614t1-0	-0.087	1	2	0.000	11.111	-1.2	0.192	0.000	D	F	1852.8	0.000	0.199	0.003	1503.506	648.384	0.024	-	-0.028	0.466	-	-	-	-	-	-	-	PAVEMENT_GENERAL	Urban	F	1011101000011101	0000000000010000	-	-	-	-	-	-	-	-	-	-	Terminate	
Unknown	18.98371	01/16/0117 09:31.19	00001139	15.146	Inter614t1-0	-0.127	1	2	0.000	11.111	-2.7	0.189	0.000	D	F	1867.0	359.684	0.199	0.015	1503.466	663.313	0.025	-	-0.116	0.422	-	-	-	-	-	-	-	PAVEMENT_GENERAL	Urban	F	1011101000011101	0000000000010000	-	-	-	-	-	-	-	-	-	-	Terminate	
Unknown	19.98373	01/16/0117 09:31.20	00001199	15.557	Inter614t1-0	-0.253	1	2	0.000	11.111	-0.0	0.190	0.000	D	F	1889.2	359.483	0.198	-0.001	1503.341	678.666	0.025	-	0.002	0.401	-	-	-	-	-	-	-	PAVEMENT_GENERAL	Urban	F	1011101000011101	0000000000010000	-	-	-	-	-	-	-	-	-	-	Terminate	
Unknown	20.98375	01/16/0117 09:31.21	00001259	15.946	Inter614t1-0	-0.396	1	2	0.000	11.111	1.1	0.192	0.000	D	F	1909.4	359.464	0.197	-0.002	1503.198	694.419	0.025	-	0.021	0.381	-	-	-	-	-	-	-	PAVEMENT_GENERAL	Urban	F	1011101000011101	0000000000010000	-	-	-	-	-	-	-	-	-	-	Terminate	
Unknown	21.98377	01/16/0117 09:31.22	00001319	16.315	Inter614t1-0	-0.509	1	2	0.000	11.111	0.5	0.190	0.000	D	F	1927.3	359.739	0.197	-0.005	1503.084	710.551	0.025	-	0.046	0.358	-	-	-	-	-	-	-	PAVEMENT_GENERAL	Urban	F	1011101000011101	0000000000010000	-	-	-	-	-	-	-	-	-	-	Terminate	
Unknown	22.98379	01/16/0117 09:31.23	00001379	16.663	Inter614t1-0	-0.572	1	2	0.000	11.111	2.7	0.187	0.000	D	F	1948.3	359.835	0.196	-0.008	1503.021	727.042	0.025	-	0.080	0.337	-	-	-	-	-	-	-	PAVEMENT_GENERAL	Urban	F	1011101000011101	0000000000010000	-	-	-	-	-	-	-	-	-	-	Terminate	
Unknown	23.98381	01/16/0117 09:31.24	00001439	16.995	Inter614t1-0	-0.510	1	2	0.000	11.111	2.1	0.192	0.000	D	F	1973.9	0.667	0.195	-0.024	1503.083	743.872	0.025	-	0.176	0.326	-	-	-	-	-	-	-	PAVEMENT_GENERAL	Urban	F	1011101000011101	0000000000010000	-	-	-	-	-	-	-	-	-	-	Terminate	
Unknown	24.98383	01/16/0117 09:31.25	00001499	17.316	Inter614t1-0	-0.300	1	2	0.000	11.111	-1.0	0.192	0.000	D	F	1995.9	0.663	0.195	0.009	1503.293	761.027	0.025	-	-0.056	0.314	-	-	-	12	4.510	78.092	-	PAVEMENT_GENERAL	Urban	F	1011101000011101	0000000000010000	-	-	-	-	-	-	-	-	-	-	Terminate	
Unknown	25.98385	01/16/0117 09:31.26	00001559	17.622	Inter614t1-0	-0.116	1	2	0.000	11.111	-1.2	0.192	0.000	D	F	2020.0	0.518	0.194	0.010	1503.477	778.496	0.025	-	-0.063	0.300	-	-	-	12	4.499	79.289	-	PAVEMENT_GENERAL	Urban	F	1011101000011101	0000000000010000	-	-	-	-	-	-	-	-	-	-	Terminate	
Unknown	26.98387	01/16/0117 09:31.27	00001619	17.919	Inter614t1-0	0.037	1	2	0.000	11.111	-0.4	0.190	0.000	D	F	2042.5	0.604	0.194	-0.004	1503.630	796.266	0.025	-	0.050	0.292	-	-	-	12	4.579	82.059	-	PAVEMENT_GENERAL	Urban	F	1011101000011101	0000000000010000	-	-	-	-	-	-	-	-	-	-	Terminate	
Unknown	27.98389	01/16/0117 09:31.28	00001679	18.209	Inter612t1-0	0.194	1	2	0.000	11.111	0.4	0.194	0.000	D	F	2064.6	0.403	0.193	-0.002	1503.787	814.331	0.025	-	0.003	0.286	-	-	-	12	4.693	85.453	-	PAVEMENT_GENERAL	Urban	F	1011101000011101	0000000000010000	-	-	-	-	-	-	-	-	-	-	Terminate	
Unknown	28.98391	01/16/0117 09:31.29	00001739	18.489	Inter612t1-0	0.284	1	2	0.000	11.111	-3.6	0.194	0.000	D	F	2085.2	0.000	0.193	0.030	1503.877	832.681	0.025	-	-0.227	0.278	-	-	-	12	4.818	89.081	-	PAVEMENT_GENERAL	Urban	F	1011101000011101	0000000000010000	-	-	-	-	-	-	-	-	-	-	Terminate	
Unknown	29.98393	01/16/0117 09:31.30	00001799	18.759	Inter612t1-0	0.176	1	2	0.000	11.111	-0.6	0.194	0.000	D	F	2105.2	359.336	0.192	0.013	1503.769	851.305	0.025	-	-0.106	0.268	-	-	-	12	4.947	92.794	-	PAVEMENT_GENERAL	Urban	F	1011101000011101	0000000000010000	-	-	-	-	-	-	-	-	-	-	Terminate	
Unknown	30.98395	01/16/0117 09:31.31	00001859	19.018	Inter612t1-0	-0.017	1	2	0.000	11.111	1.0	0.194	0.000	D	F	2118.8	359.562	0.192	-0.010	1503.577	870.195	0.026	-	0.084	0.252	-	-	-	12	5.061	96.258	-	PAVEMENT_GENERAL	Urban	F	1011101000011101	0000000000010000	-	-	-	-	-	-	-	-	-	-	Terminate	
Unknown	31.98397	01/16/0117 09:31.32	00001919	19.268	Inter612t1-0	-0.102	1	2	0.000	11.111	1.0	0.192	0.000	D	F	2137.2	0.028	0.191	-0.013	1503.492	889.338	0.026	-	0.119	0.246	-	-	-	12	5.162	99.468	-	PAVEMENT_GENERAL	Urban	F	1011101000011101	0000000000010000	-	-	-	-	-	-	-	-	-	-	Terminate	
Unknown	32.98399	01/16/0117 09:31.33	00001979	19.488	Inter612t1-0	-0.076	1	2	0.000	11.111	0.1	0.183	0.000	D	F	2146.6	0.145	0.190	-0.002	1503.517	908.722	0.026	-	0.019	0.194	-	-	-	12	5.256	102.438	-	PAVEMENT_GENERAL	Urban	F	1011101000011101	0000000000010000	-	-	-	-	-	-	-	-	-	-	Terminate	
Unknown	33.98401	01/16/0117 09:31.34	00002039	19.490	Inter612t1-0	-0.035	1	2	0.000	11.111	-0.6	0.037	0.000	D	F	1494.8	0.065	0.178	0.005	1503.558	928.265	0.028	-	-0.039	-0.406	-	-	-	12	5.400	105.248	-	PAVEMENT_GENERAL	Urban	F	1011101000011101	0000000000010000	-	-	-	-	-	-	-	-	-	-	Terminate	
Unknown	34.98403	01/16/0117 09:31.35	00002099	18.932	Inter612t1-0	-0.026	1	2	0.000	11.111	0.2	0.000	0.000	D	F	1293.1	0.000	0.183	0.001	1503.567	947.488	0.029	-	-0.013	-0.587	-	-	-	12	5.725	108.379	-	PAVEMENT_GENERAL	Urban	F	1011101000011101	0000000000010000	-	-	-	-	-	-	-	-	-	-	Terminate	
Unknown	35.98405	01/16/0117 09:31.36	00002159	18.350	Inter612t1-0	-0.034	1	2	0.000	11.111	0.3	0.000	0.000	D	F	1251.4	0.000	0.184	-0.001	1503.559	966.128	0.029	-	0.011	-0.578	-	-	-	12	6.109	112.092	-	PAVEMENT_GENERAL	Urban	F	1011101000011101	0000000000010000	-	-	-	-	-	-	-	-	-	-	Terminate	
Unknown	36.98407	01/16/0117 09:31.37	00002219	17.732	Inter612t1-0	-0.033	1	2	0.000	11.111	-0.9	0.000	0.042	D	F	1202.4	0.011	0.170	0.005	1503.561	984.188	0.029	-	-0.031	-1.029	-	-	-	12	6.563	116.385	-	PAVEMENT_GENERAL	Urban	F	1011101000011101	0000000000010000	-	-	-	-	-	-	-	-	-	-	Terminate	
Unknown	37.98409	01/16/0117 09:31.38	00002279	17.015	Inter613t1-0	-0.046	1	2	0.000	11.111	0.3	0.000	0.000	D	F	1160.3	359.905	0.186	0.001	1503.547	1001.511	0.029	-	-0.004	-0.559	-	-	-	12	7.136	121.416	-	PAVEMENT_GENERAL	Urban	F	1011101000011101	0000000000010000	-	-	-	-	-	-	-	-	-	-	Terminate	
Unknown	38.98411	01/16/0117 09:31.39	00002339	16.467	Inter613t1-0	-0.047	1	2	0.000	11.111	0.2	0.002	0.000	D	F	1123.6	0.137	0.187	-0.004	1503.546	1018.250	0.029	-	0.046	-0.541	-	-	-	12	7.714	127.030	-	PAVEMENT_GENERAL	Urban	F	1011101000011101	0000000000010000	-	-	-	-	-	-	-	-	-	-	Terminate	
Unknown	39.98413	01/16/0117 09:31.40	00002399	16.028	Inter613t1-0	-0.026	1	2	0.000	11.111	-3.1	0.034	0.000	D	F	1204.4	359.879	0.189	0.025	1503.567	1034.489	0.028	-	-0.169	-0.387	-	-	-	12	8.307	133.145	-	PAVEMENT_GENERAL	Urban	F	1011101000011101	0000000000010000	-	-	-	-	-	-	-	-	-	-	Terminate	
Unknown	40.98415	01/16/0117 09:31.41	00002459	15.673	Inter613t1-0	-0.092	1	2	0.000	11.111	1.4	0.037	0.000	D	F	1186.9	359.775	0.190	-0.008	1503.501	1050.337	0.028	-	0.058	-0.343	-	-	-	12	8.910	139.651	-	PAVEMENT_GENERAL	Urban	F	1011101000011101	0000000000010000	-	-	-	-	-	-	-	-	-	-	Terminate	
Unknown	41.98417	01/16/0117 09:31.42	00002519	15.327	Inter613t1-0	-0.128	1	2	0.000	11.111	0.7	0.044	0.000	D	F	1182.3	0.000	0.191	-0.005	1503.466	1065.836	0.028	-	0.041	-0.338	-	-	-	12	9.558	146.505	-	PAVEMENT_GENERAL	Urban	F	1011101000011101	0000000000010000	-	-	-	-	-	-	-	-	-	-	Terminate	
Unknown	42.98419	01/16/0117 09:31.43	00002579	15.015	Inter613t1-0	-0.121	1	2	0.000	11.111	-0.6	0.042	0.000	D	F	1178.3	0.053	0.192	0.002	1503.472	1081.005	0.028	-	-0.014	-0.310	-	-	-	12	10.236	153.689	-	PAVEMENT_GENERAL	Urban	F	1011101000011101	0000000000010000	-	-	-	-	-	-	-	-	-	-	Terminate	
Unknown	43.98421	01/16/0117 09:31.44	00002639	14.705	Inter613t1-0	-0.138	1	2	0.000	11.111	-0.7	0.044	0.000	D	F	1163.4	359.784	0.192	0.004	1503.455	1095.864	0.028	-	-0.051	-0.308	-	-	-	12	10.961	161.184	-	PAVEMENT_GENERAL	Urban	F	1011101000011101	0000000000010000	-	-	-	-	-	-	-	-	-	-	Terminate	
Unknown	44.98423	01/16/0117 09:31.45	00002699	14.408	Inter613t1-0	-0.205	1	2	0.000	11.111	2.6	0.058	0.000	D	F	1194.0	359.735	0.193	-0.013	1503.388	1110.417	0.028	-	0.075	-0.268	-	-	-	12	11.728	168.985	-	PAVEMENT_GENERAL	Urban	F	1011101000011101	0000000000010000	-	-	-	-	-	-	-	-	-	-	Terminate	
Unknown	45.98425	01/16/0117 09:31.46	00002759	14.201	Inter613t1-0	-0.206	1	2	0.000	11.111	2.0	0.072	0.000	D	F	1275.5	0.275	0.195	-0.015	1503.387	1124.714	0.027	-	0.113	-0.157	-	-	-	12	12.467	177.042	-	PAVEMENT_GENERAL	Urban	F	1011101000011101	0000000000010000	-	-	-	-	-	-	-	-	-	-	Terminate	
Unknown	46.98427	01/16/0117 09:31.47	00002819	14.069	Inter613t1-0	-0.110	1	2	0.000	11.111	0.5	0.072	0.000	D	F	1276.3	0.487	0.195	-0.003	1503.483	1138.847	0.027	-	0.032	-0.139	-	-	-	12	13.169	185.262	-	PAVEMENT_GENERAL	Urban	F	1011101000011101	0000000000010000	-	-	-	-	-	-	-	-	-	-	Terminate	
Unknown	47.98429	01/16/0117 09:31.48	00002879	13.952	Inter613t1-0	0.010	1	2	0.000	11.111	-0.1	0.079	0.000	D	F	1311.6	0.479	0.195	0.000	1503.603	1152.852	0.027	-	-0.001	-0.092	-	-	-	12	13.877	193.610	-	PAVEMENT_GENERAL	Urban	F	1011101000011101	0000000000010000	-	-	-	-	-	-	-	-	-	-	Terminate	
Unknown	48.98431	01/16/0117 09:31.49	00002939	13.860	Inter613t1-0	0.104	1	2	0.000	11.111	-3.4	0.088	0.000	D	F	1335.3	0.215	0.196	0.020	1503.698	1166.756	0.027	-	-0.139	-0.063	-	-	-	12	14.579	202.060	-	PAVEMENT_GENERAL	Urban	F	1011101000011101	0000000000010000	-	-	-	-	-	-	-	-	-	-	Terminate	
Unknown	49.98433	01/16/0117 09:31.50	00002999	13.814	Inter613t1-0	0.091	1	2	0.000	11.111	-0.8	0.092	0.000	D	F	1353.0	359.781	0.196	0.006	1503.684	1180.592	0.027	-	-0.036	-0.027	-	-	-	12	15.244	210.578	-	PAVEMENT_GENERAL	Urban	F	1011101000011101	0000000000010000	-	-	-	-	-	-	-	-	-	-	Terminate	
Unknown	50.98435	01/16/0117 09:31.51	00003059	13.861	Inter613t1-0	0.040	1	2	0.000	11.111	1.4	0.120	0.000	D	F	1601.8	359.871	0.197	-0.008	1503.633	1194.419	0.026	-	0.062	0.092	-	-	-	12	15.735	218.097	-	PAVEMENT_GENERAL	Urban	F	1011101000011101	0000000000010000	-	-	-	-	-	-	-	-	-	-	Terminate	
Unknown	51.98437	01/16/0117 09:31.52	00003119	13.972	Inter746t1-0	0.039	1	2	0.000	11.111	1.2	0.111	0.000	D	F	1609.7	0.116	0.197	-0.007	1503.632	1208.341	0.026	-	0.054	0.055	-	-	-	12	15.867	221.693	-	PAVEMENT_GENERAL	Urban	F	1011101000011101	0000000000010000	-	-	-	-	-	-	-	-	-	-	Terminate	
Unknown	52.98439	01/16/0117 09:31.53	00003179	14.068	Inter746t1-0	0.090	1	2	0.000	11.111	-0.4	0.129	0.000	D	F	1655.4	0.268	0.197	0.002	1503.683	1222.354	0.026	-	-0.004	0.130	-	-	-	12	15.728	221.269	108.834	PAVEMENT_GENERAL	Urban	F	1011101000011101	0000000000010000	-	-	-	-	-	-	-	-	-	-	Terminate	
Unknown	53.98441	01/16/0117 09:31.54	00003239	14.212	Inter746t1-0	0.147	1	2	0.000	11.111	-0.6	0.127	0.000	D	F	1660.7	0.186	0.197	0.004	1503.740	1236.497	0.026	-	-0.027	0.134	-	-	-	12	15.387	218.684	71.266	PAVEMENT_GENERAL	Urban	F	1011101000011101	0000000000010000	-	-	-	-	-	-	-	-	-	-	Terminate	
Unknown	54.98443	01/16/0117 09:31.55	00003299	14.370	Inter746t1-0	0.184	1	2	0.000	11.111	-0.3	0.138	0.000	D	F	1694.4	0.112	0.198	0.002	1503.777	1250.782	0.026	-	-0.015	0.206	-	-	-	-	-	-	-	PAVEMENT_GENERAL	Urban	F	1011101000011101	0000000000010000	-	-	-	-	-	-	-	-	-	-	Terminate	
Unknown	55.98445	01/16/0117 09:31.56	00003359	14.506	Inter746t1-0	0.205	1	2	0.000	11.111	-0.4	0.134	0.000	D	F	1688.8	0.049	0.197	0.003	1503.798	1265.223	0.026	-	-0.019	0.136	-	-	-	-	-	-	-	PAVEMENT_GENERAL	Urban	F	1011101000011101	0000000000010000	-	-	-	-	-	-	-	-	-	-	Terminate	
Unknown	56.98447	01/16/0117 09:31.57	00003419	14.642	Inter746t1-0	0.206	1	2	0.000	11.111	-0.5	0.132	0.000	D	F	1695.9	0.000	0.197	0.003	1503.799	1279.798	0.026	-	-0.024	0.128	-	-	-	-	-	-	-	PAVEMENT_GENERAL	Urban	F	1011101000011101	0000000000010000	-	-	-	-	-	-	-	-	-	-	Terminate	
Unknown	57.98449	01/16/0117 09:31.58	00003479	14.769	Inter746t1-0	0.186	1	2	0.000	11.111	-0.2	0.129	0.000	D	F	1703.4	359.922	0.196	-0.001	1503.780	1294.505	0.026	-	0.001	0.122	-	-	-	-	-	-	-	PAVEMENT_GENERAL	Urban	F	1011101000011101	0000000000010000	-	-	-	-	-	-	-	-	-	-	Terminate	
Unknown	58.98451	01/16/0117 09:31.59	00003539	14.875	Inter746t1-0	0.163	1	2	0.000	11.111	-0.4	0.125	0.000	D	F	1703.0	359.884	0.196	0.003	1503.756	1309.329	0.026	-	-0.019	0.095	-	-	-	-	-	-	-	PAVEMENT_GENERAL	Urban	F	1011101000011101	0000000000010000	-	-	-	-	-	-	-	-	-	-	Terminate	
Unknown	59.98453	01/16/0117 09:32.00	00003599	14.969	Inter746t1-0	0.123	1	2	0.000	11.111	-0.1	0.125	0.000	D	F	1711.1	359.810	0.196	0.001	1503.716	1324.251	0.026	-	-0.008	0.096	-	-	-	-	-	-	-	PAVEMENT_GENERAL	Urban	F	1011101000011101	0000000000010000	-	-	-	-	-	-	-	-	-	-	Terminate	
Unknown	60.98455	01/16/0117 09:32.01	00003659	15.053	Inter746t1-0	0.069	1	2	0.000	11.111	-0.4	0.123	0.000	D	F	1709.0	359.760	0.195	0.003	1503.663	1339.264	0.026	-	-0.023	0.074	-	-	-	-	-	-	-	PAVEMENT_GENERAL	Urban	F	1011101000011101	0000000000010000	-	-	-	-	-	-	-	-	-	-	Terminate	
Unknown	61.98457	01/16/0117 09:32.02	00003719	15.122	Inter746t1-0	-0.005	1	2	0.000	11.111	-0.9	0.120	0.000	D	F	1712.9	359.663	0.196	0.004	1503.588	1354.352	0.026	-	-0.037	0.071	-	-	-	-	-	-	-	PAVEMENT_GENERAL	Urban	F	1011101000011101	0000000000010000	-	-	-	-	-	-	-	-	-	-	Terminate	
Unknown	62.98459	01/16/0117 09:32.03	00003779	15.186	Inter746t1-0	-0.113	1	2	0.000	11.111	-0.2	0.109	0.000	D	F	1693.3	359.541	0.194	0.002	1503.480	1369.507	0.026	-	-0.013	0.029	-	-	-	-	-	-	-	PAVEMENT_GENERAL	Urban	F	1011101000011101	0000000000010000	-	-	-	-	-	-	-	-	-	-	Terminate	
Unknown	63.98461	01/16/0117 09:32.04	00003839	15.005	Inter746t1-0	-0.234	1	2	0.000	11.111	5.3	0.000	0.000	D	F	1473.3	359.626	0.177	-0.028	1503.359	1384.651	0.028	-	0.197	-0.578	-	-	-	-	-	-	-	PAVEMENT_GENERAL	Urban	F	1011101000011101	0000000000010000	-	-	-	-	-	-	-	-	-	-	Terminate	
Unknown	64.98463	01/16/0117 09:32.05	00003899	14.434	Inter746t1-0	-0.155	1	2	0.000	11.111	-0.7	0.000	0.000	D	F	1417.6	0.877	0.190	-0.007	1503.438	1399.369	0.029	L	0.070	-0.565	-	-	-	-	-	-	-	PAVEMENT_GENERAL	Urban	F	1011101000111101	0000000000010000	-	-	-	-	-	-	-	-	-	-	Terminate	
Unknown	65.98465	01/16/0117 09:32.06	00003959	13.663	Inter749t9-0	-0.085	1	2	0.000	11.111	-18.4	0.000	0.149	D	F	1316.0	359.074	0.131	0.102	1503.509	1413.504	0.030	L	-0.773	-2.290	-	-	-	-	-	-	-	PAVEMENT_GENERAL	Urban	F	1011101000111101	0000000000010000	-	-	-	-	-	-	-	-	-	-	Terminate	
Unknown	66.98467	01/16/0117 09:32.07	00004019	11.678	Inter749t31-0	-0.332	1	1	355.442	11.111	-27.4	0.000	0.057	D	F	1141.0	353.467	0.191	0.170	1502.757	1426.113	0.032	L	-1.295	-1.195	-	-	-	12	4.121	48.120	4.121	PAVEMENT_GENERAL	Urban	F	1011101000111101	0000000000010000	-	-	-	-	-	-	-	-	-	-	Terminate	
Unknown	67.98470	01/16/0117 09:32.08	00004079	10.435	Inter749t31-0	-1.091	1	1	354.795	11.111	32.2	0.000	0.060	D	F	1019.2	352.761	0.180	-0.152	1501.245	1437.061	0.030	-	1.027	-1.205	-	-	-	12	3.551	37.053	3.551	PAVEMENT_GENERAL	Urban	F	1011101000011101	0000000000010000	-	-	-	-	-	-	-	-	-	-	Terminate	
Unknown	68.98471	01/16/0117 09:32.09	00004139	9.291	Inter749t31-0	-0.872	1	1	356.332	11.111	17.5	0.000	0.054	D	F	907.6	357.203	0.183	-0.069	1500.476	1446.884	0.030	-	0.498	-1.109	-	-	-	12	2.928	27.202	2.928	PAVEMENT_GENERAL	Urban	F	1011101000011101	0000000000010000	-	-	-	-	-	-	-	-	-	-	Terminate	
Unknown	69.98473	01/16/0117 09:32.10	00004199	7.949	Inter749t31-0	-0.489	1	1	356.903	11.111	0.3	0.000	0.346	D	F	744.0	358.549	0.047	-0.002	1500.215	1455.647	0.031	-	0.009	-4.504	-	-	-	12	2.324	18.474	2.324	PAVEMENT_GENERAL	Urban	F	1011101000011101	0000000000010000	-	-	-	-	-	-	-	-	-	-	Terminate	
Unknown	70.98476	01/16/0117 09:32.11	00004259	4.063	Inter749t31-0	-0.299	1	1	356.903	11.111	3.8	0.000	0.301	D	F	477.5	358.864	0.137	-0.002	1500.081	1461.653	0.037	-	0.020	-4.049	-	-	-	12	3.069	12.470	3.069	PAVEMENT_GENERAL	Urban	F	1011101000011101	0000000000010000	-	-	-	-	-	-	-	-	-	-	Terminate	
Unknown	71.98477	01/16/0117 09:32.12	00004319	0.269	Inter749t31-0	-0.222	1	1	356.903	11.111	3.3	0.000	0.307	D	F	477.5	359.013	0.201	0.001	1500.047	1463.705	0.037	-	-0.005	-2.351	-	-	-	12	39.791	10.712	-	PAVEMENT_GENERAL	Urban	F	1011101000011101	0000000000010000	-	-	-	-	-	-	-	-	-	-	Terminate	
Unknown	72.98479	01/16/0117 09:32.13	00004379	0.011	Inter749t31-0	-0.221	1	1	356.903	11.111	2.8	0.000	0.000	D	F	477.5	359.015	0.229	0.001	1500.047	1463.732	0.030	-	0.000	0.020	-	-	-	12	1174.700	12.766	-	PAVEMENT_GENERAL	Urban	F	1011101000011101	0000000000010000	-	-	-	-	-	-	-	-	-	-	Terminate	
Unknown	73.98481	01/16/0117 09:32.14	00004439	1.707	Inter749t31-0	-0.203	1	1	356.903	11.111	7.8	0.182	0.000	D	F	1453.4	359.077	0.228	-0.004	1500.041	1464.172	0.013	-	0.031	3.640	-	-	-	12	9.618	16.419	-	PAVEMENT_GENERAL	Urban	F	1011101000011101	0000000000010000	-	-	-	-	-	-	-	-	-	-	Terminate	
Unknown	74.98483	01/16/0117 09:32.15	00004499	5.188	Inter749t11-0	-0.033	LT1	2	0.000	11.111	13.2	0.250	0.000	D	F	1959.4	359.932	0.221	-0.018	1500.030	1467.716	0.012	-	0.135	2.823	-	-	-	12	3.657	18.971	-	PAVEMENT_GENERAL	Urban	F	1011101000011101	0000000000010000	-	-	-	-	-	-	-	-	-	-	Terminate	
Unknown	75.98486	01/16/0117 09:32.16	00004559	7.561	Inter749t11-0	0.063	LT1	2	0.000	11.111	3.9	0.259	0.000	D	F	2399.2	1.154	0.222	-0.005	1500.125	1474.141	0.016	L	0.064	2.158	-	-	-	12	2.717	20.546	-	PAVEMENT_GENERAL	Urban	F	1011101000111101	0000000000010000	-	-	-	-	-	-	-	-	-	-	Terminate	
Unknown	76.98487	01/16/0117 09:32.17	00004619	9.010	Inter749t65-0	0.249	1	1	355.567	11.111	-43.1	0.018	0.000	D	F	1220.9	0.390	0.169	0.162	1500.283	1482.643	0.024	L	-1.093	-0.187	-	-	-	12	2.350	21.171	-	PAVEMENT_GENERAL	Urban	F	1011101000111101	0000000000010000	-	-	-	-	-	-	-	-	-	-	Terminate	
Unknown	77.98489	01/16/0117 09:32.18	00004679	8.568	Inter749t65-0	1.140	1	1	333.756	11.111	-166.2	0.049	0.000	D	F	1119.3	340.602	0.151	0.525	1498.851	1491.237	0.031	L	-4.007	-0.358	-	-	-	12	2.728	23.374	-	PAVEMENT_GENERAL	Urban	F	1011101000111101	0000000000010000	-	-	-	-	-	-	-	-	-	-	Terminate	
Unknown	78.98492	01/16/0117 09:32.19	00004739	8.478	Inter749t65-0	1.030	1	1	316.554	11.111	-111.5	0.069	0.000	D	F	1217.0	316.194	0.165	0.321	1494.056	1498.182	0.028	L	-2.684	-0.012	-	-	-	12	3.188	27.030	-	PAVEMENT_GENERAL	Urban	F	1011101000111101	0000000000010000	-	-	-	-	-	-	-	-	-	-	Terminate	
Unknown	79.98493	01/16/0117 09:32.20	00004799	8.471	Inter749t65-0	0.754	1	1	292.877	11.111	-186.4	0.076	0.000	D	F	1243.9	296.453	0.178	0.568	1487.126	1503.029	0.029	L	-4.231	-0.260	-	-	-	12	3.860	32.693	-	PAVEMENT_GENERAL	Urban	F	1011101000111101	0000000000010000	-	-	-	-	-	-	-	-	-	-	Terminate	
Unknown	80.98495	01/16/0117 09:32.21	00004859	8.559	Inter749t3-3	0.754	1	2	270.000	11.111	-87.3	0.109	0.000	D	F	1405.5	267.625	0.149	0.225	1478.843	1504.285	0.026	L	-2.207	0.409	-	-	-	12	4.672	39.984	-	PAVEMENT_GENERAL	Urban	F	1011101000111101	0000000000010000	-	-	-	-	-	-	-	-	-	-	Terminate	
Unknown	81.98497	01/16/0117 09:32.22	00004919	8.851	Inter749t3-3	0.076	1	2	270.000	11.111	44.3	0.111	0.000	D	F	1404.7	267.613	0.206	-0.110	1470.165	1503.607	0.025	-	1.095	0.379	-	-	-	12	5.255	46.511	-	PAVEMENT_GENERAL	Urban	F	1011101000011101	0000000000010000	-	-	-	-	-	-	-	-	-	-	Terminate	
Unknown	82.98499	01/16/0117 09:32.23	00004979	9.362	Inter749t19-0	0.128	1	1	270.081	11.111	6.0	0.159	0.000	D	F	1554.7	271.352	0.206	-0.020	1461.078	1503.665	0.024	-	0.173	0.622	-	-	-	12	5.563	52.084	-	PAVEMENT_GENERAL	Urban	F	1111101000011101	0000000000010000	-	-	-	-	-	-	-	-	-	-	Terminate	
Unknown	83.98502	01/16/0117 09:32.24	00005039	10.070	Inter749t19-0	0.345	1	1	270.111	11.111	-17.4	0.185	0.000	D	F	1636.8	270.802	0.208	0.067	1451.376	1503.893	0.023	-	-0.481	0.749	-	-	-	12	5.607	56.466	-	PAVEMENT_GENERAL	Urban	F	1011101000011101	0000000000010000	-	-	-	-	-	-	-	-	-	-	Terminate	
Unknown	84.98503	01/16/0117 09:32.25	00005099	10.882	Inter749t19-0	0.208	1	1	270.083	11.111	-0.1	0.206	0.000	D	F	1726.9	268.595	0.206	0.002	1440.903	1503.775	0.023	-	-0.064	0.824	-	-	-	12	5.470	59.523	-	PAVEMENT_GENERAL	Urban	F	1011101000011101	0000000000010000	-	-	-	-	-	-	-	-	-	-	Terminate	
Unknown	85.98505	01/16/0117 09:32.26	00005159	11.744	Inter749t19-0	-0.026	1	1	270.061	11.111	6.1	0.217	0.000	D	F	1804.6	269.343	0.207	-0.031	1429.591	1503.561	0.022	-	0.220	0.863	-	-	-	12	5.216	61.262	-	PAVEMENT_GENERAL	Urban	F	1011101000011101	0000000000010000	-	-	-	-	-	-	-	-	-	-	Terminate	
Unknown	86.98507	01/16/0117 09:32.27	00005219	12.581	Inter749t19-0	-0.082	1	1	270.061	11.111	1.4	0.238	0.000	D	F	1845.5	270.050	0.206	-0.008	1417.427	1503.517	0.023	-	0.066	0.833	-	-	-	Ambient255	7.701	96.886	67.305	PAVEMENT_GENERAL	Urban	F	1011101000011101	0000000000010000	-	-	-	-	-	-	-	-	-	-	Terminate	
Unknown	87.98509	01/16/0117 09:32.28	00005279	13.379	Inter749t1-2	-0.055	1	2	270.000	11.111	-0.9	0.233	0.000	D	F	1878.1	270.139	0.204	0.003	1404.442	1503.545	0.023	-	-0.024	0.768	-	-	-	Ambient255	7.280	97.400	43.522	PAVEMENT_GENERAL	Urban	F	1011101000011101	0000000000010000	-	-	-	-	-	-	-	-	-	-	Terminate	
Unknown	88.98512	01/16/0117 09:32.29	00005339	14.110	Inter747t1-2	-0.050	1	2	270.000	11.111	0.2	0.222	0.000	D	F	1906.4	269.973	0.203	-0.000	1390.692	1503.557	0.023	-	-0.009	0.703	-	-	-	Ambient255	6.717	94.784	31.922	PAVEMENT_GENERAL	Urban	F	1011101000011101	0000000000010000	-	-	-	-	-	-	-	-	-	-	Terminate	
Unknown	89.98513	01/16/0117 09:32.30	00005399	14.781	Inter747t1-2	-0.055	1	2	270.000	11.111	0.5	0.224	0.000	D	F	1938.0	269.975	0.201	-0.002	1376.242	1503.552	0.023	-	0.010	0.647	-	-	-	Ambient255	6.189	91.473	25.130	PAVEMENT_GENERAL	Urban	F	1011101000011101	0000000000010000	-	-	-	-	-	-	-	-	-	-	Terminate	
Unknown	90.98515	01/16/0117 09:32.31	00005459	15.395	Inter747t1-2	-0.048	1	2	270.000	11.111	0.2	0.217	0.000	D	F	1949.1	270.068	0.199	-0.002	1361.147	1503.558	0.024	-	0.013	0.569	-	-	-	Ambient255	5.685	87.519	20.573	PAVEMENT_GENERAL	Urban	F	1011101000011101	0000000000010000	-	-	-	-	-	-	-	-	-	-	Terminate	
Unknown	91.98518	01/16/0117 09:32.32	00005519	15.943	Inter747t1-2	-0.022	1	2	270.000	11.111	-0.5	0.217	0.000	D	F	1975.8	270.172	0.199	-0.004	1345.475	1503.584	0.024	-	0.020	0.541	-	-	-	Ambient255	5.205	82.986	17.282	PAVEMENT_GENERAL	Urban	F	1011101000011101	0000000000010000	-	-	-	-	-	-	-	-	-	-	Terminate	
Unknown	92.98519	01/16/0117 09:32.33	00005579	16.477	Inter747t1-2	-0.029	1	2	270.000	11.111	-1.2	0.224	0.000	D	F	2015.6	269.694	0.198	0.016	1329.265	1503.578	0.024	-	-0.110	0.527	-	-	-	Ambient255	4.729	77.916	14.601	PAVEMENT_GENERAL	Urban	F	1011101000011101	0000000000010000	-	-	-	-	-	-	-	-	-	-	Terminate	
Unknown	93.98521	01/16/0117 09:32.34	00005639	16.972	Inter747t1-2	-0.129	1	2	270.000	11.111	-0.3	0.212	0.000	D	F	2003.9	269.604	0.196	0.004	1312.531	1503.478	0.024	-	-0.024	0.441	-	-	-	Ambient255	4.261	72.323	12.403	PAVEMENT_GENERAL	Urban	F	1011101000011101	0000000000010000	-	-	-	-	-	-	-	-	-	-	Terminate	
Unknown	94.98523	01/16/0117 09:32.35	00005699	17.326	Inter747t1-2	-0.243	1	2	270.000	11.111	1.4	0.116	0.000	D	F	1865.9	269.721	0.188	-0.011	1295.357	1503.364	0.025	-	0.085	0.096	-	-	-	Ambient255	3.826	66.289	10.719	PAVEMENT_GENERAL	Urban	F	1011101000011101	0000000000010000	-	-	-	-	-	-	-	-	-	-	Terminate	
Unknown	95.98525	01/16/0117 09:32.36	00005759	16.976	Inter747t1-2	-0.288	1	2	270.000	11.111	0.7	0.009	0.000	D	F	1667.9	270.001	0.181	-0.009	1278.171	1503.318	0.029	-	0.067	-0.570	-	-	-	Ambient255	3.549	60.244	10.325	PAVEMENT_GENERAL	Urban	F	1011101000011101	0000000000010000	-	-	-	-	-	-	-	-	-	-	Terminate	
Unknown	96.98528	01/16/0117 09:32.37	00005819	16.531	Inter747t1-2	-0.263	1	2	270.000	11.111	0.7	0.018	0.000	D	F	1626.3	270.210	0.188	-0.007	1261.433	1503.344	0.028	-	0.056	-0.430	-	-	-	Ambient255	3.306	54.645	10.139	PAVEMENT_GENERAL	Urban	F	1011101000011101	0000000000010000	-	-	-	-	-	-	-	-	-	-	Terminate	
Unknown	97.98529	01/16/0117 09:32.38	00005879	15.939	Inter747t1-2	-0.196	1	2	270.000	11.111	-0.2	0.000	0.000	D	F	1565.1	270.226	0.188	0.003	1245.197	1503.411	0.029	-	-0.017	-0.591	-	-	-	Ambient255	3.109	49.550	10.328	PAVEMENT_GENERAL	Urban	F	1011101000011101	0000000000010000	-	-	-	-	-	-	-	-	-	-	Terminate	
Unknown	98.98531	01/16/0117 09:32.39	00005939	15.289	Inter747t1-2	-0.143	1	2	270.000	11.111	-0.7	0.000	0.033	D	F	1495.9	270.113	0.176	0.005	1229.559	1503.463	0.030	-	-0.043	-0.872	-	-	-	Ambient255	2.947	45.051	10.860	PAVEMENT_GENERAL	Urban	F	1011101000011101	0000000000010000	-	-	-	-	-	-	-	-	-	-	Terminate	
Unknown	99.98534	01/16/0117 09:32.40	00005999	14.461	Inter747t1-2	-0.133	1	2	270.000	11.111	-0.6	0.000	0.000	D	F	1420.3	269.945	0.190	0.005	1214.753	1503.474	0.029	-	-0.040	-0.566	-	-	-	Ambient255	2.862	41.385	12.465	PAVEMENT_GENERAL	Urban	F	1011101000011101	0000000000010000	-	-	-	-	-	-	-	-	-	-	Terminate	
Unknown	100.98535	01/16/0117 09:32.41	00006059	13.894	Inter747t1-2	-0.163	1	2	270.000	11.111	-0.7	0.000	0.024	D	F	1361.5	269.799	0.189	0.005	1200.573	1503.444	0.029	-	-0.036	-0.669	-	-	-	Ambient255	2.590	35.984	13.069	PAVEMENT_GENERAL	Urban	F	1011101000011101	0000000000010000	-	-	-	-	-	-	-	-	-	-	Terminate	
Unknown	101.98537	01/16/0117 09:32.42	00006119	12.942	Inter748t1-2	-0.217	1	2	270.000	11.111	1.3	0.000	0.000	D	F	1271.5	269.801	0.195	-0.006	1187.198	1503.390	0.029	-	0.051	-0.545	-	-	-	Ambient255	2.790	36.111	20.055	PAVEMENT_GENERAL	Urban	F	1011101000011101	0000000000010000	-	-	-	-	-	-	-	-	-	-	Terminate	
Unknown	102.98539	01/16/0117 09:32.43	00006179	12.404	Inter748t1-2	-0.237	1	2	270.000	11.111	-0.7	0.000	0.000	D	F	1218.5	269.974	0.192	0.004	1174.526	1503.370	0.029	-	-0.013	-0.534	-	-	-	Ambient255	2.788	34.579	27.388	PAVEMENT_GENERAL	Urban	F	1011101000011101	0000000000010000	-	-	-	-	-	-	-	-	-	-	Terminate	
Unknown	103.98541	01/16/0117 09:32.44	00006239	11.874	Inter748t1-2	-0.260	1	2	270.000	11.111	-0.1	0.000	0.000	D	F	1166.5	269.816	0.193	0.001	1162.388	1503.347	0.029	-	-0.013	-0.526	-	-	-	Ambient255	2.828	33.582	45.835	PAVEMENT_GENERAL	Urban	F	1011101000011101	0000000000010000	-	-	-	-	-	-	-	-	-	-	Terminate	
Unknown	104.98544	01/16/0117 09:32.45	00006299	11.565	Inter748t1-2	-0.301	1	2	270.000	11.111	-0.0	0.039	0.000	D	F	1251.0	269.783	0.198	-0.000	1150.668	1503.306	0.028	-	-0.003	-0.296	-	-	-	Ambient255	2.853	33.001	77.783	PAVEMENT_GENERAL	Urban	F	1011101000011101	0000000000010000	-	-	-	-	-	-	-	-	-	-	Terminate	
Unknown	105.98545	01/16/0117 09:32.46	00006359	11.340	Inter748t1-2	-0.338	1	2	270.000	11.111	0.6	0.048	0.000	D	F	1269.2	269.863	0.197	-0.003	1139.221	1503.268	0.027	-	0.023	-0.195	-	-	-	Ambient255	2.883	32.695	164.374	PAVEMENT_GENERAL	Urban	F	1011101000011101	0000000000010000	-	-	-	-	-	-	-	-	-	-	Terminate	
Unknown	106.98547	01/16/0117 09:32.47	00006419	11.227	Inter748t1-2	-0.357	1	2	270.000	11.111	-0.1	0.062	0.000	D	F	1302.4	269.924	0.197	0.000	1127.942	1503.250	0.027	-	-0.000	-0.110	-	-	-	Ambient255	2.900	32.555	378.178	PAVEMENT_GENERAL	Urban	F	1011101000011101	0000000000010000	-	-	-	-	-	-	-	-	-	-	Terminate	
Unknown	107.98550	01/16/0117 09:32.48	00006479	11.186	Inter748t1-2	-0.374	1	2	270.000	11.111	0.0	0.086	0.000	D	F	1413.2	269.912	0.200	0.000	1116.749	1503.233	0.026	-	0.000	0.082	-	-	-	Ambient255	2.906	32.503	717.741	PAVEMENT_GENERAL	Urban	F	1011101000011101	0000000000010000	-	-	-	-	-	-	-	-	-	-	Terminate	
Unknown	108.98551	01/16/0117 09:32.49	00006539	11.273	Inter748t1-2	-0.390	1	2	270.000	11.111	0.1	0.097	0.000	D	F	1435.4	269.923	0.200	-0.000	1105.521	1503.217	0.026	-	0.004	0.116	-	-	-	Ambient255	2.875	32.414	245.070	PAVEMENT_GENERAL	Urban	F	1011101000011101	0000000000010000	-	-	-	-	-	-	-	-	-	-	Terminate	
Unknown	109.98553	01/16/0117 09:32.50	00006599	11.446	Inter748t1-2	-0.403	1	2	270.000	11.111	0.1	0.104	0.000	D	F	1479.3	269.946	0.201	-0.001	1094.166	1503.204	0.025	-	0.005	0.190	-	-	-	Ambient255	2.813	32.200	105.727	PAVEMENT_GENERAL	Urban	F	1011101000011101	0000000000010000	-	-	-	-	-	-	-	-	-	-	Terminate	
Unknown	110.98555	01/16/0117 09:32.51	00006659	11.639	Inter748t1-2	-0.407	1	2	270.000	11.111	1.3	0.108	0.000	D	F	1490.6	270.051	0.200	-0.006	1082.629	1503.200	0.025	-	0.048	0.206	-	-	-	Ambient255	2.732	31.803	63.854	PAVEMENT_GENERAL	Urban	F	1011101000011101	0000000000010000	-	-	-	-	-	-	-	-	-	-	Terminate	
Unknown	111.98557	01/16/0117 09:32.52	00006719	11.804	Inter748t1-2	-0.381	1	2	270.000	11.111	2.0	0.115	0.000	D	F	1508.3	270.165	0.201	-0.008	1070.911	1503.225	0.026	-	0.055	0.184	-	-	-	Ambient255	2.645	31.225	47.072	PAVEMENT_GENERAL	Urban	F	1011101000011101	0000000000010000	-	-	-	-	-	-	-	-	-	-	Terminate	
Unknown	112.98560	01/16/0117 09:32.53	00006779	11.992	Inter748t1-2	-0.341	1	2	270.000	11.111	-2.3	0.106	0.000	D	F	1506.0	270.086	0.200	0.011	1059.010	1503.266	0.026	-	-0.084	0.168	-	-	-	Ambient255	2.541	30.465	35.820	PAVEMENT_GENERAL	Urban	F	1011101000011101	0000000000010000	-	-	-	-	-	-	-	-	-	-	Terminate	
Unknown	113.98561	01/16/0117 09:32.54	00006839	12.143	Inter748t1-2	-0.364	1	2	270.000	11.111	1.2	0.106	0.000	D	F	1510.1	269.817	0.200	-0.004	1046.943	1503.243	0.026	-	0.032	0.151	-	-	-	Ambient255	2.432	29.537	29.469	PAVEMENT_GENERAL	Urban	F	1011101000011101	0000000000010000	-	-	-	-	-	-	-	-	-	-	Terminate	
Unknown	114.98563	01/16/0117 09:32.55	00006899	12.260	Inter748t1-2	-0.378	1	2	270.000	11.111	0.0	0.104	0.000	D	F	1496.1	269.962	0.199	0.001	1034.739	1503.229	0.026	-	-0.005	0.109	-	-	-	Ambient255	2.322	28.473	25.448	PAVEMENT_GENERAL	Urban	F	1011101000011101	0000000000010000	-	-	-	-	-	-	-	-	-	-	Terminate	
Unknown	115.98566	01/16/0117 09:32.56	00006959	12.365	Inter748t1-2	-0.372	1	2	270.000	11.111	4.1	0.106	0.000	D	F	1519.1	270.159	0.199	-0.015	1022.427	1503.235	0.026	-	0.125	0.124	-	-	-	-	-	-	-	PAVEMENT_GENERAL	Urban	F	1011101000011101	0000000000010000	-	-	-	-	-	-	-	-	-	-	Terminate	
Unknown	116.98567	01/16/0117 09:32.57	00007019	12.538	Inter748t1-2	-0.191	1	2	270.000	11.111	9.4	0.131	0.000	D	F	1592.6	271.653	0.200	-0.053	1009.985	1503.415	0.025	-	0.395	0.231	-	-	-	-	-	-	-	PAVEMENT_GENERAL	Urban	F	1011101000011101	0000000000010000	-	-	-	-	-	-	-	-	-	-	Terminate	
Unknown	117.98569	01/16/0117 09:32.58	00007079	12.793	Inter752t1-2	-0.364	1	2	269.992	24.444	-8.5	0.141	0.000	D	F	1632.5	272.613	0.458	0.010	997.331	1503.935	0.032	-	-0.244	0.289	-	-	-	-	-	-	-	FREEWAY_SMOOTH	Urban	F	1011101000011101	0000000000010000	-	-	-	-	-	-	-	-	-	-	Terminate	
Unknown	118.98571	01/16/0117 09:32.59	00007139	13.134	Inter752t1-2	0.026	1	2	269.833	24.444	-10.7	0.155	0.000	D	F	1685.0	270.679	0.248	-0.284	984.376	1504.312	0.048	-	-0.496	0.373	-	-	-	-	-	-	-	FREEWAY_SMOOTH	Urban	F	1011101000011101	0000000000010000	-	-	-	-	-	-	-	-	-	-	Terminate	
Unknown	119.98573	01/16/0117 09:33.00	00007199	13.550	Inter752t1-2	0.023	1	2	269.349	24.444	-6.6	0.164	0.000	D	F	1731.2	268.630	0.300	-0.634	971.039	1504.215	0.074	-	-0.398	0.439	-	-	-	-	-	-	-	FREEWAY_SMOOTH	Urban	F	1011101000011101	0000000000010000	-	-	-	-	-	-	-	-	-	-	Terminate	
Unknown	120.98576	01/16/0117 09:33.01	00007259	13.973	Inter752t1-2	-0.192	1	2	268.507	24.444	-2.4	0.166	0.000	D	F	1746.6	267.649	0.288	-1.004	957.284	1503.742	0.095	-	-0.193	0.403	-	-	-	-	-	-	-	FREEWAY_SMOOTH	Urban	F	1011101000011101	0000000000010000	-	-	-	-	-	-	-	-	-	-	Terminate	
Unknown	121.98577	01/16/0117 09:33.02	00007319	14.350	Inter752t1-2	-0.348	1	2	267.289	24.444	-1.9	0.162	0.000	D	F	1763.0	267.097	0.288	-1.359	943.135	1503.063	0.117	-	-0.154	0.372	-	-	-	-	-	-	-	FREEWAY_SMOOTH	Urban	F	1011101000011101	0000000000010000	-	-	-	-	-	-	-	-	-	-	Terminate	
Unknown	122.98579	01/16/0117 09:33.03	00007379	14.714	Inter752t1-2	-0.324	1	2	265.668	24.444	-4.9	0.162	0.000	D	F	1775.7	266.107	0.312	-1.696	928.626	1502.188	0.142	-	-0.346	0.342	-	-	-	-	-	-	-	FREEWAY_SMOOTH	Urban	F	1011101000011101	0000000000010000	-	-	-	-	-	-	-	-	-	-	Terminate	
Unknown	123.98581	01/16/0117 09:33.04	00007439	15.046	Inter752t1-2	-0.164	1	2	263.628	24.444	-6.4	0.160	0.000	D	F	1789.5	264.547	0.335	-2.051	913.796	1500.950	0.173	-	-0.451	0.319	-	-	-	-	-	-	-	FREEWAY_SMOOTH	Urban	F	1011101000011101	0000000000010000	-	-	-	-	-	-	-	-	-	-	Terminate	
Unknown	124.98583	01/16/0117 09:33.05	00007499	15.353	Inter752t1-2	0.120	1	2	261.138	24.444	-13.6	0.162	0.000	D	F	1802.7	262.271	0.356	-2.376	898.695	1499.202	0.212	-	-0.829	0.293	-	-	-	-	-	-	-	FREEWAY_SMOOTH	Urban	F	1011101000011101	0000000000010000	-	-	-	-	-	-	-	-	-	-	Terminate	
Unknown	125.98586	01/16/0117 09:33.06	00007559	15.643	Inter752t1-2	0.281	1	2	258.181	24.444	-18.1	0.164	0.000	D	F	1822.9	258.074	0.305	-2.708	883.426	1496.561	0.249	-	-1.246	0.292	-	-	-	-	-	-	-	FREEWAY_SMOOTH	Urban	F	1011101000011101	0000000000010000	-	-	-	-	-	-	-	-	-	-	Terminate	
Unknown	126.98587	01/16/0117 09:33.07	00007619	15.929	Inter752t1-2	0.132	1	2	254.775	24.444	-14.4	0.164	0.000	D	F	1845.5	253.920	0.267	-3.120	868.120	1492.700	0.272	-	-1.071	0.284	-	-	-	-	-	-	-	FREEWAY_SMOOTH	Urban	F	1011101000011101	0000000000010000	-	-	-	-	-	-	-	-	-	-	Terminate	
Unknown	127.98589	01/16/0117 09:33.08	00007679	16.189	Inter752t1-2	-0.069	1	2	250.842	24.444	-13.6	0.162	0.000	D	F	1861.3	250.283	0.145	-3.372	852.845	1487.728	0.281	-	-1.019	0.212	-	-	-	-	-	-	-	FREEWAY_SMOOTH	Urban	F	1011101000011101	0000000000010000	-	-	-	-	-	-	-	-	-	-	Terminate	
Unknown	128.98592	01/16/0117 09:33.09	00007739	16.377	Inter752t1-2	-0.163	1	2	246.785	24.444	-13.5	0.153	0.000	D	F	1857.9	246.617	0.188	-3.374	837.708	1481.713	0.275	-	-1.040	0.160	-	-	-	-	-	-	-	FREEWAY_SMOOTH	Urban	F	1011101000011101	0000000000010000	-	-	-	-	-	-	-	-	-	-	Terminate	
Unknown	129.98593	01/16/0117 09:33.10	00007799	16.512	Inter752t1-2	-0.140	1	2	242.649	24.444	-14.8	0.143	0.000	D	F	1850.0	242.824	0.200	-3.362	822.843	1474.670	0.277	-	-1.134	0.106	-	-	-	-	-	-	-	FREEWAY_SMOOTH	Urban	F	1011101000011101	0000000000010000	-	-	-	-	-	-	-	-	-	-	Terminate	
Unknown	130.98595	01/16/0117 09:33.11	00007859	16.434	Inter752t1-2	-0.070	1	2	238.539	24.444	-13.8	0.007	0.000	D	F	1614.1	238.654	0.186	-3.351	808.431	1466.579	0.283	-	-1.200	-0.566	-	-	-	-	-	-	-	FREEWAY_SMOOTH	Urban	F	1011101000011101	0000000000010000	-	-	-	-	-	-	-	-	-	-	Terminate	
Unknown	131.98598	01/16/0117 09:33.12	00007919	15.913	Inter752t1-2	-0.002	1	2	234.525	24.444	-12.1	0.023	0.000	D	F	1565.5	234.819	0.209	-3.380	794.938	1457.682	0.288	-	-1.001	-0.484	-	-	-	-	-	-	-	FREEWAY_SMOOTH	Urban	F	1011101000011101	0000000000010000	-	-	-	-	-	-	-	-	-	-	Terminate	
Unknown	132.98599	01/16/0117 09:33.13	00007979	15.522	Inter752t1-2	0.080	1	2	230.565	24.444	-18.7	0.037	0.000	D	F	1540.7	230.479	0.187	-3.327	782.444	1448.156	0.292	-	-1.361	-0.378	-	-	-	-	-	-	-	FREEWAY_SMOOTH	Urban	F	1011101000011101	0000000000010000	-	-	-	-	-	-	-	-	-	-	Terminate	
Unknown	133.98601	01/16/0117 09:33.14	00008039	15.164	Inter752t1-2	-0.075	1	2	226.773	24.444	-15.7	0.041	0.000	D	F	1524.1	225.704	0.138	-3.358	771.061	1437.877	0.283	-	-1.174	-0.346	-	-	-	-	-	-	-	FREEWAY_SMOOTH	Urban	F	1011101000011101	0000000000010000	-	-	-	-	-	-	-	-	-	-	Terminate	
Unknown	134.98604	01/16/0117 09:33.15	00008099	14.831	Inter752t1-2	-0.396	1	2	223.015	24.444	-12.7	0.039	0.000	D	F	1505.0	221.666	0.113	-3.387	760.743	1426.995	0.264	-	-0.949	-0.330	-	-	-	-	-	-	-	FREEWAY_SMOOTH	Urban	F	1011101000011101	0000000000010000	-	-	-	-	-	-	-	-	-	-	Terminate	
Unknown	135.98605	01/16/0117 09:33.16	00008159	14.514	Inter752t1-2	-0.693	1	2	219.302	24.444	-11.3	0.042	0.000	D	F	1492.8	218.474	0.147	-3.408	751.346	1415.730	0.246	-	-0.786	-0.310	-	-	-	-	-	-	-	FREEWAY_SMOOTH	Urban	F	1011101000011101	0000000000010000	-	-	-	-	-	-	-	-	-	-	Terminate	
Unknown	136.98607	01/16/0117 09:33.17	00008219	14.211	Inter752t1-2	-0.854	1	2	215.691	24.444	-3.7	0.042	0.000	D	F	1481.4	215.458	0.180	-3.439	742.762	1404.218	0.236	-	-0.537	-0.287	-	-	-	-	-	-	-	FREEWAY_SMOOTH	Urban	F	1011101000011101	0000000000010000	-	-	-	-	-	-	-	-	-	-	Terminate	
Unknown	137.98610	01/16/0117 09:33.18	00008279	13.950	Inter752t1-2	-0.688	1	2	212.160	24.444	-5.4	0.056	0.000	D	F	1485.5	213.943	0.299	-3.453	734.795	1392.611	0.246	L	-0.423	-0.255	-	-	-	-	-	-	-	FREEWAY_SMOOTH	Urban	F	1011101000111101	0000000000010000	-	-	-	-	-	-	-	-	-	-	Terminate	
Unknown	138.98611	01/16/0117 09:33.19	00008339	13.730	Inter752t1-2	-0.222	1	2	208.703	24.444	-22.3	0.065	0.000	D	F	1490.3	210.469	0.302	-3.347	727.419	1380.911	0.273	-	-1.227	-0.184	-	-	-	-	-	-	-	FREEWAY_SMOOTH	Urban	F	1011101000011101	0000000000010000	-	-	-	-	-	-	-	-	-	-	Terminate	
Unknown	139.98613	01/16/0117 09:33.20	00008399	13.587	Inter752t1-2	-0.046	1	2	205.303	24.444	-17.0	0.071	0.000	D	F	1487.9	205.472	0.206	-3.381	721.097	1368.812	0.284	-	-1.015	-0.131	-	-	-	-	-	-	-	FREEWAY_SMOOTH	Urban	F	1011101000011101	0000000000010000	-	-	-	-	-	-	-	-	-	-	Terminate	
Unknown	140.98616	01/16/0117 09:33.21	00008459	13.462	Inter752t1-2	-0.139	1	2	201.908	24.444	-14.1	0.071	0.000	D	F	1479.8	201.223	0.152	-3.398	715.799	1356.371	0.278	-	-0.891	-0.114	-	-	-	-	-	-	-	FREEWAY_SMOOTH	Urban	F	1011101000011101	0000000000010000	-	-	-	-	-	-	-	-	-	-	Terminate	
Unknown	141.98618	01/16/0117 09:33.22	00008519	13.367	Inter752t1-2	-0.332	1	2	198.560	24.444	-12.2	0.078	0.000	D	F	1484.3	197.939	0.158	-3.413	711.372	1343.709	0.267	-	-0.733	-0.097	-	-	-	-	-	-	-	FREEWAY_SMOOTH	Urban	F	1011101000011101	0000000000010000	-	-	-	-	-	-	-	-	-	-	Terminate	
Unknown	142.98619	01/16/0117 09:33.23	00008579	13.048	Inter752t1-2	-0.480	1	2	195.323	24.444	-2.1	0.019	0.000	D	F	1285.6	195.092	0.087	-3.203	707.687	1330.974	0.243	-	-0.339	-0.484	-	-	-	-	-	-	-	FREEWAY_SMOOTH	Urban	F	1011101000011101	0000000000010000	-	-	-	-	-	-	-	-	-	-	Terminate	
Unknown	143.98621	01/16/0117 09:33.24	00008639	12.532	Inter752t1-2	-0.335	1	2	192.489	24.444	-5.8	0.000	0.000	D	F	1231.3	194.280	0.182	-2.892	704.498	1318.567	0.230	-	-0.270	-0.604	-	-	-	-	-	-	-	FREEWAY_SMOOTH	Urban	F	1011101000011101	0000000000010000	-	-	-	-	-	-	-	-	-	-	Terminate	
