"Name"	"Project"	"Time"	ZoneName	Time	SystemTime	Frame	Velocity	LaneName	LanePos	LaneIndex	LaneCount	LaneHeading	SpeedLimit	Steer	Accel	Brake	Gear	Horn	SubjectEngineRPM	SubjectHeading	SubjectPitch	SubjectRoll	SubjectX	SubjectY	SubjectZ	Signal	LatAccel	LongAccel	Collision	CollisionAngle	CollisionVelocity	VehAhead	HeadwayTime	HeadwayDist	TTC	TerrainType	CultureType	Slip	DigitalInputs	DigitalInputs2	ActiveTrigger	EntityName	DistToEntity	TimeToEntity	EntityVelocity	EntityAccel	EntityHeading	EntityX	EntityY	EntityZ	GrabData	
"Student7Mode1"	"Seema_Shokoufeh_Track2"	"Nov 29, 2016 09:28:37 AM"	Unknown	0.98335	10/29/0116 09:28.41	00000059	0.002	Inter625t13-0	-0.088	1	2	0.000	11.111	5.3	0.000	0.000	P	F	0.0	0.002	0.153	-0.002	1503.500	523.206	0.019	-	-0.000	0.000	-	-	-	-	-	-	-	PAVEMENT_GENERAL	Urban	F	1011101000010101	0000000000000000	-	-	-	-	-	-	-	-	-	-	Terminate	
"Student7Mode1"	"Seema_Shokoufeh_Track2"	"Nov 29, 2016 09:28:37 AM"	Unknown	1.98337	10/29/0116 09:28.42	00000119	0.000	Inter625t13-0	-0.088	1	2	0.000	11.111	6.3	0.000	0.000	P	F	0.0	0.001	0.197	-0.000	1503.500	523.208	0.026	-	-0.000	-0.001	-	-	-	-	-	-	-	PAVEMENT_GENERAL	Urban	F	1011101000010101	0000000000000000	-	-	-	-	-	-	-	-	-	-	Terminate	
"Student7Mode1"	"Seema_Shokoufeh_Track2"	"Nov 29, 2016 09:28:37 AM"	Unknown	2.98339	10/29/0116 09:28.43	00000179	-0.000	Inter625t13-0	-0.088	1	2	0.000	11.111	-10.2	0.000	0.027	P	F	0.0	0.001	0.207	-0.000	1503.500	523.208	0.028	-	0.000	0.000	-	-	-	-	-	-	-	PAVEMENT_GENERAL	Urban	F	1011101000010101	0000000000000000	-	-	-	-	-	-	-	-	-	-	Terminate	
"Student7Mode1"	"Seema_Shokoufeh_Track2"	"Nov 29, 2016 09:28:37 AM"	Unknown	3.98341	10/29/0116 09:28.44	00000239	-0.000	Inter625t13-0	-0.088	1	2	0.000	11.111	-6.5	0.000	0.045	P	F	105.6	0.001	0.209	0.000	1503.500	523.208	0.028	-	-0.000	0.000	-	-	-	-	-	-	-	PAVEMENT_GENERAL	Urban	F	1011101000010111	0000000000000000	-	-	-	-	-	-	-	-	-	-	Terminate	
"Student7Mode1"	"Seema_Shokoufeh_Track2"	"Nov 29, 2016 09:28:37 AM"	Unknown	4.98343	10/29/0116 09:28.45	00000299	-0.000	Inter625t13-0	-0.088	1	2	0.000	11.111	-6.5	0.000	0.042	P	F	438.9	0.001	0.209	0.000	1503.500	523.208	0.028	-	-0.000	0.000	-	-	-	-	-	-	-	PAVEMENT_GENERAL	Urban	F	1011101000010101	0000000000000000	-	-	-	-	-	-	-	-	-	-	Terminate	
"Student7Mode1"	"Seema_Shokoufeh_Track2"	"Nov 29, 2016 09:28:37 AM"	Unknown	5.98345	10/29/0116 09:28.46	00000359	-0.000	Inter625t13-0	-0.088	1	2	0.000	11.111	-7.9	0.000	0.000	P	F	477.5	0.001	0.209	0.000	1503.500	523.208	0.028	-	-0.000	0.000	-	-	-	-	-	-	-	PAVEMENT_GENERAL	Urban	F	1011101000010101	0000000000000000	-	-	-	-	-	-	-	-	-	-	Terminate	
"Student7Mode1"	"Seema_Shokoufeh_Track2"	"Nov 29, 2016 09:28:37 AM"	Unknown	6.98347	10/29/0116 09:28.47	00000419	-0.000	Inter625t13-0	-0.088	1	2	0.000	11.111	-0.0	0.000	0.000	P	F	477.5	0.001	0.209	0.000	1503.500	523.208	0.028	-	0.000	0.000	-	-	-	-	-	-	-	PAVEMENT_GENERAL	Urban	F	1011101000010101	0000000000000000	-	-	-	-	-	-	-	-	-	-	Terminate	
"Student7Mode1"	"Seema_Shokoufeh_Track2"	"Nov 29, 2016 09:28:37 AM"	Unknown	7.98349	10/29/0116 09:28.48	00000479	-0.000	Inter625t13-0	-0.088	1	2	0.000	11.111	-1.9	0.000	0.000	P	F	477.5	0.001	0.209	0.000	1503.500	523.208	0.028	-	-0.000	0.000	-	-	-	-	-	-	-	PAVEMENT_GENERAL	Urban	F	1011101000010101	0000000000000000	-	-	-	-	-	-	-	-	-	-	Terminate	
"Student7Mode1"	"Seema_Shokoufeh_Track2"	"Nov 29, 2016 09:28:37 AM"	Unknown	8.98351	10/29/0116 09:28.49	00000539	-0.000	Inter625t13-0	-0.088	1	2	0.000	11.111	-1.4	0.000	0.000	P	F	477.5	0.001	0.209	0.000	1503.500	523.208	0.028	-	-0.000	0.000	-	-	-	-	-	-	-	PAVEMENT_GENERAL	Urban	F	1011101000010101	0000000000000000	-	-	-	-	-	-	-	-	-	-	Terminate	
"Student7Mode1"	"Seema_Shokoufeh_Track2"	"Nov 29, 2016 09:28:37 AM"	Unknown	9.98353	10/29/0116 09:28.50	00000599	-0.000	Inter625t13-0	-0.088	1	2	0.000	11.111	-2.8	0.000	0.000	P	F	477.5	0.001	0.209	0.000	1503.500	523.208	0.028	-	0.000	0.000	-	-	-	-	-	-	-	PAVEMENT_GENERAL	Urban	F	1011101000010101	0000000000000000	-	-	-	-	-	-	-	-	-	-	Terminate	
"Student7Mode1"	"Seema_Shokoufeh_Track2"	"Nov 29, 2016 09:28:37 AM"	Unknown	10.98355	10/29/0116 09:28.51	00000659	-0.000	Inter625t13-0	-0.088	1	2	0.000	11.111	-2.8	0.254	0.000	P	F	5892.7	0.001	0.209	0.000	1503.500	523.208	0.028	-	0.000	0.000	-	-	-	-	-	-	-	PAVEMENT_GENERAL	Urban	F	1011101000010101	0000000000000000	-	-	-	-	-	-	-	-	-	-	Terminate	
"Student7Mode1"	"Seema_Shokoufeh_Track2"	"Nov 29, 2016 09:28:37 AM"	Unknown	11.98357	10/29/0116 09:28.52	00000719	0.000	Inter625t13-0	-0.088	1	2	0.000	11.111	-3.4	0.000	0.000	P	F	3860.5	0.001	0.209	0.000	1503.500	523.208	0.028	-	-0.000	0.000	-	-	-	-	-	-	-	PAVEMENT_GENERAL	Urban	F	1011101000010101	0000000000000000	-	-	-	-	-	-	-	-	-	-	Terminate	
"Student7Mode1"	"Seema_Shokoufeh_Track2"	"Nov 29, 2016 09:28:37 AM"	Unknown	12.98359	10/29/0116 09:28.53	00000779	0.000	Inter625t13-0	-0.088	1	2	0.000	11.111	-6.0	0.000	0.191	P	F	1670.0	0.001	0.209	0.000	1503.500	523.208	0.028	-	0.000	-0.000	-	-	-	-	-	-	-	PAVEMENT_GENERAL	Urban	F	1011101000010101	0000000000000000	-	-	-	-	-	-	-	-	-	-	Terminate	
"Student7Mode1"	"Seema_Shokoufeh_Track2"	"Nov 29, 2016 09:28:37 AM"	Unknown	13.98361	10/29/0116 09:28.54	00000839	0.000	Inter625t13-0	-0.088	1	2	0.000	11.111	-5.9	0.000	0.051	D	F	477.5	0.001	0.209	0.000	1503.500	523.208	0.028	-	-0.000	0.000	-	-	-	-	-	-	-	PAVEMENT_GENERAL	Urban	F	1011101000010101	0000000000000000	-	-	-	-	-	-	-	-	-	-	Terminate	
"Student7Mode1"	"Seema_Shokoufeh_Track2"	"Nov 29, 2016 09:28:37 AM"	Unknown	14.98363	10/29/0116 09:28.55	00000899	0.005	Inter625t13-0	-0.088	1	2	0.000	11.111	2.1	0.000	0.000	D	F	477.5	0.001	0.207	-0.000	1503.500	523.209	0.027	-	0.000	0.018	-	-	-	-	-	-	-	PAVEMENT_GENERAL	Urban	F	1011101000010101	0000000000000000	-	-	-	-	-	-	-	-	-	-	Terminate	
"Student7Mode1"	"Seema_Shokoufeh_Track2"	"Nov 29, 2016 09:28:37 AM"	Unknown	15.98365	10/29/0116 09:28.56	00000959	1.359	Inter625t13-0	-0.086	1	2	0.000	11.111	8.9	0.095	0.000	D	F	1212.0	0.057	0.234	-0.003	1503.502	523.610	0.015	-	0.025	2.438	-	-	-	-	-	-	-	PAVEMENT_GENERAL	Urban	F	1011101000010101	0000000000000000	-	-	-	-	-	-	-	-	-	-	Terminate	
"Student7Mode1"	"Seema_Shokoufeh_Track2"	"Nov 29, 2016 09:28:37 AM"	Unknown	16.98367	10/29/0116 09:28.57	00001019	3.965	Inter625t13-0	-0.059	1	2	0.000	11.111	2.5	0.182	0.000	D	F	1668.9	0.519	0.227	0.000	1503.529	526.263	0.014	-	-0.014	2.541	-	-	-	-	-	-	-	PAVEMENT_GENERAL	Urban	F	1011101000010101	0000000000000000	-	-	-	-	-	-	-	-	-	-	Terminate	
"Student7Mode1"	"Seema_Shokoufeh_Track2"	"Nov 29, 2016 09:28:37 AM"	Unknown	17.98369	10/29/0116 09:28.58	00001079	6.588	Inter625t13-0	-0.021	1	2	0.000	11.111	5.4	0.310	0.000	D	F	2232.7	0.449	0.222	-0.013	1503.567	531.491	0.013	-	0.089	2.707	-	-	-	-	-	-	-	PAVEMENT_GENERAL	Urban	F	1011101000010101	0000000000000000	-	-	-	-	-	-	-	-	-	-	Terminate	
"Student7Mode1"	"Seema_Shokoufeh_Track2"	"Nov 29, 2016 09:28:37 AM"	Unknown	18.98371	10/29/0116 09:28.59	00001139	9.029	Inter625t49-0	0.075	1	1	0.006	11.111	1.3	0.291	0.000	D	F	2220.5	0.762	0.213	-0.007	1503.663	539.331	0.015	-	0.032	2.053	-	-	-	-	-	-	-	PAVEMENT_GENERAL	Urban	F	1011101000010101	0000000000000000	-	-	-	-	-	-	-	-	-	-	Terminate	
"Student7Mode1"	"Seema_Shokoufeh_Track2"	"Nov 29, 2016 09:28:37 AM"	Unknown	19.98373	10/29/0116 09:29.00	00001199	10.647	Inter625t49-0	0.231	1	1	0.008	11.111	1.6	0.314	0.000	D	F	2120.2	1.082	0.213	-0.011	1503.820	549.198	0.019	-	0.067	1.497	-	-	-	-	-	-	-	PAVEMENT_GENERAL	Urban	F	1011101000010101	0000000000000000	-	-	-	-	-	-	-	-	-	-	Terminate	
"Student7Mode1"	"Seema_Shokoufeh_Track2"	"Nov 29, 2016 09:28:37 AM"	Unknown	20.98375	10/29/0116 09:29.01	00001259	12.140	Inter625t49-0	0.410	1	1	0.006	11.111	-3.3	0.363	0.000	D	F	2277.2	0.584	0.212	0.021	1504.001	560.589	0.020	-	-0.146	1.462	-	-	-	-	-	-	-	PAVEMENT_GENERAL	Urban	F	1011101000010101	0000000000000000	-	-	-	-	-	-	-	-	-	-	Terminate	
"Student7Mode1"	"Seema_Shokoufeh_Track2"	"Nov 29, 2016 09:28:37 AM"	Unknown	21.98377	10/29/0116 09:29.02	00001319	13.540	Inter625t49-0	0.488	1	1	0.005	11.111	-2.2	0.356	0.000	D	F	2438.8	0.153	0.210	0.016	1504.080	573.436	0.020	-	-0.104	1.370	-	-	-	-	-	-	-	PAVEMENT_GENERAL	Urban	F	1011101000010101	0000000000000000	-	-	-	-	-	-	-	-	-	-	Terminate	
"Student7Mode1"	"Seema_Shokoufeh_Track2"	"Nov 29, 2016 09:28:37 AM"	Unknown	22.98379	10/29/0116 09:29.03	00001379	14.909	Inter625t15-0	0.481	1	2	0.000	11.111	0.0	0.363	0.000	D	F	2606.6	359.863	0.208	0.002	1504.074	587.662	0.020	-	-0.014	1.326	-	-	-	-	-	-	-	PAVEMENT_GENERAL	Urban	F	1011101000010101	0000000000000000	-	-	-	-	-	-	-	-	-	-	Terminate	
"Student7Mode1"	"Seema_Shokoufeh_Track2"	"Nov 29, 2016 09:28:37 AM"	Unknown	23.98381	10/29/0116 09:29.04	00001439	16.265	Inter614t1-0	0.469	1	2	0.000	11.111	1.0	0.407	0.000	D	F	2812.2	0.124	0.207	-0.010	1504.062	603.249	0.020	-	0.077	1.357	-	-	-	-	-	-	-	PAVEMENT_GENERAL	Urban	F	1011101000010101	0000000000000000	-	-	-	-	-	-	-	-	-	-	Terminate	
"Student7Mode1"	"Seema_Shokoufeh_Track2"	"Nov 29, 2016 09:28:37 AM"	Unknown	24.98383	10/29/0116 09:29.05	00001499	17.462	Inter614t1-0	0.529	1	2	0.000	11.111	1.5	0.146	0.000	D	F	2318.1	0.336	0.195	-0.011	1504.122	620.159	0.022	-	0.090	0.607	-	-	-	12	12.539	218.961	-	PAVEMENT_GENERAL	Urban	F	1011101000010101	0000000000000000	-	-	-	-	-	-	-	-	-	-	Terminate	
"Student7Mode1"	"Seema_Shokoufeh_Track2"	"Nov 29, 2016 09:28:37 AM"	Unknown	25.98385	10/29/0116 09:29.06	00001559	17.422	Inter614t1-0	0.679	1	2	0.000	11.111	-3.3	0.141	0.000	D	F	1923.6	0.638	0.192	0.018	1504.272	637.597	0.026	-	-0.072	0.070	-	-	-	12	12.638	220.188	-	PAVEMENT_GENERAL	Urban	F	1011101000010101	0000000000000000	-	-	-	-	-	-	-	-	-	-	Terminate	
"Student7Mode1"	"Seema_Shokoufeh_Track2"	"Nov 29, 2016 09:28:37 AM"	Unknown	26.98387	10/29/0116 09:29.07	00001619	17.513	Inter614t1-0	0.761	1	2	0.000	11.111	-3.4	0.146	0.000	D	F	1930.2	359.821	0.192	0.029	1504.354	655.062	0.026	-	-0.227	0.094	-	-	-	12	12.748	223.264	-	PAVEMENT_GENERAL	Urban	F	1011101000010101	0000000000000000	-	-	-	-	-	-	-	-	-	-	Terminate	
"Student7Mode1"	"Seema_Shokoufeh_Track2"	"Nov 29, 2016 09:28:37 AM"	Unknown	27.98389	10/29/0116 09:29.08	00001679	17.618	Inter614t1-0	0.649	1	2	0.000	11.111	2.8	0.162	0.000	D	F	1963.3	359.605	0.193	-0.019	1504.242	672.624	0.026	-	0.112	0.150	-	-	-	12	12.894	227.160	-	PAVEMENT_GENERAL	Urban	F	1011101000010101	0000000000000000	-	-	-	-	-	-	-	-	-	-	Terminate	
"Student7Mode1"	"Seema_Shokoufeh_Track2"	"Nov 29, 2016 09:28:37 AM"	Unknown	28.98391	10/29/0116 09:29.09	00001739	17.792	Inter614t1-0	0.578	1	2	0.000	11.111	0.2	0.168	0.000	D	F	1987.7	359.892	0.193	-0.005	1504.172	690.327	0.026	-	0.038	0.181	-	-	-	12	13.008	231.435	-	PAVEMENT_GENERAL	Urban	F	1011101000010101	0000000000000000	-	-	-	-	-	-	-	-	-	-	Terminate	
"Student7Mode1"	"Seema_Shokoufeh_Track2"	"Nov 29, 2016 09:28:37 AM"	Unknown	29.98393	10/29/0116 09:29.10	00001799	18.032	Inter614t1-0	0.539	1	2	0.000	11.111	0.6	0.217	0.000	D	F	2094.2	359.867	0.195	-0.002	1504.132	708.223	0.025	-	0.016	0.370	-	-	-	12	13.081	235.876	-	PAVEMENT_GENERAL	Urban	F	1011101000010101	0000000000000000	-	-	-	-	-	-	-	-	-	-	Terminate	
"Student7Mode1"	"Seema_Shokoufeh_Track2"	"Nov 29, 2016 09:28:37 AM"	Unknown	30.98395	10/29/0116 09:29.11	00001859	18.442	Inter614t1-0	0.518	1	2	0.000	11.111	0.9	0.217	0.000	D	F	2123.7	0.036	0.194	-0.007	1504.111	726.464	0.025	-	0.062	0.394	-	-	-	12	13.013	239.988	-	PAVEMENT_GENERAL	Urban	F	1011101000010101	0000000000000000	-	-	-	-	-	-	-	-	-	-	Terminate	
"Student7Mode1"	"Seema_Shokoufeh_Track2"	"Nov 29, 2016 09:28:37 AM"	Unknown	31.98397	10/29/0116 09:29.12	00001919	18.794	Inter614t1-0	0.547	1	2	0.000	11.111	-0.3	0.187	0.000	D	F	2095.6	0.146	0.191	-0.001	1504.141	745.096	0.025	-	0.007	0.252	-	-	-	12	12.968	243.710	-	PAVEMENT_GENERAL	Urban	F	1011101000010101	0000000000000000	-	-	-	-	-	-	-	-	-	-	Terminate	
"Student7Mode1"	"Seema_Shokoufeh_Track2"	"Nov 29, 2016 09:28:37 AM"	Unknown	32.98399	10/29/0116 09:29.13	00001979	18.974	Inter614t1-0	0.578	1	2	0.000	11.111	0.3	0.157	0.000	D	F	2068.2	0.025	0.188	0.000	1504.171	763.994	0.026	-	-0.010	0.073	-	-	-	-	-	-	-	PAVEMENT_GENERAL	Urban	F	1011101000010101	0000000000000000	-	-	-	-	-	-	-	-	-	-	Terminate	
"Student7Mode1"	"Seema_Shokoufeh_Track2"	"Nov 29, 2016 09:28:37 AM"	Unknown	33.98401	10/29/0116 09:29.14	00002039	19.066	Inter614t1-0	0.604	1	2	0.000	11.111	-0.8	0.162	0.000	D	F	2084.8	0.136	0.190	0.005	1504.197	783.011	0.026	-	-0.011	0.105	-	-	-	-	-	-	-	PAVEMENT_GENERAL	Urban	F	1011101000010101	0000000000000000	-	-	-	-	-	-	-	-	-	-	Terminate	
"Student7Mode1"	"Seema_Shokoufeh_Track2"	"Nov 29, 2016 09:28:37 AM"	Unknown	34.98403	10/29/0116 09:29.15	00002099	19.168	Inter612t1-0	0.622	1	2	0.000	11.111	-0.1	0.162	0.000	D	F	2094.4	0.000	0.190	0.002	1504.215	802.128	0.026	-	-0.022	0.102	-	-	-	-	-	-	-	PAVEMENT_GENERAL	Urban	F	1011101000010101	0000000000000000	-	-	-	-	-	-	-	-	-	-	Terminate	
"Student7Mode1"	"Seema_Shokoufeh_Track2"	"Nov 29, 2016 09:28:37 AM"	Unknown	35.98405	10/29/0116 09:29.16	00002159	19.264	Inter612t1-0	0.596	1	2	0.000	11.111	-1.5	0.160	0.000	D	F	2097.7	359.770	0.189	0.015	1504.190	821.346	0.026	-	-0.111	0.084	-	-	-	-	-	-	-	PAVEMENT_GENERAL	Urban	F	1011101000010101	0000000000000000	-	-	-	-	-	-	-	-	-	-	Terminate	
"Student7Mode1"	"Seema_Shokoufeh_Track2"	"Nov 29, 2016 09:28:37 AM"	Unknown	36.98407	10/29/0116 09:29.17	00002219	19.354	Inter612t1-0	0.485	1	2	0.000	11.111	-0.4	0.162	0.000	D	F	2109.9	359.574	0.189	0.004	1504.079	840.654	0.026	-	-0.034	0.093	-	-	-	-	-	-	-	PAVEMENT_GENERAL	Urban	F	1011101000010101	0000000000000000	-	-	-	-	-	-	-	-	-	-	Terminate	
"Student7Mode1"	"Seema_Shokoufeh_Track2"	"Nov 29, 2016 09:28:37 AM"	Unknown	37.98409	10/29/0116 09:29.18	00002279	19.432	Inter612t1-0	0.343	1	2	0.000	11.111	0.2	0.157	0.000	D	F	2109.3	359.624	0.189	-0.003	1503.937	860.050	0.026	-	0.024	0.064	-	-	-	-	-	-	-	PAVEMENT_GENERAL	Urban	F	1111101000010101	0000000000000000	-	-	-	-	-	-	-	-	-	-	Terminate	
"Student7Mode1"	"Seema_Shokoufeh_Track2"	"Nov 29, 2016 09:28:37 AM"	Unknown	38.98411	10/29/0116 09:29.19	00002339	19.499	Inter612t1-0	0.222	1	2	0.000	11.111	0.6	0.155	0.000	D	F	2113.0	359.694	0.189	-0.005	1503.815	879.516	0.026	-	0.038	0.058	-	-	-	-	-	-	-	PAVEMENT_GENERAL	Urban	F	1011101000010101	0000000000000000	-	-	-	-	-	-	-	-	-	-	Terminate	
"Student7Mode1"	"Seema_Shokoufeh_Track2"	"Nov 29, 2016 09:28:37 AM"	Unknown	39.98413	10/29/0116 09:29.20	00002399	19.556	Inter612t1-0	0.168	1	2	0.000	11.111	2.6	0.157	0.000	D	F	2119.6	0.140	0.189	-0.024	1503.762	899.043	0.026	-	0.190	0.062	-	-	-	-	-	-	-	PAVEMENT_GENERAL	Urban	F	1011101000010101	0000000000000000	-	-	-	-	-	-	-	-	-	-	Terminate	
"Student7Mode1"	"Seema_Shokoufeh_Track2"	"Nov 29, 2016 09:28:37 AM"	Unknown	40.98415	10/29/0116 09:29.21	00002459	19.610	Inter612t1-0	0.291	1	2	0.000	11.111	2.3	0.157	0.000	D	F	2122.1	0.661	0.188	-0.021	1503.884	918.627	0.026	-	0.163	0.051	-	-	-	-	-	-	-	PAVEMENT_GENERAL	Urban	F	1011101000010101	0000000000000000	-	-	-	-	-	-	-	-	-	-	Terminate	
"Student7Mode1"	"Seema_Shokoufeh_Track2"	"Nov 29, 2016 09:28:37 AM"	Unknown	41.98417	10/29/0116 09:29.22	00002519	19.656	Inter612t1-0	0.497	1	2	0.000	11.111	-3.9	0.153	0.000	D	F	2123.8	0.293	0.188	0.036	1504.090	938.259	0.026	-	-0.262	0.044	-	-	-	-	-	-	-	PAVEMENT_GENERAL	Urban	F	1011101000010101	0000000000000000	-	-	-	-	-	-	-	-	-	-	Terminate	
"Student7Mode1"	"Seema_Shokoufeh_Track2"	"Nov 29, 2016 09:28:37 AM"	Unknown	42.98419	10/29/0116 09:29.23	00002579	19.688	Inter612t1-0	0.514	1	2	0.000	11.111	-2.6	0.152	0.000	D	F	2122.8	359.749	0.188	0.022	1504.108	957.932	0.027	-	-0.178	0.025	-	-	-	-	-	-	-	PAVEMENT_GENERAL	Urban	F	1011101000010101	0000000000000000	-	-	-	-	-	-	-	-	-	-	Terminate	
"Student7Mode1"	"Seema_Shokoufeh_Track2"	"Nov 29, 2016 09:28:37 AM"	Unknown	43.98421	10/29/0116 09:29.24	00002639	19.712	Inter612t1-0	0.362	1	2	0.000	11.111	-0.3	0.153	0.000	D	F	2125.1	359.333	0.188	0.011	1503.955	977.631	0.027	-	-0.080	0.025	-	-	-	-	-	-	-	PAVEMENT_GENERAL	Urban	F	1011101000010101	0000000000000000	-	-	-	-	-	-	-	-	-	-	Terminate	
"Student7Mode1"	"Seema_Shokoufeh_Track2"	"Nov 29, 2016 09:28:37 AM"	Unknown	44.98423	10/29/0116 09:29.25	00002699	19.734	Inter612t1-0	0.182	1	2	0.000	11.111	3.4	0.152	0.000	D	F	2124.1	359.812	0.188	-0.032	1503.775	997.354	0.027	-	0.244	0.017	-	-	-	-	-	-	-	PAVEMENT_GENERAL	Urban	F	1011101000010101	0000000000000000	-	-	-	-	-	-	-	-	-	-	Terminate	
"Student7Mode1"	"Seema_Shokoufeh_Track2"	"Nov 29, 2016 09:28:37 AM"	Unknown	45.98425	10/29/0116 09:29.26	00002759	19.750	Inter613t1-0	0.167	1	2	0.000	11.111	-3.7	0.148	0.000	D	F	2125.7	359.904	0.188	0.027	1503.760	1017.096	0.027	-	-0.193	0.016	-	-	-	-	-	-	-	PAVEMENT_GENERAL	Urban	F	1011101000010101	0000000000000000	-	-	-	-	-	-	-	-	-	-	Terminate	
"Student7Mode1"	"Seema_Shokoufeh_Track2"	"Nov 29, 2016 09:28:37 AM"	Unknown	46.98427	10/29/0116 09:29.27	00002819	19.761	Inter613t1-0	0.025	1	2	0.000	11.111	-3.9	0.145	0.000	D	F	2125.0	359.132	0.188	0.037	1503.618	1036.852	0.027	-	-0.278	0.008	-	-	-	-	-	-	-	PAVEMENT_GENERAL	Urban	F	1011101000010101	0000000000000000	-	-	-	-	-	-	-	-	-	-	Terminate	
"Student7Mode1"	"Seema_Shokoufeh_Track2"	"Nov 29, 2016 09:28:37 AM"	Unknown	47.98429	10/29/0116 09:29.28	00002879	19.767	Inter613t1-0	-0.269	1	2	0.000	11.111	3.3	0.145	0.000	D	F	1998.2	359.631	0.189	-0.042	1503.324	1056.614	0.027	-	0.360	0.072	-	-	-	-	-	-	-	PAVEMENT_GENERAL	Urban	F	1011101000010101	0000000000000000	-	-	-	-	-	-	-	-	-	-	Terminate	
"Student7Mode1"	"Seema_Shokoufeh_Track2"	"Nov 29, 2016 09:28:37 AM"	Unknown	48.98431	10/29/0116 09:29.29	00002939	19.745	Inter613t1-0	-0.321	1	2	0.000	11.111	3.6	0.145	0.000	D	F	1677.0	0.206	0.188	-0.024	1503.272	1076.378	0.027	-	0.226	-0.043	-	-	-	-	-	-	-	PAVEMENT_GENERAL	Urban	F	1011101000010101	0000000000000000	-	-	-	-	-	-	-	-	-	-	Terminate	
"Student7Mode1"	"Seema_Shokoufeh_Track2"	"Nov 29, 2016 09:28:37 AM"	Unknown	49.98433	10/29/0116 09:29.30	00002999	19.678	Inter613t1-0	-0.181	1	2	0.000	11.111	-0.6	0.123	0.000	D	F	1621.4	0.478	0.187	0.010	1503.412	1096.095	0.027	-	-0.048	-0.107	-	-	-	-	-	-	-	PAVEMENT_GENERAL	Urban	F	1111101000010101	0000000000000000	-	-	-	-	-	-	-	-	-	-	Terminate	
"Student7Mode1"	"Seema_Shokoufeh_Track2"	"Nov 29, 2016 09:28:37 AM"	Unknown	50.98435	10/29/0116 09:29.31	00003059	19.268	Inter613t1-0	-0.038	1	2	0.000	11.111	-1.5	0.000	0.000	D	F	1313.8	0.384	0.181	0.011	1503.555	1115.624	0.029	-	-0.051	-0.592	-	-	-	-	-	-	-	PAVEMENT_GENERAL	Urban	F	1011101000010101	0000000000000000	-	-	-	-	-	-	-	-	-	-	Terminate	
"Student7Mode1"	"Seema_Shokoufeh_Track2"	"Nov 29, 2016 09:28:37 AM"	Unknown	51.98437	10/29/0116 09:29.32	00003119	18.681	Inter613t1-0	0.023	1	2	0.000	11.111	2.0	0.000	0.000	D	F	1273.9	0.000	0.183	-0.006	1503.616	1134.598	0.029	-	0.022	-0.584	-	-	-	-	-	-	-	PAVEMENT_GENERAL	Urban	F	1011101000010101	0000000000000000	-	-	-	-	-	-	-	-	-	-	Terminate	
"Student7Mode1"	"Seema_Shokoufeh_Track2"	"Nov 29, 2016 09:28:37 AM"	Unknown	52.98439	10/29/0116 09:29.33	00003179	16.830	Inter613t1-0	0.089	1	2	0.000	11.111	-3.4	0.000	0.287	D	F	1102.5	0.414	0.095	0.006	1503.682	1152.678	0.036	-	-0.031	-4.041	-	-	-	-	-	-	-	PAVEMENT_GENERAL	Urban	F	1111101000010101	0000000000000000	-	-	-	-	-	-	-	-	-	-	Terminate	
"Student7Mode1"	"Seema_Shokoufeh_Track2"	"Nov 29, 2016 09:28:37 AM"	Unknown	53.98441	10/29/0116 09:29.34	00003239	15.645	Inter613t1-0	0.103	1	2	0.000	11.111	-0.3	0.088	0.000	D	F	1330.7	359.612	0.189	0.018	1503.696	1168.637	0.028	-	-0.130	-0.408	-	-	-	-	-	-	-	PAVEMENT_GENERAL	Urban	F	1011101000010101	0000000000000000	-	-	-	-	-	-	-	-	-	-	Terminate	
"Student7Mode1"	"Seema_Shokoufeh_Track2"	"Nov 29, 2016 09:28:37 AM"	Unknown	54.98443	10/29/0116 09:29.35	00003299	15.563	Inter613t1-0	0.042	1	2	0.000	11.111	4.5	0.095	0.000	D	F	1417.6	0.211	0.194	-0.036	1503.635	1184.243	0.027	-	0.277	-0.070	-	-	-	-	-	-	-	PAVEMENT_GENERAL	Urban	F	1011101000010101	0000000000000000	-	-	-	-	-	-	-	-	-	-	Terminate	
"Student7Mode1"	"Seema_Shokoufeh_Track2"	"Nov 29, 2016 09:28:37 AM"	Unknown	55.98445	10/29/0116 09:29.36	00003359	15.585	Inter613t1-0	0.139	1	2	0.000	11.111	-1.8	0.145	0.000	D	F	1542.8	0.301	0.196	0.013	1503.733	1199.795	0.026	-	-0.099	0.100	-	-	-	-	-	-	-	PAVEMENT_GENERAL	Urban	F	1011101000010101	0000000000000000	-	-	-	-	-	-	-	-	-	-	Terminate	
"Student7Mode1"	"Seema_Shokoufeh_Track2"	"Nov 29, 2016 09:28:37 AM"	Unknown	56.98447	10/29/0116 09:29.37	00003419	15.799	Inter746t1-0	0.194	1	2	0.000	11.111	-0.2	0.169	0.000	D	F	1632.0	0.162	0.196	0.000	1503.787	1215.480	0.025	-	-0.006	0.229	-	-	-	-	-	-	-	PAVEMENT_GENERAL	Urban	F	1011101000010101	0000000000000000	-	-	-	-	-	-	-	-	-	-	Terminate	
"Student7Mode1"	"Seema_Shokoufeh_Track2"	"Nov 29, 2016 09:28:37 AM"	Unknown	57.98449	10/29/0116 09:29.38	00003479	15.979	Inter746t1-0	0.223	1	2	0.000	11.111	-0.9	0.166	0.000	D	F	1621.0	0.000	0.195	0.006	1503.816	1231.373	0.026	-	-0.059	0.188	-	-	-	-	-	-	-	PAVEMENT_GENERAL	Urban	F	1011101000010101	0000000000000000	-	-	-	-	-	-	-	-	-	-	Terminate	
"Student7Mode1"	"Seema_Shokoufeh_Track2"	"Nov 29, 2016 09:28:37 AM"	Unknown	58.98451	10/29/0116 09:29.39	00003539	16.184	Inter746t1-0	0.201	1	2	0.000	11.111	-0.6	0.182	0.000	D	F	1680.5	359.845	0.197	0.005	1503.794	1247.450	0.025	-	-0.035	0.271	-	-	-	-	-	-	-	PAVEMENT_GENERAL	Urban	F	1011101000010101	0000000000000000	-	-	-	-	-	-	-	-	-	-	Terminate	
"Student7Mode1"	"Seema_Shokoufeh_Track2"	"Nov 29, 2016 09:28:37 AM"	Unknown	59.98453	10/29/0116 09:29.40	00003599	16.446	Inter746t1-0	0.146	1	2	0.000	11.111	1.4	0.182	0.000	D	F	1683.0	359.814	0.195	-0.010	1503.739	1263.766	0.025	-	0.055	0.257	-	-	-	-	-	-	-	PAVEMENT_GENERAL	Urban	F	1011101000010101	0000000000000000	-	-	-	-	-	-	-	-	-	-	Terminate	
"Student7Mode1"	"Seema_Shokoufeh_Track2"	"Nov 29, 2016 09:28:37 AM"	Unknown	60.98455	10/29/0116 09:29.41	00003659	16.694	Inter746t1-0	0.125	1	2	0.000	11.111	0.8	0.196	0.000	D	F	1721.8	0.055	0.196	-0.007	1503.719	1280.336	0.025	-	0.056	0.279	-	-	-	-	-	-	-	PAVEMENT_GENERAL	Urban	F	1011101000010101	0000000000000000	-	-	-	-	-	-	-	-	-	-	Terminate	
"Student7Mode1"	"Seema_Shokoufeh_Track2"	"Nov 29, 2016 09:28:37 AM"	Unknown	61.98457	10/29/0116 09:29.42	00003719	17.014	Inter746t1-0	0.155	1	2	0.000	11.111	0.2	0.189	0.000	D	F	1718.2	0.144	0.194	-0.002	1503.748	1297.194	0.025	-	0.016	0.280	-	-	-	-	-	-	-	PAVEMENT_GENERAL	Urban	F	1011101000010101	0000000000000000	-	-	-	-	-	-	-	-	-	-	Terminate	
"Student7Mode1"	"Seema_Shokoufeh_Track2"	"Nov 29, 2016 09:28:37 AM"	Unknown	62.98459	10/29/0116 09:29.43	00003779	17.261	Inter746t1-0	0.196	1	2	0.000	11.111	-0.3	0.185	0.000	D	F	1707.4	0.117	0.194	0.002	1503.790	1314.333	0.025	-	-0.015	0.235	-	-	-	-	-	-	-	PAVEMENT_GENERAL	Urban	F	1011101000010101	0000000000000000	-	-	-	-	-	-	-	-	-	-	Terminate	
"Student7Mode1"	"Seema_Shokoufeh_Track2"	"Nov 29, 2016 09:28:37 AM"	Unknown	63.98461	10/29/0116 09:29.44	00003839	17.485	Inter746t1-0	0.221	1	2	0.000	11.111	-0.5	0.183	0.000	D	F	1713.0	0.025	0.194	0.004	1503.814	1331.707	0.026	-	-0.032	0.219	-	-	-	-	-	-	-	PAVEMENT_GENERAL	Urban	F	1011101000010101	0000000000000000	-	-	-	-	-	-	-	-	-	-	Terminate	
"Student7Mode1"	"Seema_Shokoufeh_Track2"	"Nov 29, 2016 09:28:37 AM"	Unknown	64.98463	10/29/0116 09:29.45	00003899	17.638	Inter746t1-0	0.214	1	2	0.000	11.111	-0.8	0.092	0.000	D	F	1470.3	359.895	0.185	0.006	1503.807	1349.292	0.026	-	-0.049	-0.103	-	-	-	-	-	-	-	PAVEMENT_GENERAL	Urban	F	1011101000010101	0000000000000000	-	-	-	-	-	-	-	-	-	-	Terminate	
"Student7Mode1"	"Seema_Shokoufeh_Track2"	"Nov 29, 2016 09:28:37 AM"	Unknown	65.98465	10/29/0116 09:29.46	00003959	17.293	Inter746t1-0	0.162	1	2	0.000	11.111	-1.2	0.000	0.000	D	F	1179.3	359.709	0.185	0.012	1503.755	1366.806	0.029	-	-0.088	-0.563	-	-	-	-	-	-	-	PAVEMENT_GENERAL	Urban	F	1011101000010101	0000000000000000	-	-	-	-	-	-	-	-	-	-	Terminate	
"Student7Mode1"	"Seema_Shokoufeh_Track2"	"Nov 29, 2016 09:28:37 AM"	Unknown	66.98467	10/29/0116 09:29.47	00004019	16.767	Inter746t1-0	0.033	1	2	0.000	11.111	-1.7	0.035	0.000	D	F	1243.8	359.377	0.189	0.013	1503.626	1383.823	0.029	-	-0.104	-0.400	-	-	-	-	-	-	-	PAVEMENT_GENERAL	Urban	F	1011101000010101	0000000000000000	-	-	-	-	-	-	-	-	-	-	Terminate	
"Student7Mode1"	"Seema_Shokoufeh_Track2"	"Nov 29, 2016 09:28:37 AM"	Unknown	67.98470	10/29/0116 09:29.48	00004079	16.280	Inter749t9-0	-0.206	1	2	0.000	11.111	-7.0	0.000	0.000	D	F	1110.2	358.755	0.186	0.051	1503.387	1400.364	0.029	L	-0.376	-0.550	-	-	-	-	-	-	-	PAVEMENT_GENERAL	Urban	F	1011101000110101	0000000000000000	-	-	-	-	-	-	-	-	-	-	Terminate	
"Student7Mode1"	"Seema_Shokoufeh_Track2"	"Nov 29, 2016 09:28:37 AM"	Unknown	68.98471	10/29/0116 09:29.49	00004139	14.327	Inter749t9-0	-0.835	1	2	0.000	11.111	-11.2	0.000	0.224	D	F	949.7	356.118	0.180	0.101	1502.758	1415.973	0.035	L	-0.732	-2.881	-	-	-	12	8.728	125.056	-	PAVEMENT_GENERAL	Urban	F	1011101000110101	0000000000000000	-	-	-	-	-	-	-	-	-	-	Terminate	
"Student7Mode1"	"Seema_Shokoufeh_Track2"	"Nov 29, 2016 09:28:37 AM"	Unknown	69.98473	10/29/0116 09:29.50	00004199	10.934	Inter749t31-0	-1.206	1	1	355.049	11.111	12.9	0.000	0.251	D	F	1018.3	355.034	0.132	-0.042	1501.748	1428.579	0.035	L	0.268	-3.637	-	-	-	12	11.728	128.232	-	PAVEMENT_GENERAL	Urban	F	1011101000110101	0000000000000000	-	-	-	-	-	-	-	-	-	-	Terminate	
"Student7Mode1"	"Seema_Shokoufeh_Track2"	"Nov 29, 2016 09:28:37 AM"	Unknown	70.98476	10/29/0116 09:29.51	00004259	9.209	Inter749t31-0	-1.058	1	1	355.000	11.111	0.5	0.000	0.113	D	F	890.5	357.497	0.159	0.006	1501.146	1438.370	0.029	L	0.043	-1.699	-	-	-	12	15.308	140.975	-	PAVEMENT_GENERAL	Urban	F	1111101000110101	0000000000000000	-	-	-	-	-	-	-	-	-	-	Terminate	
"Student7Mode1"	"Seema_Shokoufeh_Track2"	"Nov 29, 2016 09:28:37 AM"	Unknown	71.98477	10/29/0116 09:29.52	00004319	8.045	Inter749t31-0	-0.625	1	1	356.313	11.111	5.2	0.000	0.000	D	F	790.6	356.925	0.197	-0.026	1500.735	1446.788	0.028	L	0.137	-0.476	-	-	-	-	-	-	-	PAVEMENT_GENERAL	Urban	F	1011101000110101	0000000000000000	-	-	-	-	-	-	-	-	-	-	Terminate	
"Student7Mode1"	"Seema_Shokoufeh_Track2"	"Nov 29, 2016 09:28:37 AM"	Unknown	72.98479	10/29/0116 09:29.53	00004379	7.573	Inter749t31-0	-0.344	1	1	356.903	11.111	8.9	0.000	0.000	D	F	744.4	358.141	0.197	-0.028	1500.418	1454.590	0.028	L	0.187	-0.470	-	-	-	-	-	-	-	PAVEMENT_GENERAL	Urban	F	1011101000110101	0000000000000000	-	-	-	-	-	-	-	-	-	-	Terminate	
"Student7Mode1"	"Seema_Shokoufeh_Track2"	"Nov 29, 2016 09:28:37 AM"	Unknown	73.98481	10/29/0116 09:29.54	00004439	6.939	Inter749t31-0	-0.086	1	1	356.903	11.111	4.8	0.000	0.000	D	F	682.2	359.329	0.205	-0.010	1500.283	1461.866	0.029	L	0.073	-0.468	-	-	-	-	-	-	-	PAVEMENT_GENERAL	Urban	F	1011101000110101	0000000000000000	-	-	-	-	-	-	-	-	-	-	Terminate	
"Student7Mode1"	"Seema_Shokoufeh_Track2"	"Nov 29, 2016 09:28:37 AM"	Unknown	74.98483	10/29/0116 09:29.55	00004499	4.775	Inter749t11-0	0.184	LT1	2	0.000	11.111	-1.0	0.000	0.125	D	F	477.5	359.711	0.218	0.002	1500.246	1468.072	0.035	L	-0.010	-2.091	-	-	-	-	-	-	-	PAVEMENT_GENERAL	Urban	F	1011101000110101	0000000000000000	-	-	-	-	-	-	-	-	-	-	Terminate	
"Student7Mode1"	"Seema_Shokoufeh_Track2"	"Nov 29, 2016 09:28:37 AM"	Unknown	75.98486	10/29/0116 09:29.56	00004559	4.143	Inter749t11-0	0.155	LT1	2	0.000	11.111	-3.1	0.058	0.000	D	F	1088.7	359.589	0.220	0.003	1500.218	1472.408	0.028	L	-0.019	0.391	-	-	-	-	-	-	-	PAVEMENT_GENERAL	Urban	F	1111101000110101	0000000000000000	-	-	-	-	-	-	-	-	-	-	Terminate	
"Student7Mode1"	"Seema_Shokoufeh_Track2"	"Nov 29, 2016 09:28:37 AM"	Unknown	76.98487	10/29/0116 09:29.57	00004619	4.346	Inter749t11-0	0.106	LT1	2	0.000	11.111	-2.6	0.000	0.000	D	F	658.6	359.304	0.190	0.002	1500.169	1476.818	0.027	L	-0.010	-0.462	-	-	-	-	-	-	-	PAVEMENT_GENERAL	Urban	F	1011101000110101	0000000000000000	-	-	-	-	-	-	-	-	-	-	Terminate	
"Student7Mode1"	"Seema_Shokoufeh_Track2"	"Nov 29, 2016 09:28:37 AM"	Unknown	77.98489	10/29/0116 09:29.58	00004679	3.887	Inter749t11-0	0.064	LT1	2	0.000	11.111	0.2	0.000	0.000	D	F	589.5	359.475	0.199	0.005	1500.126	1480.934	0.028	L	-0.022	-0.459	-	-	-	-	-	-	-	PAVEMENT_GENERAL	Urban	F	1011101000110101	0000000000000000	-	-	-	-	-	-	-	-	-	-	Terminate	
"Student7Mode1"	"Seema_Shokoufeh_Track2"	"Nov 29, 2016 09:28:37 AM"	Unknown	78.98492	10/29/0116 09:29.59	00004739	3.434	Inter749t65-0	0.260	1	1	349.495	11.111	-8.1	0.078	0.000	D	F	816.7	359.144	0.200	0.006	1500.077	1484.592	0.028	L	-0.037	-0.346	-	-	-	-	-	-	-	PAVEMENT_GENERAL	Urban	F	1011101000110101	0000000000000000	-	-	-	-	-	-	-	-	-	-	Terminate	
"Student7Mode1"	"Seema_Shokoufeh_Track2"	"Nov 29, 2016 09:28:37 AM"	Unknown	79.98493	10/29/0116 09:30.00	00004799	5.083	Inter749t65-0	1.230	1	1	339.263	11.111	-23.3	0.123	0.000	D	F	1648.9	357.899	0.207	0.032	1499.945	1488.854	0.019	L	-0.246	1.243	-	-	-	-	-	-	-	PAVEMENT_GENERAL	Urban	F	1011101000110101	0000000000000000	-	-	-	-	-	-	-	-	-	-	Terminate	
"Student7Mode1"	"Seema_Shokoufeh_Track2"	"Nov 29, 2016 09:28:37 AM"	Unknown	80.98495	10/29/0116 09:30.01	00004859	6.171	-Inter749t61-0	-1.609	-1	1	89.733	11.111	-74.5	0.134	0.000	D	F	1490.7	353.532	0.200	0.142	1499.467	1494.423	0.020	L	-1.079	1.047	-	-	-	-	-	-	-	PAVEMENT_GENERAL	Urban	F	1011101000110101	0000000000000000	-	-	-	-	-	-	-	-	-	-	Terminate	
"Student7Mode1"	"Seema_Shokoufeh_Track2"	"Nov 29, 2016 09:28:37 AM"	Unknown	81.98497	10/29/0116 09:30.02	00004919	6.175	-Inter749t83-0	-1.386	-1	1	179.883	11.111	-171.4	0.171	0.000	D	F	1564.1	338.771	0.199	0.316	1497.811	1500.282	0.024	L	-2.363	0.821	-	-	-	24	28.189	174.060	28.189	PAVEMENT_GENERAL	Urban	F	1011101000110101	0000000000000000	-	-	-	-	-	-	-	-	-	-	Terminate	
"Student7Mode1"	"Seema_Shokoufeh_Track2"	"Nov 29, 2016 09:28:37 AM"	Unknown	82.98499	10/29/0116 09:30.03	00004979	7.235	Inter749t75-0	1.765	1	1	269.734	11.111	-285.9	0.175	0.000	D	F	1662.7	308.251	0.185	0.651	1493.498	1505.351	0.026	L	-4.895	0.526	-	-	-	Ambient263	15.262	110.423	-	PAVEMENT_GENERAL	Urban	F	1011101000110101	0000000000000000	-	-	-	-	-	-	-	-	-	-	Terminate	
"Student7Mode1"	"Seema_Shokoufeh_Track2"	"Nov 29, 2016 09:28:37 AM"	Unknown	83.98502	10/29/0116 09:30.04	00005039	8.171	Inter749t77-0	0.015	1	1	269.734	11.111	-124.5	0.180	0.000	D	F	1731.1	271.744	0.146	0.321	1486.134	1507.167	0.024	-	-2.732	0.956	-	-	-	Ambient263	13.974	114.188	-	PAVEMENT_GENERAL	Urban	F	1111101000010101	0000000000000000	-	-	-	-	-	-	-	-	-	-	Terminate	
"Student7Mode1"	"Seema_Shokoufeh_Track2"	"Nov 29, 2016 09:28:37 AM"	Unknown	84.98503	10/29/0116 09:30.05	00005099	9.279	Inter749t3-4	-0.460	2	2	270.000	11.111	35.1	0.190	0.000	D	F	1834.2	267.498	0.212	-0.128	1477.409	1506.671	0.021	-	0.895	1.028	-	-	-	Ambient263	12.484	115.845	-	PAVEMENT_GENERAL	Urban	F	1011101000010101	0000000000000000	-	-	-	-	-	-	-	-	-	-	Terminate	
"Student7Mode1"	"Seema_Shokoufeh_Track2"	"Nov 29, 2016 09:28:37 AM"	Unknown	85.98505	10/29/0116 09:30.06	00005159	10.229	Inter749t3-4	-0.409	2	2	270.000	11.111	-15.4	0.187	0.000	D	F	1899.5	271.186	0.207	0.065	1467.645	1506.721	0.022	-	-0.359	0.884	-	-	-	Ambient263	11.126	113.808	708.142	PAVEMENT_GENERAL	Urban	F	1111101000010101	0000000000000000	-	-	-	-	-	-	-	-	-	-	Terminate	
"Student7Mode1"	"Seema_Shokoufeh_Track2"	"Nov 29, 2016 09:28:37 AM"	Unknown	86.98507	10/29/0116 09:30.07	00005219	11.068	Inter749t17-0	-0.522	1	1	270.093	11.111	-5.8	0.189	0.000	D	F	1984.4	268.108	0.205	0.028	1456.991	1506.620	0.023	-	-0.289	0.804	-	-	-	Ambient263	10.442	115.569	115.654	PAVEMENT_GENERAL	Urban	F	1011101000010101	0000000000000000	-	-	-	-	-	-	-	-	-	-	Terminate	
"Student7Mode1"	"Seema_Shokoufeh_Track2"	"Nov 29, 2016 09:28:37 AM"	Unknown	87.98509	10/29/0116 09:30.08	00005279	11.833	Inter749t17-0	-0.831	1	1	270.098	11.111	11.5	0.189	0.000	D	F	2063.4	269.534	0.205	-0.064	1445.537	1506.328	0.023	-	0.469	0.727	-	-	-	Ambient263	9.650	114.188	64.719	PAVEMENT_GENERAL	Urban	F	1011101000010101	0000000000000000	-	-	-	-	-	-	-	-	-	-	Terminate	
"Student7Mode1"	"Seema_Shokoufeh_Track2"	"Nov 29, 2016 09:28:37 AM"	Unknown	88.98512	10/29/0116 09:30.09	00005339	12.544	Inter749t17-0	-0.841	1	1	270.061	11.111	6.3	0.203	0.000	D	F	1812.6	270.316	0.205	-0.030	1433.344	1506.342	0.023	-	0.204	0.691	-	-	-	Ambient263	8.934	112.063	45.266	PAVEMENT_GENERAL	Urban	F	1011101000010101	0000000000000000	-	-	-	-	-	-	-	-	-	-	Terminate	
"Student7Mode1"	"Seema_Shokoufeh_Track2"	"Nov 29, 2016 09:28:37 AM"	Unknown	89.98513	10/29/0116 09:30.10	00005399	13.204	Inter749t17-0	-0.645	1	1	270.061	11.111	5.6	0.199	0.000	D	F	1806.3	271.505	0.203	-0.034	1420.464	1506.551	0.024	-	0.256	0.621	-	-	-	Ambient263	8.275	109.255	34.848	PAVEMENT_GENERAL	Urban	F	1011101000010101	0000000000000000	-	-	-	-	-	-	-	-	-	-	Terminate	
"Student7Mode1"	"Seema_Shokoufeh_Track2"	"Nov 29, 2016 09:28:37 AM"	Unknown	90.98515	10/29/0116 09:30.11	00005459	13.781	Inter749t1-3	-0.283	2	2	270.000	11.111	-12.7	0.196	0.000	D	F	1822.8	270.967	0.202	0.066	1406.970	1506.917	0.024	-	-0.537	0.551	-	-	-	Ambient263	7.680	105.831	28.508	PAVEMENT_GENERAL	Urban	F	1011101000010101	0000000000000000	-	-	-	-	-	-	-	-	-	-	Terminate	
"Student7Mode1"	"Seema_Shokoufeh_Track2"	"Nov 29, 2016 09:28:37 AM"	Unknown	91.98518	10/29/0116 09:30.12	00005519	14.316	Inter747t1-3	-0.289	2	2	270.000	11.111	-1.7	0.198	0.000	D	F	1847.9	269.368	0.201	0.014	1392.919	1506.918	0.024	-	-0.147	0.516	-	-	-	Ambient263	7.114	101.844	23.975	PAVEMENT_GENERAL	Urban	F	1011101000010101	0000000000000000	-	-	-	-	-	-	-	-	-	-	Terminate	
"Student7Mode1"	"Seema_Shokoufeh_Track2"	"Nov 29, 2016 09:28:37 AM"	Unknown	92.98519	10/29/0116 09:30.13	00005579	14.817	Inter747t1-3	-0.445	2	2	270.000	11.111	6.4	0.198	0.000	D	F	1870.2	269.599	0.199	-0.038	1378.351	1506.762	0.024	-	0.257	0.485	-	-	-	Ambient263	6.570	97.347	20.502	PAVEMENT_GENERAL	Urban	F	1011101000010101	0000000000000000	-	-	-	-	-	-	-	-	-	-	Terminate	
"Student7Mode1"	"Seema_Shokoufeh_Track2"	"Nov 29, 2016 09:28:37 AM"	Unknown	93.98521	10/29/0116 09:30.14	00005639	15.281	Inter747t1-3	-0.386	2	2	270.000	11.111	1.6	0.196	0.000	D	F	1890.4	270.902	0.198	-0.025	1363.300	1506.821	0.024	-	0.209	0.450	-	-	-	Ambient263	6.045	92.366	17.721	PAVEMENT_GENERAL	Urban	F	1011101000010101	0000000000000000	-	-	-	-	-	-	-	-	-	-	Terminate	
"Student7Mode1"	"Seema_Shokoufeh_Track2"	"Nov 29, 2016 09:28:37 AM"	Unknown	94.98523	10/29/0116 09:30.15	00005699	15.817	Inter747t1-3	-0.210	2	2	270.000	11.111	-5.8	0.259	0.000	D	F	2014.7	270.110	0.201	0.042	1347.775	1506.997	0.024	-	-0.323	0.643	-	-	-	Ambient263	5.495	86.912	15.120	PAVEMENT_GENERAL	Urban	F	1011101000010101	0000000000000000	-	-	-	-	-	-	-	-	-	-	Terminate	
"Student7Mode1"	"Seema_Shokoufeh_Track2"	"Nov 29, 2016 09:28:37 AM"	Unknown	95.98525	10/29/0116 09:30.16	00005759	16.416	Inter747t1-3	-0.272	2	2	270.000	11.111	-1.6	0.229	0.000	D	F	2016.9	269.647	0.198	0.005	1331.650	1506.935	0.024	-	-0.037	0.545	-	-	-	Ambient263	4.926	80.858	12.739	PAVEMENT_GENERAL	Urban	F	1011101000010101	0000000000000000	-	-	-	-	-	-	-	-	-	-	Terminate	
"Student7Mode1"	"Seema_Shokoufeh_Track2"	"Nov 29, 2016 09:28:37 AM"	Unknown	96.98528	10/29/0116 09:30.17	00005819	16.937	Inter747t1-3	-0.384	2	2	270.000	11.111	-3.2	0.226	0.000	D	F	2039.6	269.574	0.197	0.012	1314.970	1506.823	0.024	-	-0.105	0.506	-	-	-	Ambient263	4.384	74.248	10.809	PAVEMENT_GENERAL	Urban	F	1011101000010101	0000000000000000	-	-	-	-	-	-	-	-	-	-	Terminate	
"Student7Mode1"	"Seema_Shokoufeh_Track2"	"Nov 29, 2016 09:28:37 AM"	Unknown	97.98529	10/29/0116 09:30.18	00005879	17.425	Inter747t1-3	-0.727	2	2	270.000	11.111	-13.8	0.222	0.000	D	F	2054.5	267.421	0.194	0.125	1297.789	1506.480	0.025	-	-0.943	0.460	-	-	-	Ambient263	3.853	67.138	9.127	PAVEMENT_GENERAL	Urban	F	1011101000010101	0000000000000000	-	-	-	-	-	-	-	-	-	-	Terminate	
"Student7Mode1"	"Seema_Shokoufeh_Track2"	"Nov 29, 2016 09:28:37 AM"	Unknown	98.98531	10/29/0116 09:30.19	00005939	17.808	Inter747t1-3	-1.768	2	2	270.000	11.111	5.4	0.196	0.000	D	F	2041.9	266.390	0.193	-0.041	1280.191	1505.438	0.025	-	0.248	0.323	-	-	-	Ambient263	3.348	59.612	7.702	PAVEMENT_GENERAL	Urban	F	1011101000010101	0000000000000000	-	-	-	-	-	-	-	-	-	-	Terminate	
"Student7Mode1"	"Seema_Shokoufeh_Track2"	"Nov 29, 2016 09:28:37 AM"	Unknown	99.98534	10/29/0116 09:30.20	00005999	18.100	Inter747t1-2	0.844	1	2	270.000	11.111	6.2	0.192	0.000	D	F	2052.7	267.370	0.193	-0.045	1262.262	1504.451	0.025	-	0.331	0.282	-	-	-	-	-	-	-	PAVEMENT_GENERAL	Urban	F	1011101000010101	0000000000000000	-	-	-	-	-	-	-	-	-	-	Terminate	
"Student7Mode1"	"Seema_Shokoufeh_Track2"	"Nov 29, 2016 09:28:37 AM"	Unknown	100.98535	10/29/0116 09:30.21	00006059	18.350	Inter747t1-2	0.205	1	2	270.000	11.111	7.5	0.169	0.000	D	F	2030.1	268.888	0.190	-0.067	1244.040	1503.812	0.026	-	0.521	0.183	-	-	-	-	-	-	-	PAVEMENT_GENERAL	Urban	F	1011101000010101	0000000000000000	-	-	-	-	-	-	-	-	-	-	Terminate	
"Student7Mode1"	"Seema_Shokoufeh_Track2"	"Nov 29, 2016 09:28:37 AM"	Unknown	101.98537	10/29/0116 09:30.22	00006119	18.510	Inter747t1-2	0.026	1	2	270.000	11.111	1.7	0.169	0.000	D	F	2043.6	270.005	0.191	-0.017	1225.611	1503.633	0.026	-	0.182	0.163	-	-	-	-	-	-	-	PAVEMENT_GENERAL	Urban	F	1011101000010101	0000000000000000	-	-	-	-	-	-	-	-	-	-	Terminate	
"Student7Mode1"	"Seema_Shokoufeh_Track2"	"Nov 29, 2016 09:28:37 AM"	Unknown	102.98539	10/29/0116 09:30.23	00006179	18.671	Inter747t1-2	0.023	1	2	270.000	11.111	0.5	0.173	0.000	D	F	2060.2	269.898	0.191	0.001	1207.020	1503.630	0.026	-	-0.022	0.164	-	-	-	-	-	-	-	PAVEMENT_GENERAL	Urban	F	1011101000010101	0000000000000000	-	-	-	-	-	-	-	-	-	-	Terminate	
"Student7Mode1"	"Seema_Shokoufeh_Track2"	"Nov 29, 2016 09:28:37 AM"	Unknown	103.98541	10/29/0116 09:30.24	00006239	18.880	Inter748t1-2	-0.015	1	2	270.000	11.111	-1.0	0.171	0.000	D	F	2078.4	269.786	0.190	0.009	1188.247	1503.591	0.026	-	-0.068	0.167	-	-	-	-	-	-	-	PAVEMENT_GENERAL	Urban	F	1011101000010101	0000000000000000	-	-	-	-	-	-	-	-	-	-	Terminate	
"Student7Mode1"	"Seema_Shokoufeh_Track2"	"Nov 29, 2016 09:28:37 AM"	Unknown	104.98544	10/29/0116 09:30.25	00006299	18.952	Inter748t1-2	-0.102	1	2	270.000	11.111	1.6	0.118	0.000	D	F	2009.1	269.769	0.186	-0.012	1169.308	1503.505	0.027	-	0.078	-0.094	-	-	-	-	-	-	-	PAVEMENT_GENERAL	Urban	F	1111101000010101	0000000000000000	-	-	-	-	-	-	-	-	-	-	Terminate	
"Student7Mode1"	"Seema_Shokoufeh_Track2"	"Nov 29, 2016 09:28:37 AM"	Unknown	105.98545	10/29/0116 09:30.26	00006359	18.827	Inter748t1-2	-0.177	1	2	270.000	11.111	0.4	0.111	0.000	D	F	1988.8	269.700	0.188	0.000	1150.417	1503.430	0.027	-	-0.019	-0.128	-	-	-	-	-	-	-	PAVEMENT_GENERAL	Urban	F	1011101000010101	0000000000000000	-	-	-	-	-	-	-	-	-	-	Terminate	
"Student7Mode1"	"Seema_Shokoufeh_Track2"	"Nov 29, 2016 09:28:37 AM"	Unknown	106.98547	10/29/0116 09:30.27	00006419	18.695	Inter748t1-2	-0.280	1	2	270.000	11.111	-0.8	0.106	0.000	D	F	1970.2	269.615	0.188	0.007	1131.656	1503.327	0.027	-	-0.049	-0.143	-	-	-	-	-	-	-	PAVEMENT_GENERAL	Urban	F	1011101000010101	0000000000000000	-	-	-	-	-	-	-	-	-	-	Terminate	
"Student7Mode1"	"Seema_Shokoufeh_Track2"	"Nov 29, 2016 09:28:37 AM"	Unknown	107.98550	10/29/0116 09:30.28	00006479	18.542	Inter748t1-2	-0.427	1	2	270.000	11.111	1.5	0.099	0.000	D	F	1946.1	269.454	0.188	0.000	1113.036	1503.180	0.027	-	0.008	-0.164	-	-	-	-	-	-	-	PAVEMENT_GENERAL	Urban	F	1011101000010101	0000000000000000	-	-	-	-	-	-	-	-	-	-	Terminate	
"Student7Mode1"	"Seema_Shokoufeh_Track2"	"Nov 29, 2016 09:28:37 AM"	Unknown	108.98551	10/29/0116 09:30.29	00006539	18.345	Inter748t1-2	-0.415	1	2	270.000	11.111	2.1	0.085	0.000	D	F	1902.8	270.948	0.187	-0.041	1094.586	1503.192	0.028	-	0.354	-0.223	-	-	-	-	-	-	-	PAVEMENT_GENERAL	Urban	F	1011101000010101	0000000000000000	-	-	-	-	-	-	-	-	-	-	Terminate	
"Student7Mode1"	"Seema_Shokoufeh_Track2"	"Nov 29, 2016 09:28:37 AM"	Unknown	109.98553	10/29/0116 09:30.30	00006599	18.127	Inter748t1-2	-0.090	1	2	270.000	11.111	0.2	0.085	0.000	D	F	1885.8	271.110	0.188	-0.001	1076.354	1503.516	0.028	-	0.020	-0.214	-	-	-	-	-	-	-	PAVEMENT_GENERAL	Urban	F	1011101000010101	0000000000000000	-	-	-	-	-	-	-	-	-	-	Terminate	
"Student7Mode1"	"Seema_Shokoufeh_Track2"	"Nov 29, 2016 09:28:37 AM"	Unknown	110.98555	10/29/0116 09:30.31	00006659	17.907	Inter748t1-2	0.261	1	2	270.000	11.111	-1.9	0.081	0.000	D	F	1861.5	270.992	0.189	0.016	1058.339	1503.868	0.028	-	-0.118	-0.221	-	-	-	-	-	-	-	PAVEMENT_GENERAL	Urban	F	1011101000010101	0000000000000000	-	-	-	-	-	-	-	-	-	-	Terminate	
"Student7Mode1"	"Seema_Shokoufeh_Track2"	"Nov 29, 2016 09:28:37 AM"	Unknown	111.98557	10/29/0116 09:30.32	00006719	17.688	Inter748t1-2	0.511	1	2	270.000	11.111	-2.6	0.081	0.000	D	F	1844.1	270.539	0.189	0.021	1040.543	1504.118	0.028	-	-0.157	-0.217	-	-	-	-	-	-	-	PAVEMENT_GENERAL	Urban	F	1011101000010101	0000000000000000	-	-	-	-	-	-	-	-	-	-	Terminate	
"Student7Mode1"	"Seema_Shokoufeh_Track2"	"Nov 29, 2016 09:28:37 AM"	Unknown	112.98560	10/29/0116 09:30.33	00006779	17.472	Inter748t1-2	0.593	1	2	270.000	11.111	0.4	0.081	0.000	D	F	1826.1	270.055	0.190	0.002	1022.964	1504.200	0.028	-	-0.008	-0.212	-	-	-	-	-	-	-	PAVEMENT_GENERAL	Urban	F	1011101000010101	0000000000000000	-	-	-	-	-	-	-	-	-	-	Terminate	
"Student7Mode1"	"Seema_Shokoufeh_Track2"	"Nov 29, 2016 09:28:37 AM"	Unknown	113.98561	10/29/0116 09:30.34	00006839	17.263	Inter748t1-2	0.632	1	2	270.000	11.111	1.1	0.078	0.000	D	F	1809.0	270.265	0.190	-0.010	1005.597	1504.239	0.028	-	0.079	-0.208	-	-	-	-	-	-	-	PAVEMENT_GENERAL	Urban	F	1111101000010101	0000000000000000	-	-	-	-	-	-	-	-	-	-	Terminate	
"Student7Mode1"	"Seema_Shokoufeh_Track2"	"Nov 29, 2016 09:28:37 AM"	Unknown	114.98563	10/29/0116 09:30.35	00006899	17.063	Inter752t1-2	0.047	1	2	269.954	24.444	0.9	0.078	0.000	D	F	1788.1	270.395	-0.225	-0.251	988.442	1504.339	0.063	-	0.012	-0.204	-	-	-	-	-	-	-	FREEWAY_SMOOTH	Urban	F	1011101000010101	0000000000000000	-	-	-	-	-	-	-	-	-	-	Terminate	
"Student7Mode1"	"Seema_Shokoufeh_Track2"	"Nov 29, 2016 09:28:37 AM"	Unknown	115.98566	10/29/0116 09:30.36	00006959	16.895	Inter752t1-2	0.258	1	2	269.368	24.444	-10.4	0.072	0.000	D	F	1772.2	270.260	0.311	-0.603	971.461	1504.455	0.078	-	-0.442	-0.163	-	-	-	-	-	-	-	FREEWAY_SMOOTH	Urban	F	1011101000010101	0000000000000000	-	-	-	-	-	-	-	-	-	-	Terminate	
"Student7Mode1"	"Seema_Shokoufeh_Track2"	"Nov 29, 2016 09:28:37 AM"	Unknown	116.98567	10/29/0116 09:30.37	00007019	16.736	Inter752t1-2	0.285	1	2	268.312	24.444	-8.5	0.076	0.000	D	F	1759.9	267.435	0.288	-0.996	954.650	1504.144	0.111	-	-0.766	-0.150	-	-	-	-	-	-	-	FREEWAY_SMOOTH	Urban	F	1011101000010101	0000000000000000	-	-	-	-	-	-	-	-	-	-	Terminate	
"Student7Mode1"	"Seema_Shokoufeh_Track2"	"Nov 29, 2016 09:28:37 AM"	Unknown	117.98569	10/29/0116 09:30.38	00007079	16.583	Inter752t1-2	-0.061	1	2	266.769	24.444	-7.7	0.074	0.000	D	F	1744.6	265.232	0.260	-1.430	938.026	1503.081	0.135	-	-0.610	-0.148	-	-	-	-	-	-	-	FREEWAY_SMOOTH	Urban	F	1011101000010101	0000000000000000	-	-	-	-	-	-	-	-	-	-	Terminate	
"Student7Mode1"	"Seema_Shokoufeh_Track2"	"Nov 29, 2016 09:28:37 AM"	Unknown	118.98571	10/29/0116 09:30.39	00007139	16.436	Inter752t1-2	-0.484	1	2	264.750	24.444	-5.8	0.076	0.000	D	F	1733.8	263.592	0.248	-1.862	921.600	1501.431	0.151	-	-0.403	-0.147	-	-	-	-	-	-	-	FREEWAY_SMOOTH	Urban	F	1011101000010101	0000000000000000	-	-	-	-	-	-	-	-	-	-	Terminate	
"Student7Mode1"	"Seema_Shokoufeh_Track2"	"Nov 29, 2016 09:28:37 AM"	Unknown	119.98573	10/29/0116 09:30.40	00007199	16.292	Inter752t1-2	-0.727	1	2	262.277	24.444	-6.5	0.076	0.000	D	F	1722.4	261.758	0.264	-2.252	905.371	1499.330	0.168	-	-0.559	-0.143	-	-	-	-	-	-	-	FREEWAY_SMOOTH	Urban	F	1011101000010101	0000000000000000	-	-	-	-	-	-	-	-	-	-	Terminate	
"Student7Mode1"	"Seema_Shokoufeh_Track2"	"Nov 29, 2016 09:28:37 AM"	Unknown	120.98576	10/29/0116 09:30.41	00007259	16.149	Inter752t1-2	-0.745	1	2	259.348	24.444	-13.0	0.074	0.000	D	F	1711.6	259.690	0.294	-2.610	889.364	1496.705	0.192	-	-0.832	-0.143	-	-	-	-	-	-	-	FREEWAY_SMOOTH	Urban	F	1011101000010101	0000000000000000	-	-	-	-	-	-	-	-	-	-	Terminate	
"Student7Mode1"	"Seema_Shokoufeh_Track2"	"Nov 29, 2016 09:28:37 AM"	Unknown	121.98577	10/29/0116 09:30.42	00007319	16.133	Inter752t1-2	-0.736	1	2	255.990	24.444	-15.5	0.129	0.000	D	F	1797.0	255.594	0.266	-2.974	873.633	1493.254	0.215	-	-1.176	0.140	-	-	-	-	-	-	-	FREEWAY_SMOOTH	Urban	F	1011101000010101	0000000000000000	-	-	-	-	-	-	-	-	-	-	Terminate	
"Student7Mode1"	"Seema_Shokoufeh_Track2"	"Nov 29, 2016 09:28:37 AM"	Unknown	122.98579	10/29/0116 09:30.43	00007379	16.207	Inter752t1-2	-0.801	1	2	252.180	24.444	-4.0	0.118	0.000	D	F	1780.7	252.470	0.297	-3.439	858.105	1488.729	0.237	-	-0.600	0.035	-	-	-	-	-	-	-	FREEWAY_SMOOTH	Urban	F	1011101000010101	0000000000000000	-	-	-	-	-	-	-	-	-	-	Terminate	
"Student7Mode1"	"Seema_Shokoufeh_Track2"	"Nov 29, 2016 09:28:37 AM"	Unknown	123.98581	10/29/0116 09:30.44	00007439	16.196	Inter752t1-2	-0.435	1	2	248.106	24.444	-16.4	0.116	0.000	D	F	1776.5	249.955	0.306	-3.355	842.756	1483.531	0.260	-	-1.134	-0.022	-	-	-	-	-	-	-	FREEWAY_SMOOTH	Urban	F	1011101000010101	0000000000000000	-	-	-	-	-	-	-	-	-	-	Terminate	
"Student7Mode1"	"Seema_Shokoufeh_Track2"	"Nov 29, 2016 09:28:37 AM"	Unknown	124.98583	10/29/0116 09:30.45	00007499	16.169	Inter752t1-2	0.058	1	2	244.070	24.444	-14.9	0.113	0.000	D	F	1770.7	245.672	0.291	-3.358	827.786	1477.388	0.289	-	-1.150	-0.031	-	-	-	-	-	-	-	FREEWAY_SMOOTH	Urban	F	1011101000010101	0000000000000000	-	-	-	-	-	-	-	-	-	-	Terminate	
"Student7Mode1"	"Seema_Shokoufeh_Track2"	"Nov 29, 2016 09:28:37 AM"	Unknown	125.98586	10/29/0116 09:30.46	00007559	16.121	Inter752t1-2	0.441	1	2	240.053	24.444	-27.0	0.108	0.000	D	F	1759.9	240.410	0.217	-3.257	813.369	1470.125	0.313	-	-1.912	-0.041	-	-	-	-	-	-	-	FREEWAY_SMOOTH	Urban	F	1011101000010101	0000000000000000	-	-	-	-	-	-	-	-	-	-	Terminate	
"Student7Mode1"	"Seema_Shokoufeh_Track2"	"Nov 29, 2016 09:28:37 AM"	Unknown	126.98587	10/29/0116 09:30.47	00007619	16.088	Inter752t1-2	0.204	1	2	236.042	24.444	-18.5	0.111	0.000	D	F	1758.3	233.917	0.061	-3.310	799.864	1461.369	0.299	-	-1.541	-0.023	-	-	-	-	-	-	-	FREEWAY_SMOOTH	Urban	F	1011101000010101	0000000000000000	-	-	-	-	-	-	-	-	-	-	Terminate	
"Student7Mode1"	"Seema_Shokoufeh_Track2"	"Nov 29, 2016 09:28:37 AM"	Unknown	127.98589	10/29/0116 09:30.48	00007679	16.063	Inter752t1-2	-0.453	1	2	232.021	24.444	0.1	0.101	0.000	D	F	1748.9	229.794	0.066	-3.452	787.279	1451.367	0.259	-	-0.520	-0.034	-	-	-	-	-	-	-	FREEWAY_SMOOTH	Urban	F	1011101000010101	0000000000000000	-	-	-	-	-	-	-	-	-	-	Terminate	
"Student7Mode1"	"Seema_Shokoufeh_Track2"	"Nov 29, 2016 09:28:37 AM"	Unknown	128.98592	10/29/0116 09:30.49	00007739	16.025	Inter752t1-2	-0.553	1	2	228.019	24.444	0.3	0.108	0.000	D	F	1752.8	229.995	0.315	-3.512	775.078	1440.944	0.253	-	0.026	-0.051	-	-	-	-	-	-	-	FREEWAY_SMOOTH	Urban	F	1011101000010101	0000000000000000	-	-	-	-	-	-	-	-	-	-	Terminate	
"Student7Mode1"	"Seema_Shokoufeh_Track2"	"Nov 29, 2016 09:28:37 AM"	Unknown	129.98593	10/29/0116 09:30.50	00007799	15.962	Inter752t1-2	0.253	1	2	224.029	24.444	-20.0	0.106	0.000	D	F	1744.3	227.104	0.384	-3.323	763.055	1430.392	0.301	-	-1.339	-0.072	-	-	-	-	-	-	-	FREEWAY_SMOOTH	Urban	F	1011101000010101	0000000000000000	-	-	-	-	-	-	-	-	-	-	Terminate	
"Student7Mode1"	"Seema_Shokoufeh_Track2"	"Nov 29, 2016 09:28:37 AM"	Unknown	130.98595	10/29/0116 09:30.51	00007859	15.890	Inter752t1-2	0.902	1	2	220.050	24.444	-30.0	0.101	0.000	D	F	1733.9	221.299	0.267	-3.267	751.956	1418.977	0.340	-	-1.884	-0.072	-	-	-	-	-	-	-	FREEWAY_SMOOTH	Urban	F	1011101000010101	0000000000000000	-	-	-	-	-	-	-	-	-	-	Terminate	
"Student7Mode1"	"Seema_Shokoufeh_Track2"	"Nov 29, 2016 09:28:37 AM"	Unknown	131.98598	10/29/0116 09:30.52	00007919	15.830	Inter752t1-2	0.761	1	2	216.086	24.444	-29.1	0.102	0.000	D	F	1728.1	213.394	0.028	-3.230	742.333	1406.387	0.332	-	-2.148	-0.031	-	-	-	-	-	-	-	FREEWAY_SMOOTH	Urban	F	1011101000010101	0000000000000000	-	-	-	-	-	-	-	-	-	-	Terminate	
"Student7Mode1"	"Seema_Shokoufeh_Track2"	"Nov 29, 2016 09:28:37 AM"	Unknown	132.98599	10/29/0116 09:30.53	00007979	15.802	Inter752t1-2	-0.345	1	2	212.133	24.444	2.9	0.101	0.000	D	F	1723.6	207.383	-0.096	-3.459	734.440	1392.691	0.266	-	-0.592	-0.016	-	-	-	-	-	-	-	FREEWAY_SMOOTH	Urban	F	1011101000010101	0000000000000000	-	-	-	-	-	-	-	-	-	-	Terminate	
"Student7Mode1"	"Seema_Shokoufeh_Track2"	"Nov 29, 2016 09:28:37 AM"	Unknown	133.98601	10/29/0116 09:30.54	00008039	15.765	Inter752t1-2	-1.173	1	2	208.173	24.444	-11.0	0.101	0.000	D	F	1720.0	206.416	0.093	-3.403	727.269	1378.626	0.216	-	-0.763	-0.043	-	-	-	-	-	-	-	FREEWAY_SMOOTH	Urban	F	1011101000010101	0000000000000000	-	-	-	-	-	-	-	-	-	-	Terminate	
"Student7Mode1"	"Seema_Shokoufeh_Track2"	"Nov 29, 2016 09:28:37 AM"	Unknown	134.98604	10/29/0116 09:30.55	00008099	15.721	Inter752t1-2	-1.582	1	2	204.251	24.444	-17.6	0.099	0.000	D	F	1715.9	202.906	0.117	-3.356	720.722	1364.308	0.191	-	-1.163	-0.050	-	-	-	-	-	-	-	FREEWAY_SMOOTH	Urban	F	1011101000010101	0000000000000000	-	-	-	-	-	-	-	-	-	-	Terminate	
"Student7Mode1"	"Seema_Shokoufeh_Track2"	"Nov 29, 2016 09:28:37 AM"	Unknown	135.98605	10/29/0116 09:30.56	00008159	15.735	-	-	CL	0	-	-	-13.0	0.171	0.000	D	F	1852.3	199.805	0.181	-3.388	715.069	1349.655	0.174	-	-0.874	0.307	-	-	-	-	-	-	-	FREEWAY_SMOOTH	Urban	F	1011101000010101	0000000000000000	-	-	-	-	-	-	-	-	-	-	Terminate	
"Student7Mode1"	"Seema_Shokoufeh_Track2"	"Nov 29, 2016 09:28:37 AM"	Unknown	136.98607	10/29/0116 09:30.57	00008219	16.103	-	-	CL	0	-	-	-8.9	0.198	0.000	D	F	1934.6	196.778	0.167	-3.243	710.134	1334.533	0.166	-	-0.755	0.361	-	-	-	-	-	-	-	FREEWAY_SMOOTH	Urban	F	1011101000010101	0000000000000000	-	-	-	-	-	-	-	-	-	-	Terminate	
"Student7Mode1"	"Seema_Shokoufeh_Track2"	"Nov 29, 2016 09:28:37 AM"	Unknown	137.98610	10/29/0116 09:30.58	00008279	16.432	Inter752t1-2	-1.574	1	2	192.605	24.444	-11.7	0.192	0.000	D	F	1937.2	194.169	0.212	-2.836	705.828	1318.842	0.165	-	-0.810	0.301	-	-	-	-	-	-	-	FREEWAY_SMOOTH	Urban	F	1011101000010101	0000000000000000	-	-	-	-	-	-	-	-	-	-	Terminate	
"Student7Mode1"	"Seema_Shokoufeh_Track2"	"Nov 29, 2016 09:28:37 AM"	Unknown	138.98611	10/29/0116 09:30.59	00008339	16.720	Inter752t1-2	-1.142	1	2	189.334	24.444	-16.0	0.194	0.000	D	F	1954.5	190.451	0.167	-2.385	702.291	1302.647	0.164	-	-1.141	0.286	-	-	-	-	-	-	-	FREEWAY_SMOOTH	Urban	F	1011101000010101	0000000000000000	-	-	-	-	-	-	-	-	-	-	Terminate	
"Student7Mode1"	"Seema_Shokoufeh_Track2"	"Nov 29, 2016 09:28:37 AM"	Unknown	139.98613	10/29/0116 09:31.00	00008399	17.014	Inter752t1-2	-0.973	1	2	186.510	24.444	-17.1	0.183	0.000	D	F	1960.6	186.152	0.102	-1.942	699.837	1285.960	0.147	-	-1.275	0.257	-	-	-	-	-	-	-	FREEWAY_SMOOTH	Urban	F	1011101000010101	0000000000000000	-	-	-	-	-	-	-	-	-	-	Terminate	
"Student7Mode1"	"Seema_Shokoufeh_Track2"	"Nov 29, 2016 09:28:37 AM"	Unknown	140.98616	10/29/0116 09:31.01	00008459	17.175	Inter752t1-2	-1.212	1	2	184.159	24.444	-4.7	0.166	0.000	D	F	1938.8	183.151	0.088	-1.621	698.519	1268.911	0.117	-	-0.475	0.139	-	-	-	-	-	-	-	FREEWAY_SMOOTH	Urban	F	1011101000010101	0000000000000000	-	-	-	-	-	-	-	-	-	-	Terminate	
"Student7Mode1"	"Seema_Shokoufeh_Track2"	"Nov 29, 2016 09:28:37 AM"	Unknown	141.98618	10/29/0116 09:31.02	00008519	17.313	Inter752t1-2	-1.341	1	2	182.320	24.444	-1.8	0.166	0.000	D	F	1946.2	182.576	0.125	-1.235	697.703	1251.685	0.091	-	-0.130	0.132	-	-	-	-	-	-	-	FREEWAY_SMOOTH	Urban	F	1011101000010101	0000000000000000	-	-	-	-	-	-	-	-	-	-	Terminate	
"Student7Mode1"	"Seema_Shokoufeh_Track2"	"Nov 29, 2016 09:28:37 AM"	Unknown	142.98619	10/29/0116 09:31.03	00008579	17.056	Inter752t1-2	-1.161	1	2	181.009	24.444	-5.8	0.034	0.000	D	F	1680.1	181.771	0.120	-0.775	697.047	1234.441	0.075	-	-0.365	-0.479	-	-	-	-	-	-	-	FREEWAY_SMOOTH	Urban	F	1011101000010101	0000000000000000	-	-	-	-	-	-	-	-	-	-	Terminate	
"Student7Mode1"	"Seema_Shokoufeh_Track2"	"Nov 29, 2016 09:28:37 AM"	Unknown	143.98621	10/29/0116 09:31.04	00008639	16.975	Inter752t1-2	-1.014	1	2	180.245	24.444	-5.4	0.176	0.000	D	F	1941.8	180.352	0.116	-0.352	696.735	1217.515	0.050	-	-0.356	0.198	-	-	-	-	-	-	-	FREEWAY_SMOOTH	Urban	F	1111101000010101	0000000000000000	-	-	-	-	-	-	-	-	-	-	Terminate	
"Student7Mode1"	"Seema_Shokoufeh_Track2"	"Nov 29, 2016 09:28:37 AM"	Unknown	144.98624	10/29/0116 09:31.05	00008699	17.153	Inter752t1-2	-1.047	1	2	180.000	24.444	0.7	0.164	0.000	D	F	1937.6	179.713	0.126	0.018	696.747	1200.447	0.026	-	-0.022	0.169	-	-	-	Ambient369	6.179	105.990	20.270	PAVEMENT_GENERAL	Urban	F	1111101000010101	0000000000000000	-	-	-	-	-	-	-	-	-	-	Terminate	
"Student7Mode1"	"Seema_Shokoufeh_Track2"	"Nov 29, 2016 09:28:37 AM"	Unknown	145.98625	10/29/0116 09:31.06	00008759	17.346	Inter754t3-2	-0.394	1	2	180.000	11.111	3.0	0.169	0.000	D	F	1957.3	180.117	0.194	-0.021	696.787	1183.200	0.026	-	0.170	0.201	-	-	-	Ambient369	5.940	103.032	19.003	PAVEMENT_GENERAL	Urban	F	1011101000010101	0000000000000000	-	-	-	-	-	-	-	-	-	-	Terminate	
"Student7Mode1"	"Seema_Shokoufeh_Track2"	"Nov 29, 2016 09:28:37 AM"	Unknown	146.98627	10/29/0116 09:31.07	00008819	17.556	Inter754t3-2	-0.286	1	2	180.000	11.111	-0.6	0.171	0.000	D	F	1984.4	180.546	0.193	-0.003	696.679	1165.753	0.026	-	0.017	0.231	-	-	-	Ambient369	5.554	97.510	17.313	PAVEMENT_GENERAL	Urban	F	1011101000010101	0000000000000000	-	-	-	-	-	-	-	-	-	-	Terminate	
"Student7Mode1"	"Seema_Shokoufeh_Track2"	"Nov 29, 2016 09:28:37 AM"	Unknown	147.98630	10/29/0116 09:31.08	00008879	17.756	Inter754t3-2	-0.154	1	2	180.000	11.111	-3.1	0.171	0.000	D	F	1992.9	180.194	0.193	0.023	696.547	1148.096	0.026	-	-0.180	0.200	-	-	-	Ambient373	2.481	44.055	5.899	PAVEMENT_GENERAL	Urban	F	1011101000010101	0000000000000000	-	-	-	-	-	-	-	-	-	-	Terminate	
"Student7Mode1"	"Seema_Shokoufeh_Track2"	"Nov 29, 2016 09:28:37 AM"	Unknown	148.98631	10/29/0116 09:31.09	00008939	17.956	Inter754t3-2	-0.173	1	2	180.000	11.111	-1.9	0.173	0.000	D	F	2006.7	179.663	0.193	0.016	696.567	1130.238	0.026	-	-0.125	0.195	-	-	-	Ambient373	2.032	36.484	4.757	PAVEMENT_GENERAL	Urban	F	1011101000010101	0000000000000000	-	-	-	-	-	-	-	-	-	-	Terminate	
"Student7Mode1"	"Seema_Shokoufeh_Track2"	"Nov 29, 2016 09:28:37 AM"	Unknown	149.98633	10/29/0116 09:31.10	00008999	18.121	Inter754t3-2	-0.328	1	2	180.000	11.111	0.3	0.159	0.000	D	F	1999.4	179.333	0.191	0.007	696.721	1112.196	0.026	-	-0.044	0.144	-	-	-	Ambient373	1.586	28.732	3.668	PAVEMENT_GENERAL	Urban	F	1111101000010101	0000000000000000	-	-	-	-	-	-	-	-	-	-	Terminate	
"Student7Mode1"	"Seema_Shokoufeh_Track2"	"Nov 29, 2016 09:28:37 AM"	Unknown	150.98636	10/29/0116 09:31.11	00009059	17.590	Inter754t9-0	-0.502	1	1	179.994	11.111	4.7	0.000	0.203	D	F	1203.3	179.728	0.121	-0.035	696.896	1094.187	0.030	-	0.231	-2.737	-	-	-	Ambient373	1.194	21.010	2.877	PAVEMENT_GENERAL	Urban	F	1011101000010101	0000000000000000	-	-	-	-	-	-	-	-	-	-	Terminate	
"Student7Mode1"	"Seema_Shokoufeh_Track2"	"Nov 29, 2016 09:28:37 AM"	Unknown	151.98637	10/29/0116 09:31.12	00009119	12.812	Inter754t9-0	-0.460	1	1	179.990	11.111	0.7	0.000	0.343	D	F	970.8	180.785	0.091	-0.021	696.855	1078.976	0.039	-	0.156	-4.643	-	-	-	Ambient373	1.256	16.089	6.373	PAVEMENT_GENERAL	Urban	F	1011101000010101	0000000000000000	-	-	-	-	-	-	-	-	-	-	Terminate	
"Student7Mode1"	"Seema_Shokoufeh_Track2"	"Nov 29, 2016 09:28:37 AM"	Unknown	152.98639	10/29/0116 09:31.13	00009179	10.867	Inter754t9-0	-0.341	1	1	179.989	11.111	-7.1	0.000	0.000	D	F	1064.7	180.153	0.194	0.039	696.738	1067.547	0.029	-	-0.268	-0.512	-	-	-	Ambient373	1.153	12.535	21.613	PAVEMENT_GENERAL	Urban	F	1011101000010101	0000000000000000	-	-	-	-	-	-	-	-	-	-	Terminate	
"Student7Mode1"	"Seema_Shokoufeh_Track2"	"Nov 29, 2016 09:28:37 AM"	Unknown	153.98642	10/29/0116 09:31.14	00009239	10.359	Inter754t9-0	-0.391	1	1	179.990	11.111	0.5	0.000	0.000	D	F	1017.8	179.566	0.195	-0.005	696.790	1056.934	0.029	-	0.009	-0.505	-	-	-	Ambient373	1.180	12.220	170.313	PAVEMENT_GENERAL	Urban	F	1011101000010101	0000000000000000	-	-	-	-	-	-	-	-	-	-	Terminate	
"Student7Mode1"	"Seema_Shokoufeh_Track2"	"Nov 29, 2016 09:28:37 AM"	Unknown	154.98643	10/29/0116 09:31.15	00009299	9.858	Inter754t9-0	-0.454	1	1	179.992	11.111	1.0	0.000	0.000	D	F	968.7	179.716	0.195	-0.005	696.855	1046.827	0.029	-	0.035	-0.498	-	-	-	Ambient373	1.495	14.742	-	PAVEMENT_GENERAL	Urban	F	1011101000010101	0000000000000000	-	-	-	-	-	-	-	-	-	-	Terminate	
"Student7Mode1"	"Seema_Shokoufeh_Track2"	"Nov 29, 2016 09:28:37 AM"	Unknown	155.98645	10/29/0116 09:31.16	00009359	9.405	Inter754t9-0	-0.490	1	1	179.996	11.111	1.0	0.000	0.000	D	F	924.2	179.813	0.194	-0.005	696.893	1037.193	0.029	-	0.028	-0.492	-	-	-	Ambient373	1.639	15.412	-	PAVEMENT_GENERAL	Urban	F	1011101000010101	0000000000000000	-	-	-	-	-	-	-	-	-	-	Terminate	
"Student7Mode1"	"Seema_Shokoufeh_Track2"	"Nov 29, 2016 09:28:37 AM"	Unknown	156.98647	10/29/0116 09:31.17	00009419	8.917	Inter754t9-0	-0.503	1	1	179.996	11.111	1.1	0.000	0.000	D	F	876.3	179.988	0.196	-0.004	696.906	1028.032	0.029	-	0.031	-0.485	-	-	-	Ambient373	1.858	16.570	-	PAVEMENT_GENERAL	Urban	F	1011101000010101	0000000000000000	-	-	-	-	-	-	-	-	-	-	Terminate	
"Student7Mode1"	"Seema_Shokoufeh_Track2"	"Nov 29, 2016 09:28:37 AM"	Unknown	157.98650	10/29/0116 09:31.18	00009479	8.435	Inter754t1-1	-0.481	1	1	180.000	11.111	1.8	0.000	0.000	D	F	829.0	180.270	0.196	-0.006	696.885	1019.357	0.029	-	0.045	-0.479	-	-	-	Ambient373	2.157	18.196	-	PAVEMENT_GENERAL	Urban	F	1011101000010101	0000000000000000	-	-	-	-	-	-	-	-	-	-	Terminate	
"Student7Mode1"	"Seema_Shokoufeh_Track2"	"Nov 29, 2016 09:28:37 AM"	Unknown	158.98651	10/29/0116 09:31.19	00009539	7.959	Inter754t1-1	-0.429	1	1	180.000	11.111	-0.2	0.000	0.000	D	F	782.3	180.373	0.197	-0.000	696.833	1011.160	0.028	-	-0.004	-0.473	-	-	-	Ambient373	2.549	20.286	-	PAVEMENT_GENERAL	Urban	F	1011101000010101	0000000000000000	-	-	-	-	-	-	-	-	-	-	Terminate	
"Student7Mode1"	"Seema_Shokoufeh_Track2"	"Nov 29, 2016 09:28:37 AM"	Unknown	159.98653	10/29/0116 09:31.20	00009599	7.495	Inter754t1-1	-0.391	1	1	180.000	11.111	-2.1	0.014	0.000	D	F	771.5	180.174	0.199	0.004	696.795	1003.436	0.028	-	-0.037	-0.420	-	-	-	Ambient373	3.049	22.849	-	PAVEMENT_GENERAL	Urban	F	1011101000010101	0000000000000000	-	-	-	-	-	-	-	-	-	-	Terminate	
"Student7Mode1"	"Seema_Shokoufeh_Track2"	"Nov 29, 2016 09:28:37 AM"	Unknown	160.98656	10/29/0116 09:31.21	00009659	7.088	Inter686t1-0	-0.400	1	1	180.000	11.111	-2.4	0.007	0.000	D	F	736.4	179.880	0.198	0.005	696.796	996.142	0.028	-	-0.040	-0.405	-	-	-	Ambient373	3.646	25.842	-	PAVEMENT_GENERAL	Urban	F	1011101000010101	0000000000000000	-	-	-	-	-	-	-	-	-	-	Terminate	
"Student7Mode1"	"Seema_Shokoufeh_Track2"	"Nov 29, 2016 09:28:37 AM"	Unknown	161.98657	10/29/0116 09:31.22	00009719	7.694	Inter686t1-0	-0.423	1	1	180.000	11.111	3.1	0.189	0.000	D	F	1698.4	179.899	0.215	-0.008	696.819	988.938	0.021	-	0.061	1.218	-	-	-	Ambient373	3.760	28.925	-	PAVEMENT_GENERAL	Urban	F	1011101000010101	0000000000000000	-	-	-	-	-	-	-	-	-	-	Terminate	
"Student7Mode1"	"Seema_Shokoufeh_Track2"	"Nov 29, 2016 09:28:37 AM"	Unknown	162.98659	10/29/0116 09:31.23	00009779	8.646	Inter686t1-0	-0.404	1	1	180.000	11.111	1.4	0.160	0.000	D	F	1709.4	180.240	0.209	-0.004	696.800	980.739	0.022	-	0.033	0.847	-	-	-	Ambient373	3.587	31.013	-	PAVEMENT_GENERAL	Urban	F	1011101000010101	0000000000000000	-	-	-	-	-	-	-	-	-	-	Terminate	
"Student7Mode1"	"Seema_Shokoufeh_Track2"	"Nov 29, 2016 09:28:37 AM"	Unknown	163.98662	10/29/0116 09:31.24	00009839	9.477	Inter686t1-0	-0.345	1	1	180.000	11.111	-1.7	0.168	0.000	D	F	1788.8	180.456	0.208	0.004	696.741	971.673	0.023	-	-0.032	0.797	-	-	-	Ambient373	3.401	32.234	-	PAVEMENT_GENERAL	Urban	F	1111101000010101	0000000000000000	-	-	-	-	-	-	-	-	-	-	Terminate	
"Student7Mode1"	"Seema_Shokoufeh_Track2"	"Nov 29, 2016 09:28:37 AM"	Unknown	164.98663	10/29/0116 09:31.25	00009899	10.255	Inter686t1-0	-0.308	1	1	180.000	11.111	-4.3	0.189	0.000	D	F	1892.4	179.948	0.208	0.017	696.704	961.808	0.023	-	-0.131	0.821	-	-	-	Ambient373	3.184	32.656	-	PAVEMENT_GENERAL	Urban	F	1011101000010101	0000000000000000	-	-	-	-	-	-	-	-	-	-	Terminate	
"Student7Mode1"	"Seema_Shokoufeh_Track2"	"Nov 29, 2016 09:28:37 AM"	Unknown	165.98665	10/29/0116 09:31.26	00009959	11.057	Inter686t1-0	-0.386	1	1	180.000	11.111	0.6	0.180	0.000	D	F	1967.3	179.389	0.206	-0.001	696.782	951.141	0.023	-	-0.003	0.736	-	-	-	Ambient373	2.919	32.275	41.918	PAVEMENT_GENERAL	Urban	F	1011101000010101	0000000000000000	-	-	-	-	-	-	-	-	-	-	Terminate	
"Student7Mode1"	"Seema_Shokoufeh_Track2"	"Nov 29, 2016 09:28:37 AM"	Unknown	166.98668	10/29/0116 09:31.27	00010019	11.764	Inter686t1-0	-0.484	1	1	180.000	11.111	5.2	0.171	0.000	D	F	1792.7	179.723	0.203	-0.024	696.880	939.726	0.023	-	0.179	0.637	-	-	-	Ambient373	2.648	31.147	21.093	PAVEMENT_GENERAL	Urban	F	1011101000010101	0000000000000000	-	-	-	-	-	-	-	-	-	-	Terminate	
