"Name"	"Project"	"Time"	ZoneName	Time	SystemTime	Frame	Velocity	LaneName	LanePos	LaneIndex	LaneCount	LaneHeading	SpeedLimit	Steer	Accel	Brake	Gear	Horn	SubjectEngineRPM	SubjectHeading	SubjectPitch	SubjectRoll	SubjectX	SubjectY	SubjectZ	Signal	LatAccel	LongAccel	Collision	CollisionAngle	CollisionVelocity	VehAhead	HeadwayTime	HeadwayDist	TTC	TerrainType	CultureType	Slip	DigitalInputs	DigitalInputs2	ActiveTrigger	EntityName	DistToEntity	TimeToEntity	EntityVelocity	EntityAccel	EntityHeading	EntityX	EntityY	EntityZ	GrabData	
"Student30Mode3"	"Tanvi_6"	"Feb 16, 2017 11:00:54 AM"	Unknown	0.98335	01/16/0117 11:00.58	00000059	0.002	Inter625t13-0	-0.088	1	2	0.000	11.111	3.6	0.000	0.000	D	F	0.0	0.001	0.153	-0.001	1503.500	523.206	0.019	-	-0.000	0.000	-	-	-	-	-	-	-	PAVEMENT_GENERAL	Urban	F	1011101000011101	0000000000010000	-	car	928.855	774728.438	0.000	0.000	180.000	696.000	987.000	-0.000	Terminate	
"Student30Mode3"	"Tanvi_6"	"Feb 16, 2017 11:00:54 AM"	Unknown	1.98337	01/16/0117 11:00.59	00000119	0.000	Inter625t13-0	-0.088	1	2	0.000	11.111	3.6	0.000	0.000	D	F	0.0	0.001	0.197	-0.000	1503.500	523.208	0.026	-	0.000	-0.001	-	-	-	-	-	-	-	PAVEMENT_GENERAL	Urban	F	1011101000011101	0000000000010000	-	car	928.855	4213556.500	0.000	0.000	180.000	696.000	987.000	-0.000	Terminate	
"Student30Mode3"	"Tanvi_6"	"Feb 16, 2017 11:00:54 AM"	Unknown	2.98339	01/16/0117 11:01.00	00000179	-0.000	Inter625t13-0	-0.088	1	2	0.000	11.111	3.6	0.000	0.000	D	F	0.0	0.001	0.207	-0.000	1503.500	523.208	0.028	-	0.000	-0.000	-	-	-	-	-	-	-	PAVEMENT_GENERAL	Urban	F	1011101000011101	0000000000010000	-	car	928.854	-116081152.000	0.000	0.000	180.000	696.000	987.000	-0.000	Terminate	
"Student30Mode3"	"Tanvi_6"	"Feb 16, 2017 11:00:54 AM"	Unknown	3.98341	01/16/0117 11:01.01	00000239	-0.000	Inter625t13-0	-0.088	1	2	0.000	11.111	3.6	0.000	0.000	D	F	0.0	0.000	0.210	-0.000	1503.500	523.208	0.028	-	0.000	-0.000	-	-	-	-	-	-	-	PAVEMENT_GENERAL	Urban	F	1011101000011101	0000000000010000	-	car	928.854	-22307294.000	0.000	0.000	180.000	696.000	987.000	-0.000	Terminate	
"Student30Mode3"	"Tanvi_6"	"Feb 16, 2017 11:00:54 AM"	Unknown	4.98343	01/16/0117 11:01.02	00000299	-0.000	Inter625t13-0	-0.088	1	2	0.000	11.111	3.6	0.000	0.000	D	F	0.0	0.000	0.210	-0.000	1503.500	523.208	0.028	-	0.000	0.000	-	-	-	-	-	-	-	PAVEMENT_GENERAL	Urban	F	1011101000011101	0000000000010000	-	car	928.854	-24859878.000	0.000	0.000	180.000	696.000	987.000	-0.000	Terminate	
"Student30Mode3"	"Tanvi_6"	"Feb 16, 2017 11:00:54 AM"	Unknown	5.98345	01/16/0117 11:01.03	00000359	-0.000	Inter625t13-0	-0.088	1	2	0.000	11.111	3.6	0.000	0.000	D	F	0.0	0.000	0.209	-0.000	1503.500	523.208	0.028	-	0.000	0.000	-	-	-	-	-	-	-	PAVEMENT_GENERAL	Urban	F	1011101000011101	0000000000010000	-	car	928.855	-34385164.000	0.000	0.000	180.000	696.000	987.000	-0.000	Terminate	
"Student30Mode3"	"Tanvi_6"	"Feb 16, 2017 11:00:54 AM"	Unknown	6.98347	01/16/0117 11:01.04	00000419	-0.000	Inter625t13-0	-0.088	1	2	0.000	11.111	3.6	0.000	0.000	D	F	0.0	0.000	0.209	-0.000	1503.500	523.208	0.028	-	0.000	0.000	-	-	-	-	-	-	-	PAVEMENT_GENERAL	Urban	F	1011101000011101	0000000000010000	-	car	928.855	-48197296.000	0.000	0.000	180.000	696.000	987.000	-0.000	Terminate	
"Student30Mode3"	"Tanvi_6"	"Feb 16, 2017 11:00:54 AM"	Unknown	7.98349	01/16/0117 11:01.05	00000479	-0.000	Inter625t13-0	-0.088	1	2	0.000	11.111	3.6	0.000	0.000	D	F	0.0	0.000	0.209	0.000	1503.500	523.208	0.028	-	0.000	0.000	-	-	-	-	-	-	-	PAVEMENT_GENERAL	Urban	F	1011101000011101	0000000000010000	-	car	928.855	-64942836.000	0.000	0.000	180.000	696.000	987.000	-0.000	Terminate	
"Student30Mode3"	"Tanvi_6"	"Feb 16, 2017 11:00:54 AM"	Unknown	8.98351	01/16/0117 11:01.06	00000539	-0.000	Inter625t13-0	-0.088	1	2	0.000	11.111	3.6	0.000	0.000	D	F	0.0	0.000	0.209	0.000	1503.500	523.208	0.028	-	0.000	0.000	-	-	-	-	-	-	-	PAVEMENT_GENERAL	Urban	F	1011101000011101	0000000000010000	-	car	928.855	-83374384.000	0.000	0.000	180.000	696.000	987.000	-0.000	Terminate	
"Student30Mode3"	"Tanvi_6"	"Feb 16, 2017 11:00:54 AM"	Unknown	9.98353	01/16/0117 11:01.07	00000599	-0.000	Inter625t13-0	-0.088	1	2	0.000	11.111	3.6	0.000	0.000	D	F	0.0	0.000	0.209	0.000	1503.500	523.208	0.028	-	0.000	0.000	-	-	-	-	-	-	-	PAVEMENT_GENERAL	Urban	F	1011101000011101	0000000000010000	-	car	928.855	-102690280.000	0.000	0.000	180.000	696.000	987.000	-0.000	Terminate	
"Student30Mode3"	"Tanvi_6"	"Feb 16, 2017 11:00:54 AM"	Unknown	10.98355	01/16/0117 11:01.08	00000659	-0.000	Inter625t13-0	-0.088	1	2	0.000	11.111	4.2	0.000	0.000	D	F	0.0	0.000	0.209	0.000	1503.500	523.208	0.028	-	-0.000	0.000	-	-	-	-	-	-	-	PAVEMENT_GENERAL	Urban	F	1011101000011101	0000000000010000	-	car	928.855	-122591416.000	0.000	0.000	180.000	696.000	987.000	-0.000	Terminate	
"Student30Mode3"	"Tanvi_6"	"Feb 16, 2017 11:00:54 AM"	Unknown	11.98357	01/16/0117 11:01.09	00000719	-0.000	Inter625t13-0	-0.088	1	2	0.000	11.111	3.8	0.000	0.000	D	F	0.0	0.000	0.209	0.000	1503.500	523.207	0.028	-	0.000	0.000	-	-	-	-	-	-	-	PAVEMENT_GENERAL	Urban	F	1011101000011101	0000000000010000	-	car	928.855	-143073984.000	0.000	0.000	180.000	696.000	987.000	-0.000	Terminate	
"Student30Mode3"	"Tanvi_6"	"Feb 16, 2017 11:00:54 AM"	Unknown	12.98359	01/16/0117 11:01.10	00000779	-0.000	Inter625t13-0	-0.088	1	2	0.000	11.111	3.5	0.000	0.000	D	F	0.0	0.000	0.209	0.000	1503.500	523.207	0.028	-	0.000	0.000	-	-	-	-	-	-	-	PAVEMENT_GENERAL	Urban	F	1011101000011101	0000000000010000	-	car	928.855	-164260000.000	0.000	0.000	180.000	696.000	987.000	-0.000	Terminate	
"Student30Mode3"	"Tanvi_6"	"Feb 16, 2017 11:00:54 AM"	Unknown	13.98361	01/16/0117 11:01.11	00000839	-0.000	Inter625t13-0	-0.088	1	2	0.000	11.111	3.5	0.000	0.000	D	F	50.0	0.000	0.209	0.000	1503.500	523.207	0.028	-	0.000	0.000	-	-	-	-	-	-	-	PAVEMENT_GENERAL	Urban	F	1011101000011111	0000000000010000	-	car	928.855	-	0.000	0.000	180.000	696.000	987.000	-0.000	Terminate	
"Student30Mode3"	"Tanvi_6"	"Feb 16, 2017 11:00:54 AM"	Unknown	14.98363	01/16/0117 11:01.12	00000899	0.002	Inter625t13-0	-0.088	1	2	0.000	11.111	3.7	0.000	0.000	D	F	383.3	0.000	0.208	0.000	1503.500	523.208	0.027	-	0.000	0.011	-	-	-	-	-	-	-	PAVEMENT_GENERAL	Urban	F	1011101000011101	0000000000010000	-	car	928.854	872683.250	0.000	0.000	180.000	696.000	987.000	-0.000	Terminate	
"Student30Mode3"	"Tanvi_6"	"Feb 16, 2017 11:00:54 AM"	Unknown	15.98365	01/16/0117 11:01.13	00000959	0.020	Inter625t13-0	-0.088	1	2	0.000	11.111	3.1	0.000	0.000	D	F	477.5	0.001	0.198	0.000	1503.500	523.217	0.024	-	0.000	0.048	-	-	-	-	-	-	-	PAVEMENT_GENERAL	Urban	F	1011101000011101	0000000000010000	-	car	928.850	91812.992	0.000	0.000	180.000	696.000	987.000	-0.000	Terminate	
"Student30Mode3"	"Tanvi_6"	"Feb 16, 2017 11:00:54 AM"	Unknown	16.98367	01/16/0117 11:01.14	00001019	0.171	Inter625t13-0	-0.088	1	2	0.000	11.111	3.7	0.005	0.000	D	F	477.5	0.008	0.206	-0.000	1503.500	523.298	0.025	-	0.001	0.218	-	-	-	-	-	-	-	PAVEMENT_GENERAL	Urban	F	1011101000011101	0000000000010000	-	car	928.810	10880.513	0.000	0.000	180.000	696.000	987.000	-0.000	Terminate	
"Student30Mode3"	"Tanvi_6"	"Feb 16, 2017 11:00:54 AM"	Unknown	17.98369	01/16/0117 11:01.15	00001079	2.238	Inter625t13-0	-0.085	1	2	0.000	11.111	3.4	0.116	0.000	D	F	1339.0	0.079	0.207	-0.001	1503.503	524.270	0.015	-	0.010	2.514	-	-	-	-	-	-	-	PAVEMENT_GENERAL	Urban	F	1011101000011101	0000000000010000	-	car	928.328	836.177	0.000	0.000	180.000	696.000	987.000	-0.000	Terminate	
"Student30Mode3"	"Tanvi_6"	"Feb 16, 2017 11:00:54 AM"	Unknown	18.98371	01/16/0117 11:01.16	00001139	4.567	Inter625t13-0	-0.066	1	2	0.000	11.111	3.6	0.187	0.000	D	F	1755.6	0.340	0.223	-0.004	1503.522	527.669	0.015	-	0.029	2.296	-	-	-	-	-	-	-	PAVEMENT_GENERAL	Urban	F	1011101000011101	0000000000010000	-	car	926.660	414.689	0.000	0.000	180.000	696.000	987.000	-0.000	Terminate	
"Student30Mode3"	"Tanvi_6"	"Feb 16, 2017 11:00:54 AM"	Unknown	19.98373	01/16/0117 11:01.17	00001199	6.653	Inter625t49-0	-0.005	1	1	0.005	11.111	1.5	0.210	0.000	D	F	2140.1	0.708	0.221	-0.002	1503.583	533.314	0.017	-	0.020	1.926	-	-	-	-	-	-	-	PAVEMENT_GENERAL	Urban	F	1011101000011101	0000000000010000	-	car	923.935	289.960	0.000	0.000	180.000	696.000	987.000	-0.000	Terminate	
"Student30Mode3"	"Tanvi_6"	"Feb 16, 2017 11:00:54 AM"	Unknown	20.98375	01/16/0117 11:01.18	00001259	8.423	Inter625t49-0	0.063	1	1	0.006	11.111	-3.6	0.224	0.000	D	F	1874.9	0.267	0.214	0.012	1503.652	540.904	0.019	-	-0.085	1.499	-	-	-	-	-	-	-	PAVEMENT_GENERAL	Urban	F	1011101000011101	0000000000010000	-	car	920.301	227.897	0.000	0.000	180.000	696.000	987.000	-0.000	Terminate	
"Student30Mode3"	"Tanvi_6"	"Feb 16, 2017 11:00:54 AM"	Unknown	21.98377	01/16/0117 11:01.19	00001319	9.824	Inter625t49-0	0.084	1	1	0.008	11.111	-1.9	0.282	0.000	D	F	2012.5	0.064	0.216	0.008	1503.673	550.037	0.020	-	-0.052	1.423	-	-	-	-	-	-	-	PAVEMENT_GENERAL	Urban	F	1011101000011101	0000000000010000	-	car	915.939	196.352	0.000	0.000	180.000	696.000	987.000	-0.000	Terminate	
"Student30Mode3"	"Tanvi_6"	"Feb 16, 2017 11:00:54 AM"	Unknown	22.98379	01/16/0117 11:01.20	00001379	11.245	Inter625t49-0	0.053	1	1	0.006	11.111	-3.1	0.307	0.000	D	F	2155.7	359.633	0.212	0.014	1503.644	560.577	0.020	-	-0.108	1.382	-	-	-	-	-	-	-	PAVEMENT_GENERAL	Urban	F	1011101000011101	0000000000010000	-	car	910.946	171.425	0.000	0.000	180.000	696.000	987.000	-0.000	Terminate	
"Student30Mode3"	"Tanvi_6"	"Feb 16, 2017 11:00:54 AM"	Unknown	23.98381	01/16/0117 11:01.21	00001439	12.571	Inter625t49-0	-0.060	1	1	0.005	11.111	1.6	0.314	0.000	D	F	2292.3	359.423	0.210	-0.006	1503.532	572.493	0.020	-	0.042	1.283	-	-	-	-	-	-	-	PAVEMENT_GENERAL	Urban	F	1011101000011101	0000000000010000	-	car	905.343	154.685	0.000	0.000	180.000	696.000	987.000	-0.000	Terminate	
"Student30Mode3"	"Tanvi_6"	"Feb 16, 2017 11:00:54 AM"	Unknown	24.98383	01/16/0117 11:01.22	00001499	13.856	Inter625t15-0	-0.172	1	2	0.000	11.111	-1.9	0.319	0.000	D	F	2458.9	359.515	0.209	0.011	1503.421	585.706	0.021	-	-0.062	1.277	-	-	-	-	-	-	-	PAVEMENT_GENERAL	Urban	F	1011101000011101	0000000000010000	-	car	899.286	143.394	0.000	0.000	180.000	696.000	987.000	-0.000	Terminate	
"Student30Mode3"	"Tanvi_6"	"Feb 16, 2017 11:00:54 AM"	Unknown	25.98385	01/16/0117 11:01.23	00001559	15.115	Inter614t1-0	-0.313	1	2	0.000	11.111	2.2	0.314	0.000	D	F	2618.1	359.535	0.207	-0.014	1503.280	600.194	0.021	-	0.107	1.232	-	-	-	-	-	-	-	PAVEMENT_GENERAL	Urban	F	1011101000011101	0000000000010000	-	car	892.805	134.419	0.000	0.000	180.000	696.000	987.000	-0.000	Terminate	
"Student30Mode3"	"Tanvi_6"	"Feb 16, 2017 11:00:54 AM"	Unknown	26.98387	01/16/0117 11:01.24	00001619	16.170	Inter614t1-0	-0.388	1	2	0.000	11.111	1.2	0.289	0.000	D	F	2749.3	359.904	0.204	-0.011	1503.206	615.852	0.022	-	0.069	1.036	-	-	-	-	-	-	-	PAVEMENT_GENERAL	Urban	F	1011101000011101	0000000000010000	-	car	886.084	130.696	0.000	0.000	180.000	696.000	987.000	-0.000	Terminate	
"Student30Mode3"	"Tanvi_6"	"Feb 16, 2017 11:00:54 AM"	Unknown	27.98389	01/16/0117 11:01.25	00001679	17.223	Inter614t1-0	-0.371	1	2	0.000	11.111	0.8	0.291	0.000	D	F	2897.8	0.247	0.202	-0.011	1503.223	632.552	0.022	-	0.072	1.024	-	-	-	-	-	-	-	PAVEMENT_GENERAL	Urban	F	1011101000011101	0000000000010000	-	car	879.254	128.238	0.000	0.000	180.000	696.000	987.000	-0.000	Terminate	
"Student30Mode3"	"Tanvi_6"	"Feb 16, 2017 11:00:54 AM"	Unknown	28.98391	01/16/0117 11:01.26	00001739	17.769	Inter614t1-0	-0.291	1	2	0.000	11.111	1.5	0.183	0.000	D	F	2033.1	0.276	0.192	-0.009	1503.302	650.135	0.025	-	0.045	0.260	-	-	-	-	-	-	-	PAVEMENT_GENERAL	Urban	F	1011101000011101	0000000000010000	-	car	872.406	128.983	0.000	0.000	180.000	696.000	987.000	-0.000	Terminate	
"Student30Mode3"	"Tanvi_6"	"Feb 16, 2017 11:00:54 AM"	Unknown	29.98393	01/16/0117 11:01.27	00001799	18.108	Inter614t1-0	-0.150	1	2	0.000	11.111	2.0	0.198	0.000	D	F	2065.6	0.674	0.192	-0.016	1503.443	668.064	0.025	-	0.125	0.310	-	-	-	-	-	-	-	PAVEMENT_GENERAL	Urban	F	1011101000011101	0000000000010000	-	car	865.790	134.151	0.000	0.000	180.000	696.000	987.000	-0.000	Terminate	
"Student30Mode3"	"Tanvi_6"	"Feb 16, 2017 11:00:54 AM"	Unknown	30.98395	01/16/0117 11:01.28	00001859	18.422	Inter614t1-0	0.077	1	2	0.000	11.111	-7.0	0.205	0.000	D	F	2095.5	0.511	0.193	0.042	1503.670	686.327	0.025	-	-0.317	0.322	-	-	-	-	-	-	-	PAVEMENT_GENERAL	Urban	F	1011101000011101	0000000000010000	-	car	859.462	137.013	0.000	0.000	180.000	696.000	987.000	-0.000	Terminate	
"Student30Mode3"	"Tanvi_6"	"Feb 16, 2017 11:00:54 AM"	Unknown	31.98397	01/16/0117 11:01.29	00001919	18.743	Inter614t1-0	0.076	1	2	0.000	11.111	2.5	0.194	0.000	D	F	2103.5	359.728	0.191	-0.013	1503.669	704.911	0.025	-	0.064	0.281	-	-	-	-	-	-	-	PAVEMENT_GENERAL	Urban	F	1011101000011101	0000000000010000	-	car	853.154	136.197	0.000	0.000	180.000	696.000	987.000	-0.000	Terminate	
"Student30Mode3"	"Tanvi_6"	"Feb 16, 2017 11:00:54 AM"	Unknown	32.98399	01/16/0117 11:01.30	00001979	18.994	Inter614t1-0	0.030	1	2	0.000	11.111	-0.4	0.190	0.000	D	F	2114.4	359.884	0.192	0.003	1503.624	723.779	0.025	-	-0.026	0.257	-	-	-	-	-	-	-	PAVEMENT_GENERAL	Urban	F	1011101000011101	0000000000010000	-	car	847.076	143.029	0.000	0.000	180.000	696.000	987.000	-0.000	Terminate	
"Student30Mode3"	"Tanvi_6"	"Feb 16, 2017 11:00:54 AM"	Unknown	33.98401	01/16/0117 11:01.31	00002039	19.246	Inter614t1-0	-0.016	1	2	0.000	11.111	0.9	0.199	0.000	D	F	2149.0	359.863	0.192	-0.008	1503.577	742.895	0.025	-	0.038	0.277	-	-	-	-	-	-	-	PAVEMENT_GENERAL	Urban	F	1011101000011101	0000000000010000	-	car	841.304	149.894	0.000	0.000	180.000	696.000	987.000	-0.000	Terminate	
"Student30Mode3"	"Tanvi_6"	"Feb 16, 2017 11:00:54 AM"	Unknown	34.98403	01/16/0117 11:01.32	00002099	19.522	Inter614t1-0	-0.042	1	2	0.000	11.111	-1.7	0.201	0.000	D	F	2168.9	359.927	0.191	0.005	1503.551	762.280	0.025	-	-0.061	0.274	-	-	-	-	-	-	-	PAVEMENT_GENERAL	Urban	F	1011101000011101	0000000000010000	-	car	835.875	158.984	0.000	0.000	180.000	696.000	987.000	-0.000	Terminate	
"Student30Mode3"	"Tanvi_6"	"Feb 16, 2017 11:00:54 AM"	Unknown	35.98405	01/16/0117 11:01.33	00002159	19.790	Inter614t1-0	-0.069	1	2	0.000	11.111	1.6	0.205	0.000	D	F	2191.3	0.104	0.190	-0.021	1503.524	781.936	0.025	-	0.152	0.260	-	-	-	-	-	-	-	PAVEMENT_GENERAL	Urban	F	1011101000011101	0000000000010000	-	car	830.795	171.798	0.000	0.000	180.000	696.000	987.000	-0.000	Terminate	
"Student30Mode3"	"Tanvi_6"	"Feb 16, 2017 11:00:54 AM"	Unknown	36.98407	01/16/0117 11:01.34	00002219	20.043	Inter612t1-0	-0.018	1	2	0.000	11.111	0.5	0.201	0.000	D	F	2213.2	0.177	0.190	-0.004	1503.575	801.854	0.026	-	0.019	0.245	-	-	-	-	-	-	-	PAVEMENT_GENERAL	Urban	F	1011101000011101	0000000000010000	-	car	826.167	186.973	0.000	0.000	180.000	696.000	987.000	-0.000	Terminate	
"Student30Mode3"	"Tanvi_6"	"Feb 16, 2017 11:00:54 AM"	Unknown	37.98409	01/16/0117 11:01.35	00002279	20.283	Inter612t1-0	0.058	1	2	0.000	11.111	-0.3	0.201	0.000	D	F	2232.4	0.233	0.189	0.002	1503.652	822.018	0.026	-	-0.013	0.231	-	-	-	-	-	-	-	PAVEMENT_GENERAL	Urban	F	1011101000011101	0000000000010000	-	car	821.971	206.598	0.000	0.000	180.000	696.000	987.000	-0.000	Terminate	
"Student30Mode3"	"Tanvi_6"	"Feb 16, 2017 11:00:54 AM"	Unknown	38.98411	01/16/0117 11:01.36	00002339	20.508	Inter612t1-0	0.128	1	2	0.000	11.111	-0.0	0.196	0.000	D	F	2251.8	0.155	0.189	0.001	1503.722	842.415	0.026	-	-0.012	0.218	-	-	-	-	-	-	-	PAVEMENT_GENERAL	Urban	F	1011101000011101	0000000000010000	-	car	818.201	229.906	0.000	0.000	180.000	696.000	987.000	-0.000	Terminate	
"Student30Mode3"	"Tanvi_6"	"Feb 16, 2017 11:00:54 AM"	Unknown	39.98413	01/16/0117 11:01.37	00002399	20.720	Inter612t1-0	0.178	1	2	0.000	11.111	-0.8	0.199	0.000	D	F	2270.4	0.085	0.188	0.007	1503.771	863.029	0.026	-	-0.047	0.211	-	-	-	-	-	-	-	PAVEMENT_GENERAL	Urban	F	1011101000011101	0000000000010000	-	car	814.870	261.775	0.000	0.000	180.000	696.000	987.000	-0.000	Terminate	
"Student30Mode3"	"Tanvi_6"	"Feb 16, 2017 11:00:54 AM"	Unknown	40.98415	01/16/0117 11:01.38	00002459	20.926	Inter612t1-0	0.196	1	2	0.000	11.111	-1.9	0.198	0.000	D	F	2290.2	0.000	0.188	0.013	1503.790	883.853	0.026	-	-0.093	0.203	-	-	-	-	-	-	-	PAVEMENT_GENERAL	Urban	F	1011101000011101	0000000000010000	-	car	811.989	304.992	0.000	0.000	180.000	696.000	987.000	-0.000	Terminate	
"Student30Mode3"	"Tanvi_6"	"Feb 16, 2017 11:00:54 AM"	Unknown	41.98417	01/16/0117 11:01.39	00002519	21.123	Inter612t1-0	0.135	1	2	0.000	11.111	-0.7	0.192	0.000	D	F	2302.4	359.684	0.187	0.009	1503.728	904.879	0.026	-	-0.062	0.183	-	-	-	-	-	-	-	PAVEMENT_GENERAL	Urban	F	1011101000011101	0000000000010000	-	car	809.532	359.425	0.000	0.000	180.000	696.000	987.000	-0.000	Terminate	
"Student30Mode3"	"Tanvi_6"	"Feb 16, 2017 11:00:54 AM"	Unknown	42.98419	01/16/0117 11:01.40	00002579	21.293	Inter612t1-0	0.020	1	2	0.000	11.111	0.5	0.192	0.000	D	F	2314.1	359.755	0.187	-0.005	1503.613	926.088	0.026	-	0.050	0.161	-	-	-	-	-	-	-	PAVEMENT_GENERAL	Urban	F	1011101000011101	0000000000010000	-	car	807.547	477.277	0.000	0.000	180.000	696.000	987.000	-0.000	Terminate	
"Student30Mode3"	"Tanvi_6"	"Feb 16, 2017 11:00:54 AM"	Unknown	43.98421	01/16/0117 11:01.41	00002639	21.445	Inter612t1-0	-0.044	1	2	0.000	11.111	1.1	0.190	0.000	D	F	2325.8	0.000	0.186	-0.011	1503.549	947.458	0.026	-	0.086	0.145	-	-	-	-	-	-	-	PAVEMENT_GENERAL	Urban	F	1011101000011101	0000000000010000	-	car	806.157	759.103	0.000	0.000	180.000	696.000	987.000	-0.000	Terminate	
"Student30Mode3"	"Tanvi_6"	"Feb 16, 2017 11:00:54 AM"	Unknown	44.98423	01/16/0117 11:01.42	00002699	21.586	Inter612t1-0	-0.037	1	2	0.000	11.111	-0.3	0.187	0.000	D	F	2335.9	0.035	0.186	0.003	1503.556	968.974	0.026	-	-0.020	0.137	-	-	-	-	-	-	-	PAVEMENT_GENERAL	Urban	F	1011101000011101	0000000000010000	-	car	805.398	1719.552	0.000	0.000	180.000	696.000	987.000	-0.000	Terminate	
"Student30Mode3"	"Tanvi_6"	"Feb 16, 2017 11:00:54 AM"	Unknown	45.98425	01/16/0117 11:01.43	00002759	21.722	Inter612t1-0	-0.055	1	2	0.000	11.111	-1.1	0.187	0.000	D	F	1910.2	359.804	0.184	0.012	1503.539	990.630	0.026	-	-0.092	0.080	-	-	-	-	-	-	-	PAVEMENT_GENERAL	Urban	F	1011101000011101	0000000000010000	-	car	805.187	-34354.457	0.000	0.000	180.000	696.000	987.000	-0.000	Terminate	
"Student30Mode3"	"Tanvi_6"	"Feb 16, 2017 11:00:54 AM"	Unknown	46.98427	01/16/0117 11:01.44	00002819	21.800	Inter613t1-0	-0.153	1	2	0.000	11.111	3.1	0.212	0.000	D	F	1918.5	359.712	0.186	-0.016	1503.440	1012.388	0.026	-	0.100	0.126	-	-	-	-	-	-	-	PAVEMENT_GENERAL	Urban	F	1011101000011101	0000000000010000	-	car	805.480	-1399.360	0.000	0.000	180.000	696.000	987.000	-0.000	Terminate	
"Student30Mode3"	"Tanvi_6"	"Feb 16, 2017 11:00:54 AM"	Unknown	47.98429	01/16/0117 11:01.45	00002879	22.024	Inter613t1-0	-0.140	1	2	0.000	11.111	-2.2	0.254	0.000	D	F	1982.9	0.338	0.186	0.008	1503.453	1034.294	0.026	-	-0.004	0.242	-	-	-	-	-	-	-	PAVEMENT_GENERAL	Urban	F	1011101000011101	0000000000010000	-	car	806.477	-568.965	0.000	0.000	180.000	696.000	987.000	-0.000	Terminate	
"Student30Mode3"	"Tanvi_6"	"Feb 16, 2017 11:00:54 AM"	Unknown	48.98431	01/16/0117 11:01.46	00002939	22.271	Inter613t1-0	-0.101	1	2	0.000	11.111	-0.4	0.265	0.000	D	F	1999.3	359.823	0.186	0.015	1503.492	1056.441	0.026	-	-0.119	0.246	-	-	-	-	-	-	-	PAVEMENT_GENERAL	Urban	F	1011101000011101	0000000000010000	-	car	808.113	-439.291	0.000	0.000	180.000	696.000	987.000	-0.000	Terminate	
"Student30Mode3"	"Tanvi_6"	"Feb 16, 2017 11:00:54 AM"	Unknown	49.98433	01/16/0117 11:01.47	00002999	22.514	Inter613t1-0	-0.158	1	2	0.000	11.111	0.2	0.263	0.000	D	F	2008.3	359.857	0.185	-0.000	1503.435	1078.834	0.026	-	0.004	0.240	-	-	-	-	-	-	-	PAVEMENT_GENERAL	Urban	F	1011101000011101	0000000000010000	-	car	810.281	-325.603	0.000	0.000	180.000	696.000	987.000	-0.000	Terminate	
"Student30Mode3"	"Tanvi_6"	"Feb 16, 2017 11:00:54 AM"	Unknown	50.98435	01/16/0117 11:01.48	00003059	22.747	Inter613t1-0	-0.200	1	2	0.000	11.111	0.9	0.263	0.000	D	F	2014.4	0.000	0.185	-0.009	1503.393	1101.465	0.026	-	0.071	0.226	-	-	-	-	-	-	-	PAVEMENT_GENERAL	Urban	F	1011101000011101	0000000000010000	-	car	813.107	-255.134	0.000	0.000	180.000	696.000	987.000	-0.000	Terminate	
"Student30Mode3"	"Tanvi_6"	"Feb 16, 2017 11:00:54 AM"	Unknown	51.98437	01/16/0117 11:01.49	00003119	22.966	Inter613t1-0	-0.178	1	2	0.000	11.111	0.5	0.256	0.000	D	F	2017.8	0.161	0.184	-0.007	1503.415	1124.323	0.026	-	0.056	0.214	-	-	-	-	-	-	-	PAVEMENT_GENERAL	Urban	F	1011101000011101	0000000000010000	-	car	816.650	-208.618	0.000	0.000	180.000	696.000	987.000	-0.000	Terminate	
"Student30Mode3"	"Tanvi_6"	"Feb 16, 2017 11:00:54 AM"	Unknown	52.98439	01/16/0117 11:01.50	00003179	22.502	Inter613t1-0	-0.103	1	2	0.000	11.111	0.6	0.000	0.000	D	F	1534.3	0.268	0.176	-0.008	1503.490	1147.128	0.030	-	0.062	-0.645	-	-	-	-	-	-	-	PAVEMENT_GENERAL	Urban	F	1011101000011101	0000000000010000	-	car	820.855	-183.223	0.000	0.000	180.000	696.000	987.000	-0.000	Terminate	
"Student30Mode3"	"Tanvi_6"	"Feb 16, 2017 11:00:54 AM"	Unknown	53.98441	01/16/0117 11:01.51	00003239	21.863	Inter613t1-0	0.020	1	2	0.000	11.111	-1.4	0.000	0.000	D	F	1490.4	0.385	0.177	0.005	1503.614	1169.309	0.030	-	-0.028	-0.635	-	-	-	-	-	-	-	PAVEMENT_GENERAL	Urban	F	1011101000011101	0000000000010000	-	car	825.576	-166.531	0.000	0.000	180.000	696.000	987.000	-0.000	Terminate	
"Student30Mode3"	"Tanvi_6"	"Feb 16, 2017 11:00:54 AM"	Unknown	54.98443	01/16/0117 11:01.52	00003299	20.271	Inter613t1-0	0.095	1	2	0.000	11.111	-1.6	0.000	0.299	D	F	1325.6	359.828	0.092	0.028	1503.688	1190.691	0.035	-	-0.200	-4.065	-	-	-	-	-	-	-	PAVEMENT_GENERAL	Urban	F	1011101000011101	0000000000010000	-	car	830.617	-169.595	0.000	0.000	180.000	696.000	987.000	-0.000	Terminate	
"Student30Mode3"	"Tanvi_6"	"Feb 16, 2017 11:00:54 AM"	Unknown	55.98445	01/16/0117 11:01.53	00003359	16.142	Inter615t9-0	-0.007	1	2	0.000	11.111	-1.7	0.000	0.337	D	F	1050.5	359.332	0.119	0.018	1503.586	1208.913	0.038	-	-0.143	-4.458	-	-	-	-	-	-	-	PAVEMENT_GENERAL	Urban	F	1011101000011101	0000000000010000	-	car	835.161	-203.925	0.000	0.000	180.000	696.000	987.000	-0.000	Terminate	
"Student30Mode3"	"Tanvi_6"	"Feb 16, 2017 11:00:54 AM"	Unknown	56.98447	01/16/0117 11:01.54	00003419	11.332	Inter615t33-0	-0.215	1	1	0.079	11.111	-4.2	0.000	0.293	D	F	1022.8	358.836	0.103	0.026	1503.384	1222.649	0.039	L	-0.148	-4.194	-	-	-	22	4.584	51.951	4.584	PAVEMENT_GENERAL	Urban	F	1011101000111101	0000000000010000	-	car	838.711	-283.987	0.000	0.000	180.000	696.000	987.000	-0.000	Terminate	
"Student30Mode3"	"Tanvi_6"	"Feb 16, 2017 11:00:54 AM"	Unknown	57.98449	01/16/0117 11:01.55	00003479	8.982	Inter615t31-0	0.254	1	1	354.464	11.111	-20.4	0.000	0.039	D	F	879.0	356.256	0.189	0.067	1503.004	1232.394	0.028	L	-0.542	-0.738	-	-	-	22	4.698	42.200	4.698	PAVEMENT_GENERAL	Urban	F	1011101000111101	0000000000010000	-	car	841.130	-411.043	0.000	0.000	180.000	696.000	987.000	-0.000	Terminate	
"Student30Mode3"	"Tanvi_6"	"Feb 16, 2017 11:00:54 AM"	Unknown	58.98451	01/16/0117 11:01.56	00003539	8.214	Inter615t31-0	0.257	1	1	355.372	11.111	-6.5	0.000	0.000	D	F	807.3	353.913	0.196	0.015	1502.216	1240.877	0.028	-	-0.145	-0.476	-	-	-	22	4.109	33.749	4.109	PAVEMENT_GENERAL	Urban	F	1011101000011101	0000000000010000	-	car	842.884	-519.517	0.000	0.000	180.000	696.000	987.000	-0.000	Terminate	
"Student30Mode3"	"Tanvi_6"	"Feb 16, 2017 11:00:54 AM"	Unknown	59.98453	01/16/0117 11:01.57	00003599	7.739	Inter615t31-0	0.196	1	1	356.617	11.111	25.4	0.000	0.000	D	F	760.7	354.430	0.196	-0.084	1501.357	1248.807	0.028	-	0.544	-0.478	-	-	-	22	3.330	25.773	3.330	PAVEMENT_GENERAL	Urban	F	1011101000011101	0000000000010000	-	car	844.483	-506.636	0.000	0.000	180.000	696.000	987.000	-0.000	Terminate	
"Student30Mode3"	"Tanvi_6"	"Feb 16, 2017 11:00:54 AM"	Unknown	60.98455	01/16/0117 11:01.58	00003659	7.223	Inter615t31-0	0.192	1	1	356.903	11.111	1.2	0.000	0.072	D	F	703.0	356.766	0.182	0.003	1500.863	1256.293	0.029	-	0.003	-1.089	-	-	-	22	2.528	18.261	2.528	PAVEMENT_GENERAL	Urban	F	1011101000011101	0000000000010000	-	car	846.359	-445.038	0.000	0.000	180.000	696.000	987.000	-0.000	Terminate	
"Student30Mode3"	"Tanvi_6"	"Feb 16, 2017 11:00:54 AM"	Unknown	61.98457	01/16/0117 11:01.59	00003719	4.537	Inter615t31-0	0.214	1	1	356.903	11.111	5.8	0.000	0.221	D	F	477.5	357.390	0.156	-0.002	1500.557	1262.361	0.035	-	0.026	-3.217	-	-	-	22	2.686	12.185	2.686	PAVEMENT_GENERAL	Urban	F	1011101000011101	0000000000010000	-	car	848.014	-666.639	0.000	0.000	180.000	696.000	987.000	-0.000	Terminate	
"Student30Mode3"	"Tanvi_6"	"Feb 16, 2017 11:00:54 AM"	Unknown	62.98459	01/16/0117 11:02.00	00003779	1.422	Inter615t31-0	0.253	1	1	356.903	11.111	1.0	0.000	0.176	D	F	477.5	357.653	0.178	-0.003	1500.438	1265.280	0.034	L	0.006	-2.438	-	-	-	22	4.819	6.854	4.819	PAVEMENT_GENERAL	Urban	F	1011101000111101	0000000000010000	-	car	848.852	-2072.699	0.000	0.000	180.000	696.000	987.000	-0.000	Terminate	
"Student30Mode3"	"Tanvi_6"	"Feb 16, 2017 11:00:54 AM"	Unknown	63.98461	01/16/0117 11:02.01	00003839	0.124	Inter615t31-0	0.262	1	1	356.903	11.111	0.3	0.000	0.122	D	F	477.5	357.667	0.221	-0.000	1500.414	1265.884	0.030	L	0.001	-0.438	-	-	-	22	50.577	6.253	50.577	PAVEMENT_GENERAL	Urban	F	1011101000111101	0000000000010000	-	car	849.026	-23775.172	0.000	0.000	180.000	696.000	987.000	-0.000	Terminate	
"Student30Mode3"	"Tanvi_6"	"Feb 16, 2017 11:00:54 AM"	Unknown	64.98463	01/16/0117 11:02.02	00003899	0.002	Inter615t31-0	0.262	1	1	356.903	11.111	1.8	0.000	0.128	D	F	477.5	357.667	0.216	-0.000	1500.412	1265.916	0.028	L	-0.000	-0.011	-	-	-	22	-	6.221	-	PAVEMENT_GENERAL	Urban	F	1011101000111101	0000000000010000	-	car	849.035	-1759515.000	0.000	0.000	180.000	696.000	987.000	-0.000	Terminate	
"Student30Mode3"	"Tanvi_6"	"Feb 16, 2017 11:00:54 AM"	Unknown	65.98465	01/16/0117 11:02.03	00003959	-0.000	Inter615t31-0	0.262	1	1	356.903	11.111	1.8	0.000	0.101	D	F	477.5	357.667	0.210	-0.000	1500.412	1265.916	0.028	L	-0.000	0.000	-	-	-	22	-	6.447	-	PAVEMENT_GENERAL	Urban	F	1011101000111101	0000000000010000	-	car	849.035	67297216.000	0.000	0.000	180.000	696.000	987.000	-0.000	Terminate	
"Student30Mode3"	"Tanvi_6"	"Feb 16, 2017 11:00:54 AM"	Unknown	66.98467	01/16/0117 11:02.04	00004019	0.025	Inter615t31-0	0.262	1	1	356.903	11.111	1.9	0.136	0.000	D	F	1307.9	357.667	0.215	-0.000	1500.412	1265.917	0.027	L	0.001	0.403	-	-	-	22	336.012	8.394	-	PAVEMENT_GENERAL	Urban	F	1011101000111101	0000000000010000	-	car	849.036	-117650.242	0.000	0.000	180.000	696.000	987.000	-0.000	Terminate	
"Student30Mode3"	"Tanvi_6"	"Feb 16, 2017 11:00:54 AM"	Unknown	67.98470	01/16/0117 11:02.05	00004079	2.252	Inter615t31-0	0.277	1	1	356.903	11.111	4.8	0.118	0.000	D	F	1339.0	357.730	0.222	-0.003	1500.376	1266.854	0.013	L	0.022	2.514	-	-	-	22	5.068	11.411	-	PAVEMENT_GENERAL	Urban	F	1011101000111101	0000000000010000	-	car	849.309	-1296.483	0.000	0.000	180.000	696.000	987.000	-0.000	Terminate	
"Student30Mode3"	"Tanvi_6"	"Feb 16, 2017 11:00:54 AM"	Unknown	68.98471	01/16/0117 11:02.06	00004139	4.482	Inter615t11-0	0.220	LT1	2	0.000	11.111	5.6	0.139	0.000	D	F	1609.1	358.523	0.209	0.005	1500.282	1270.296	0.017	L	-0.007	1.617	-	-	-	22	3.650	16.360	-	PAVEMENT_GENERAL	Urban	F	1011101000111101	0000000000010000	-	car	850.357	-616.449	0.000	0.000	180.000	696.000	987.000	-0.000	Terminate	
"Student30Mode3"	"Tanvi_6"	"Feb 16, 2017 11:00:54 AM"	Unknown	69.98473	01/16/0117 11:02.07	00004199	6.108	Inter615t11-0	0.088	LT1	2	0.000	11.111	-3.3	0.169	0.000	D	F	1781.0	358.497	0.227	0.005	1500.150	1275.600	0.019	L	-0.047	1.683	-	-	-	22	3.112	19.007	-	PAVEMENT_GENERAL	Urban	F	1011101000111101	0000000000010000	-	car	852.010	-445.650	0.000	0.000	180.000	696.000	987.000	-0.000	Terminate	
"Student30Mode3"	"Tanvi_6"	"Feb 16, 2017 11:00:54 AM"	Unknown	70.98476	01/16/0117 11:02.08	00004259	7.661	Inter615t65-0	-0.258	1	1	355.917	11.111	-63.8	0.199	0.000	D	F	1753.1	355.296	0.213	0.177	1499.784	1282.504	0.020	L	-1.257	1.339	-	-	-	22	2.832	21.695	-	PAVEMENT_GENERAL	Urban	F	1011101000111101	0000000000010000	-	car	854.023	-417.607	0.000	0.000	180.000	696.000	987.000	-0.000	Terminate	
"Student30Mode3"	"Tanvi_6"	"Feb 16, 2017 11:00:54 AM"	Unknown	71.98477	01/16/0117 11:02.09	00004319	8.865	Inter615t65-0	0.093	1	1	334.227	11.111	-122.7	0.196	0.000	D	F	1823.7	341.544	0.203	0.400	1498.002	1290.584	0.022	L	-3.005	0.982	-	-	-	22	2.803	24.848	-	PAVEMENT_GENERAL	Urban	F	1011101000111101	0000000000010000	-	car	855.178	-2427.458	0.000	0.000	180.000	696.000	987.000	-0.000	Terminate	
"Student30Mode3"	"Tanvi_6"	"Feb 16, 2017 11:00:54 AM"	Unknown	72.98479	01/16/0117 11:02.10	00004379	9.795	Inter615t65-0	0.723	1	1	314.645	11.111	-133.0	0.187	0.000	D	F	1862.5	320.640	0.185	0.494	1493.249	1298.589	0.025	L	-3.813	0.703	-	-	-	22	2.894	28.342	-	PAVEMENT_GENERAL	Urban	F	1011101000111101	0000000000010000	-	car	853.615	281.840	0.000	0.000	180.000	696.000	987.000	-0.000	Terminate	
"Student30Mode3"	"Tanvi_6"	"Feb 16, 2017 11:00:54 AM"	Unknown	73.98481	01/16/0117 11:02.11	00004439	10.370	Inter615t65-0	1.359	1	1	283.741	11.111	-206.2	0.192	0.000	D	F	1927.9	291.710	0.222	0.773	1485.100	1304.402	0.034	L	-5.968	0.379	-	-	-	22	3.230	33.500	-	PAVEMENT_GENERAL	Urban	F	1011101000111101	0000000000010000	-	car	848.184	112.985	0.000	0.000	180.000	696.000	987.000	-0.000	Terminate	
"Student30Mode3"	"Tanvi_6"	"Feb 16, 2017 11:00:54 AM"	Unknown	74.98483	01/16/0117 11:02.12	00004499	11.008	Inter615t3-4	-1.644	2	2	270.000	11.111	7.8	0.206	0.000	D	F	2007.7	267.160	0.186	-0.038	1474.606	1305.487	0.022	-	-0.405	0.934	-	-	-	22	3.853	42.409	-	PAVEMENT_GENERAL	Urban	F	1011101000011101	0000000000010000	-	car	838.866	80.799	0.000	0.000	180.000	696.000	987.000	-0.000	Terminate	
"Student30Mode3"	"Tanvi_6"	"Feb 16, 2017 11:00:54 AM"	Unknown	75.98486	01/16/0117 11:02.13	00004559	11.991	Inter615t19-0	1.652	1	1	270.074	11.111	0.9	0.257	0.000	D	F	2173.9	269.419	0.208	-0.006	1463.126	1305.187	0.022	-	0.108	1.067	-	-	-	22	3.913	46.925	-	PAVEMENT_GENERAL	Urban	F	1011101000011101	0000000000010000	-	car	828.138	74.460	0.000	0.000	180.000	696.000	987.000	-0.000	Terminate	
"Student30Mode3"	"Tanvi_6"	"Feb 16, 2017 11:00:54 AM"	Unknown	76.98487	01/16/0117 11:02.14	00004619	13.152	Inter615t19-0	1.498	1	1	270.113	11.111	-7.7	0.296	0.000	D	F	2350.5	269.130	0.208	0.042	1450.567	1305.047	0.021	-	-0.271	1.203	-	-	-	22	4.077	53.626	-	PAVEMENT_GENERAL	Urban	F	1011101000011101	0000000000010000	-	car	816.496	66.949	0.000	0.000	180.000	696.000	987.000	-0.000	Terminate	
"Student30Mode3"	"Tanvi_6"	"Feb 16, 2017 11:00:54 AM"	Unknown	77.98489	01/16/0117 11:02.15	00004679	14.344	Inter615t19-0	1.108	1	1	270.071	11.111	2.5	0.298	0.000	D	F	2495.8	268.143	0.207	-0.009	1436.823	1304.684	0.021	-	0.041	1.180	-	-	-	22	4.159	59.660	-	PAVEMENT_GENERAL	Urban	F	1011101000011101	0000000000010000	-	car	803.706	60.159	0.000	0.000	180.000	696.000	987.000	-0.000	Terminate	
"Student30Mode3"	"Tanvi_6"	"Feb 16, 2017 11:00:54 AM"	Unknown	78.98492	01/16/0117 11:02.16	00004739	15.442	Inter615t19-0	0.669	1	1	270.061	11.111	-0.2	0.284	0.000	D	F	2641.5	268.548	0.205	-0.002	1421.926	1304.263	0.022	-	0.017	1.054	-	-	-	22	4.201	64.874	-	PAVEMENT_GENERAL	Urban	F	1011101000011101	0000000000010000	-	car	789.868	55.228	0.000	0.000	180.000	696.000	987.000	-0.000	Terminate	
"Student30Mode3"	"Tanvi_6"	"Feb 16, 2017 11:00:54 AM"	Unknown	79.98493	01/16/0117 11:02.17	00004799	16.478	Inter615t1-2	0.275	1	2	270.000	11.111	3.4	0.265	0.000	D	F	2445.4	268.843	0.206	-0.024	1405.968	1303.875	0.022	-	0.184	1.040	-	-	-	22	4.190	69.037	-	PAVEMENT_GENERAL	Urban	F	1011101000011101	0000000000010000	-	car	775.114	51.063	0.000	0.000	180.000	696.000	987.000	-0.000	Terminate	
"Student30Mode3"	"Tanvi_6"	"Feb 16, 2017 11:00:54 AM"	Unknown	80.98495	01/16/0117 11:02.18	00004859	17.145	Inter616t1-2	0.026	1	2	270.000	11.111	3.8	0.261	0.000	D	F	2092.6	269.572	0.197	-0.029	1389.135	1303.633	0.024	-	0.213	0.586	-	-	-	22	4.218	72.316	-	PAVEMENT_GENERAL	Urban	F	1011101000011101	0000000000010000	-	car	759.672	48.548	0.000	0.000	180.000	696.000	987.000	-0.000	Terminate	
"Student30Mode3"	"Tanvi_6"	"Feb 16, 2017 11:00:54 AM"	Unknown	81.98497	01/16/0117 11:02.19	00004919	17.714	Inter616t1-2	-0.013	1	2	270.000	11.111	1.6	0.265	0.000	D	F	2119.0	270.157	0.197	-0.014	1371.703	1303.593	0.024	-	0.112	0.555	-	-	-	22	4.234	75.004	-	PAVEMENT_GENERAL	Urban	F	1011101000011101	0000000000010000	-	car	743.835	46.432	0.000	0.000	180.000	696.000	987.000	-0.000	Terminate	
"Student30Mode3"	"Tanvi_6"	"Feb 16, 2017 11:00:54 AM"	Unknown	82.98499	01/16/0117 11:02.20	00004979	18.259	Inter616t1-2	0.026	1	2	270.000	11.111	-3.8	0.268	0.000	D	F	2150.8	269.894	0.196	0.029	1353.715	1303.632	0.024	-	-0.217	0.537	-	-	-	22	4.222	77.089	-	PAVEMENT_GENERAL	Urban	F	1011101000011101	0000000000010000	-	car	727.603	44.186	0.000	0.000	180.000	696.000	987.000	-0.000	Terminate	
"Student30Mode3"	"Tanvi_6"	"Feb 16, 2017 11:00:54 AM"	Unknown	83.98502	01/16/0117 11:02.21	00005039	18.783	Inter616t1-2	-0.106	1	2	270.000	11.111	-1.4	0.273	0.000	D	F	2196.1	269.264	0.195	0.017	1335.193	1303.501	0.024	-	-0.130	0.521	-	-	-	22	4.159	78.119	-	PAVEMENT_GENERAL	Urban	F	1011101000011101	0000000000010000	-	car	710.901	41.970	0.000	0.000	180.000	696.000	987.000	-0.000	Terminate	
"Student30Mode3"	"Tanvi_6"	"Feb 16, 2017 11:00:54 AM"	Unknown	84.98503	01/16/0117 11:02.22	00005099	19.309	Inter616t1-2	-0.332	1	2	270.000	11.111	8.1	0.282	0.000	D	F	2244.8	269.772	0.194	-0.068	1316.149	1303.275	0.024	-	0.484	0.532	-	-	-	22	4.028	77.768	73.921	PAVEMENT_GENERAL	Urban	F	1011101000011101	0000000000010000	-	car	693.783	40.252	0.000	0.000	180.000	696.000	987.000	-0.000	Terminate	
"Student30Mode3"	"Tanvi_6"	"Feb 16, 2017 11:00:54 AM"	Unknown	85.98505	01/16/0117 11:02.23	00005159	19.840	Inter616t1-2	-0.298	1	2	270.000	11.111	-2.6	0.289	0.000	D	F	2293.6	270.136	0.193	0.017	1296.575	1303.309	0.024	-	-0.135	0.536	-	-	-	22	3.836	76.110	32.861	PAVEMENT_GENERAL	Urban	F	1011101000011101	0000000000010000	-	car	676.420	38.582	0.000	0.000	180.000	696.000	987.000	-0.000	Terminate	
"Student30Mode3"	"Tanvi_6"	"Feb 16, 2017 11:00:54 AM"	Unknown	86.98507	01/16/0117 11:02.24	00005219	20.370	Inter616t1-2	-0.306	1	2	270.000	11.111	3.5	0.291	0.000	D	F	2335.2	270.058	0.192	-0.029	1276.470	1303.301	0.024	-	0.204	0.524	-	-	-	22	3.595	73.235	21.150	PAVEMENT_GENERAL	Urban	F	1011101000011101	0000000000010000	-	car	658.694	36.847	0.000	0.000	180.000	696.000	987.000	-0.000	Terminate	
"Student30Mode3"	"Tanvi_6"	"Feb 16, 2017 11:00:54 AM"	Unknown	87.98509	01/16/0117 11:02.25	00005279	20.888	Inter616t1-2	-0.233	1	2	270.000	11.111	-0.1	0.291	0.000	D	F	2375.5	270.205	0.191	0.001	1255.840	1303.374	0.024	-	-0.041	0.512	-	-	-	22	3.315	69.243	15.255	PAVEMENT_GENERAL	Urban	F	1011101000011101	0000000000010000	-	car	640.690	35.304	0.000	0.000	180.000	696.000	987.000	-0.000	Terminate	
"Student30Mode3"	"Tanvi_6"	"Feb 16, 2017 11:00:54 AM"	Unknown	88.98512	01/16/0117 11:02.26	00005339	21.394	Inter616t1-2	-0.158	1	2	270.000	11.111	-0.2	0.291	0.000	D	F	2415.2	270.190	0.190	0.001	1234.698	1303.449	0.024	-	-0.010	0.503	-	-	-	22	3.001	64.204	11.577	PAVEMENT_GENERAL	Urban	F	1011101000011101	0000000000010000	-	car	622.409	33.807	0.000	0.000	180.000	696.000	987.000	-0.000	Terminate	
"Student30Mode3"	"Tanvi_6"	"Feb 16, 2017 11:00:54 AM"	Unknown	89.98513	01/16/0117 11:02.27	00005399	21.888	Inter616t1-2	-0.103	1	2	270.000	11.111	-0.1	0.275	0.000	D	F	2435.7	270.085	0.188	0.000	1213.055	1303.503	0.025	-	-0.015	0.467	-	-	-	22	2.657	58.164	8.895	PAVEMENT_GENERAL	Urban	F	1011101000011101	0000000000010000	-	car	603.875	32.377	0.000	0.000	180.000	696.000	987.000	-0.000	Terminate	
"Student30Mode3"	"Tanvi_6"	"Feb 16, 2017 11:00:54 AM"	Unknown	90.98515	01/16/0117 11:02.28	00005459	21.578	Inter617t1-2	-0.056	1	2	270.000	11.111	0.6	0.000	0.000	D	F	1497.1	270.209	0.177	-0.007	1191.215	1303.551	0.030	-	0.059	-0.625	-	-	-	22	2.386	51.479	7.844	PAVEMENT_GENERAL	Urban	F	1011101000011101	0000000000010000	-	car	585.384	32.272	0.000	0.000	180.000	696.000	987.000	-0.000	Terminate	
"Student30Mode3"	"Tanvi_6"	"Feb 16, 2017 11:00:54 AM"	Unknown	91.98518	01/16/0117 11:02.29	00005519	20.542	Inter617t1-2	0.029	1	2	270.000	11.111	-0.3	0.000	0.161	D	F	1370.9	270.223	0.134	0.003	1170.006	1303.636	0.032	-	-0.019	-2.409	-	-	-	22	2.197	45.137	7.758	PAVEMENT_GENERAL	Urban	F	1011101000011101	0000000000010000	-	car	567.676	33.320	0.000	0.000	180.000	696.000	987.000	-0.000	Terminate	
"Student30Mode3"	"Tanvi_6"	"Feb 16, 2017 11:00:54 AM"	Unknown	92.98519	01/16/0117 11:02.30	00005579	18.316	Inter617t1-2	0.096	1	2	270.000	11.111	-1.0	0.000	0.060	D	F	1238.7	270.137	0.176	0.008	1150.729	1303.703	0.031	-	-0.049	-1.369	-	-	-	22	2.211	40.489	10.654	PAVEMENT_GENERAL	Urban	F	1011101000011101	0000000000010000	-	car	551.787	36.774	0.000	0.000	180.000	696.000	987.000	-0.000	Terminate	
"Student30Mode3"	"Tanvi_6"	"Feb 16, 2017 11:00:54 AM"	Unknown	93.98521	01/16/0117 11:02.31	00005639	17.348	Inter617t1-2	0.104	1	2	270.000	11.111	-1.2	0.000	0.107	D	F	1165.9	269.835	0.150	0.012	1132.850	1303.710	0.031	-	-0.095	-1.788	-	-	-	22	2.135	37.037	12.347	PAVEMENT_GENERAL	Urban	F	1011101000011101	0000000000010000	-	car	537.218	38.169	0.000	0.000	180.000	696.000	987.000	-0.000	Terminate	
"Student30Mode3"	"Tanvi_6"	"Feb 16, 2017 11:00:54 AM"	Unknown	94.98523	01/16/0117 11:02.32	00005699	16.028	Inter617t1-2	0.051	1	2	270.000	11.111	1.7	0.000	0.000	D	F	1093.0	269.912	0.185	-0.016	1116.341	1303.658	0.029	-	0.111	-0.545	-	-	-	22	2.170	34.788	18.849	PAVEMENT_GENERAL	Urban	F	1011101000011101	0000000000010000	-	car	523.910	40.878	0.000	0.000	180.000	696.000	987.000	-0.000	Terminate	
"Student30Mode3"	"Tanvi_6"	"Feb 16, 2017 11:00:54 AM"	Unknown	95.98525	01/16/0117 11:02.33	00005759	15.486	Inter617t1-2	0.057	1	2	270.000	11.111	-1.4	0.000	0.000	D	F	1056.1	270.004	0.189	0.011	1100.585	1303.664	0.029	-	-0.075	-0.538	-	-	-	22	2.141	33.148	23.198	PAVEMENT_GENERAL	Urban	F	1111101000011101	0000000000010000	-	car	511.416	41.939	0.000	0.000	180.000	696.000	987.000	-0.000	Terminate	
"Student30Mode3"	"Tanvi_6"	"Feb 16, 2017 11:00:54 AM"	Unknown	96.98528	01/16/0117 11:02.34	00005819	14.951	Inter617t1-2	0.014	1	2	270.000	11.111	-1.0	0.000	0.000	D	F	1019.7	269.652	0.189	0.010	1085.367	1303.621	0.029	-	-0.078	-0.532	-	-	-	22	2.136	31.928	31.330	PAVEMENT_GENERAL	Urban	F	1011101000011101	0000000000010000	-	car	499.493	42.849	0.000	0.000	180.000	696.000	987.000	-0.000	Terminate	
"Student30Mode3"	"Tanvi_6"	"Feb 16, 2017 11:00:54 AM"	Unknown	97.98529	01/16/0117 11:02.35	00005879	14.423	Inter617t1-2	-0.051	1	2	270.000	11.111	5.5	0.000	0.000	D	F	983.6	270.108	0.190	-0.040	1070.681	1303.556	0.029	-	0.297	-0.525	-	-	-	22	2.159	31.140	54.235	PAVEMENT_GENERAL	Urban	F	1011101000011101	0000000000010000	-	car	488.144	44.378	0.000	0.000	180.000	696.000	987.000	-0.000	Terminate	
"Student30Mode3"	"Tanvi_6"	"Feb 16, 2017 11:00:54 AM"	Unknown	98.98531	01/16/0117 11:02.36	00005939	14.157	Inter617t1-2	0.060	1	2	270.000	11.111	-2.1	0.131	0.000	D	F	1484.3	270.446	0.198	0.013	1056.454	1303.667	0.027	-	-0.099	0.067	-	-	-	22	2.231	31.588	-	PAVEMENT_GENERAL	Urban	F	1011101000011101	0000000000010000	-	car	477.437	45.201	0.000	0.000	180.000	696.000	987.000	-0.000	Terminate	
"Student30Mode3"	"Tanvi_6"	"Feb 16, 2017 11:00:54 AM"	Unknown	99.98534	01/16/0117 11:02.37	00005999	14.304	Inter617t1-2	0.119	1	2	270.000	11.111	-0.8	0.160	0.000	D	F	1749.1	270.042	0.201	0.007	1042.241	1303.726	0.025	-	-0.056	0.321	-	-	-	22	2.380	34.040	-	PAVEMENT_GENERAL	Urban	F	1011101000011101	0000000000010000	-	car	466.893	44.268	0.000	0.000	180.000	696.000	987.000	-0.000	Terminate	
"Student30Mode3"	"Tanvi_6"	"Feb 16, 2017 11:00:54 AM"	Unknown	100.98535	01/16/0117 11:02.38	00006059	14.391	Inter617t1-2	0.138	1	2	270.000	11.111	1.3	0.000	0.000	D	F	1412.6	270.223	0.187	-0.011	1027.800	1303.745	0.029	-	0.089	-0.559	-	-	-	-	-	-	-	PAVEMENT_GENERAL	Urban	F	1011101000011101	0000000000010000	-	car	456.354	44.004	0.000	0.000	180.000	696.000	987.000	-0.000	Terminate	
"Student30Mode3"	"Tanvi_6"	"Feb 16, 2017 11:00:54 AM"	Unknown	101.98537	01/16/0117 11:02.39	00006119	11.942	Inter617t1-2	0.195	1	2	270.000	11.111	1.2	0.000	0.337	D	F	1118.4	270.225	0.130	-0.005	1014.165	1303.802	0.039	-	0.024	-4.454	-	-	-	-	-	-	-	PAVEMENT_GENERAL	Urban	F	1011101000011101	0000000000010000	-	car	446.631	52.986	0.000	0.000	180.000	696.000	987.000	-0.000	Terminate	
"Student30Mode3"	"Tanvi_6"	"Feb 16, 2017 11:00:54 AM"	Unknown	102.98539	01/16/0117 11:02.40	00006179	6.918	Inter617t1-2	0.253	1	2	270.000	11.111	1.0	0.000	0.367	D	F	646.5	270.478	0.070	-0.002	1004.691	1303.860	0.039	-	0.021	-4.815	-	-	-	-	-	-	-	PAVEMENT_GENERAL	Urban	F	1011101000011101	0000000000010000	-	car	440.010	91.937	0.000	0.000	180.000	696.000	987.000	-0.000	Terminate	
"Student30Mode3"	"Tanvi_6"	"Feb 16, 2017 11:00:54 AM"	Unknown	103.98541	01/16/0117 11:02.41	00006239	5.452	Inter618t1-0	-0.383	1	2	270.000	24.444	0.9	0.000	0.000	D	F	535.9	270.592	0.197	-0.002	998.874	1303.917	0.028	-	0.009	-0.458	-	-	-	-	-	-	-	PAVEMENT_GENERAL	Urban	F	1011101000011101	0000000000010000	-	car	436.011	117.027	0.000	0.000	180.000	696.000	987.000	-0.000	Terminate	
"Student30Mode3"	"Tanvi_6"	"Feb 16, 2017 11:00:54 AM"	Unknown	104.98544	01/16/0117 11:02.42	00006299	5.985	Inter618t1-0	-0.319	1	2	269.992	24.444	1.0	0.153	0.000	D	F	1521.9	270.687	0.277	-0.029	993.310	1303.981	0.023	-	0.010	1.166	-	-	-	32	2.655	15.889	-	FREEWAY_SMOOTH	Urban	F	1011101000011101	0000000000010000	-	car	432.233	106.937	0.000	0.000	180.000	696.000	987.000	-0.000	Terminate	
"Student30Mode3"	"Tanvi_6"	"Feb 16, 2017 11:00:54 AM"	Unknown	105.98545	01/16/0117 11:02.43	00006359	7.503	Inter618t1-0	-0.228	1	2	269.920	24.444	-1.4	0.254	0.000	D	F	1822.9	270.768	0.274	-0.114	986.606	1304.069	0.027	-	-0.036	1.681	-	-	-	32	2.662	19.973	-	FREEWAY_SMOOTH	Urban	F	1011101000011101	0000000000010000	-	car	427.738	85.633	0.000	0.000	180.000	696.000	987.000	-0.000	Terminate	
"Student30Mode3"	"Tanvi_6"	"Feb 16, 2017 11:00:54 AM"	Unknown	106.98547	01/16/0117 11:02.44	00006419	9.200	Inter618t1-0	-0.140	1	2	269.707	24.444	-1.4	0.321	0.000	D	F	2004.1	270.189	0.277	-0.235	978.248	1304.132	0.035	-	-0.051	1.686	-	-	-	32	2.656	24.432	-	FREEWAY_SMOOTH	Urban	F	1011101000011101	0000000000010000	-	car	422.183	69.279	0.000	0.000	180.000	696.000	987.000	-0.000	Terminate	
"Student30Mode3"	"Tanvi_6"	"Feb 16, 2017 11:00:54 AM"	Unknown	107.98550	01/16/0117 11:02.45	00006479	10.866	Inter618t1-0	-0.057	1	2	269.259	24.444	-4.6	0.369	0.000	D	F	2168.3	269.848	0.275	-0.355	968.205	1304.130	0.046	-	-0.151	1.606	-	-	-	32	2.686	29.189	-	FREEWAY_SMOOTH	Urban	F	1011101000011101	0000000000010000	-	car	415.572	58.541	0.000	0.000	180.000	696.000	987.000	-0.000	Terminate	
"Student30Mode3"	"Tanvi_6"	"Feb 16, 2017 11:00:54 AM"	Unknown	108.98551	01/16/0117 11:02.46	00006539	12.387	Inter618t1-0	0.005	1	2	268.510	24.444	-5.7	0.365	0.000	D	F	2298.7	268.705	0.271	-0.507	956.567	1303.973	0.059	-	-0.264	1.449	-	-	-	32	2.772	34.339	-	FREEWAY_SMOOTH	Urban	F	1011101000011101	0000000000010000	-	car	407.966	50.487	0.000	0.000	180.000	696.000	987.000	-0.000	Terminate	
"Student30Mode3"	"Tanvi_6"	"Feb 16, 2017 11:00:54 AM"	Unknown	109.98553	01/16/0117 11:02.47	00006599	13.790	Inter618t1-0	0.029	1	2	267.332	24.444	-7.6	0.367	0.000	D	F	2471.8	267.531	0.271	-0.674	943.481	1303.533	0.073	-	-0.366	1.382	-	-	-	32	2.876	39.658	-	FREEWAY_SMOOTH	Urban	F	1011101000011101	0000000000010000	-	car	399.436	44.610	0.000	0.000	180.000	696.000	987.000	-0.000	Terminate	
"Student30Mode3"	"Tanvi_6"	"Feb 16, 2017 11:00:54 AM"	Unknown	110.98555	01/16/0117 11:02.48	00006659	15.154	Inter618t1-0	0.045	1	2	265.646	24.444	-6.2	0.369	0.000	D	F	2640.2	265.839	0.270	-0.871	929.032	1302.678	0.088	-	-0.403	1.349	-	-	-	32	2.914	44.162	-	FREEWAY_SMOOTH	Urban	F	1011101000011101	0000000000010000	-	car	390.013	39.552	0.000	0.000	180.000	696.000	987.000	-0.000	Terminate	
"Student30Mode3"	"Tanvi_6"	"Feb 16, 2017 11:00:54 AM"	Unknown	111.98557	01/16/0117 11:02.49	00006719	16.486	Inter618t1-0	0.135	1	2	263.337	24.444	-14.8	0.374	0.000	D	F	2836.1	263.717	0.272	-1.028	913.273	1301.271	0.107	-	-0.858	1.319	-	-	-	32	2.915	48.055	-	FREEWAY_SMOOTH	Urban	F	1011101000011101	0000000000010000	-	car	379.705	35.149	0.000	0.000	180.000	696.000	987.000	-0.000	Terminate	
"Student30Mode3"	"Tanvi_6"	"Feb 16, 2017 11:00:54 AM"	Unknown	112.98560	01/16/0117 11:02.50	00006779	17.772	Inter618t1-0	0.195	1	2	260.289	24.444	-14.5	0.363	0.000	D	F	3017.2	260.417	0.262	-1.250	896.303	1298.921	0.126	-	-1.001	1.263	-	-	-	32	2.865	50.921	-	FREEWAY_SMOOTH	Urban	F	1011101000011101	0000000000010000	-	car	368.337	30.801	0.000	0.000	180.000	696.000	987.000	-0.000	Terminate	
"Student30Mode3"	"Tanvi_6"	"Feb 16, 2017 11:00:54 AM"	Unknown	113.98561	01/16/0117 11:02.51	00006839	18.951	Inter618t1-0	0.214	1	2	256.399	24.444	-19.5	0.330	0.000	D	F	3162.1	256.087	0.242	-1.441	878.298	1295.268	0.147	-	-1.506	1.127	-	-	-	32	2.779	52.667	-	FREEWAY_SMOOTH	Urban	F	1011101000011101	0000000000010000	-	car	355.777	26.779	0.000	0.000	180.000	696.000	987.000	-0.000	Terminate	
"Student30Mode3"	"Tanvi_6"	"Feb 16, 2017 11:00:54 AM"	Unknown	114.98563	01/16/0117 11:02.52	00006899	19.985	Inter618t1-0	0.179	1	2	251.702	24.444	-20.1	0.305	0.000	D	F	2428.6	251.542	0.178	-1.548	859.549	1289.913	0.158	-	-1.615	0.702	-	-	-	32	2.670	53.362	-	FREEWAY_SMOOTH	Urban	F	1011101000011101	0000000000010000	-	car	341.885	23.458	0.000	0.000	180.000	696.000	987.000	-0.000	Terminate	
"Student30Mode3"	"Tanvi_6"	"Feb 16, 2017 11:00:54 AM"	Unknown	115.98566	01/16/0117 11:02.53	00006959	20.433	Inter618t1-0	0.173	1	2	246.770	24.444	-18.5	0.249	0.000	D	F	2300.1	246.297	0.167	-1.524	840.631	1282.765	0.160	-	-1.812	0.410	-	-	-	32	2.600	53.135	167.427	FREEWAY_SMOOTH	Urban	F	1011101000011101	0000000000010000	-	car	326.875	20.956	0.000	0.000	180.000	696.000	987.000	-0.000	Terminate	
"Student30Mode3"	"Tanvi_6"	"Feb 16, 2017 11:00:54 AM"	Unknown	116.98567	01/16/0117 11:02.54	00007019	20.855	Inter618t1-0	0.209	1	2	241.700	24.444	-23.0	0.270	0.000	D	F	2347.1	241.954	0.190	-1.523	822.016	1273.856	0.160	-	-1.758	0.439	-	-	-	32	2.523	52.617	71.238	FREEWAY_SMOOTH	Urban	F	1011101000011101	0000000000010000	-	car	310.956	18.984	0.000	0.000	180.000	696.000	987.000	-0.000	Terminate	
"Student30Mode3"	"Tanvi_6"	"Feb 16, 2017 11:00:54 AM"	Unknown	117.98569	01/16/0117 11:02.55	00007079	21.182	Inter618t1-0	0.200	1	2	236.573	24.444	-21.5	0.160	0.000	D	F	2047.8	235.304	0.123	-1.451	803.944	1263.087	0.162	-	-2.358	0.120	-	-	-	32	2.448	51.859	48.648	FREEWAY_SMOOTH	Urban	F	1011101000011101	0000000000010000	-	car	294.079	16.736	0.000	0.000	180.000	696.000	987.000	-0.000	Terminate	
"Student30Mode3"	"Tanvi_6"	"Feb 16, 2017 11:00:54 AM"	Unknown	118.98571	01/16/0117 11:02.56	00007139	21.155	Inter618t1-0	-0.126	1	2	231.410	24.444	-16.2	0.189	0.000	D	F	1840.0	230.370	0.145	-1.541	787.001	1250.408	0.152	-	-1.668	0.052	-	-	-	32	2.410	50.977	49.043	FREEWAY_SMOOTH	Urban	F	1011101000011101	0000000000010000	-	car	276.325	15.288	0.000	0.000	180.000	696.000	987.000	-0.000	Terminate	
"Student30Mode3"	"Tanvi_6"	"Feb 16, 2017 11:00:54 AM"	Unknown	119.98573	01/16/0117 11:02.57	00007199	21.265	Inter618t1-0	-0.259	1	2	226.210	24.444	-17.2	0.201	0.000	D	F	1874.6	225.909	0.164	-1.535	771.114	1236.366	0.148	-	-1.699	0.130	-	-	-	32	2.347	49.901	43.426	FREEWAY_SMOOTH	Urban	F	1011101000011101	0000000000010000	-	car	258.074	13.895	0.000	0.000	180.000	696.000	987.000	-0.000	Terminate	
"Student30Mode3"	"Tanvi_6"	"Feb 16, 2017 11:00:54 AM"	Unknown	120.98576	01/16/0117 11:02.58	00007259	21.377	Inter618t1-0	-0.184	1	2	221.006	24.444	-19.1	0.201	0.000	D	F	1882.7	220.961	0.173	-1.512	756.336	1221.003	0.150	-	-1.896	0.129	-	-	-	32	2.272	48.578	38.515	FREEWAY_SMOOTH	Urban	F	1011101000011101	0000000000010000	-	car	239.297	12.508	0.000	0.000	180.000	696.000	987.000	-0.000	Terminate	
"Student30Mode3"	"Tanvi_6"	"Feb 16, 2017 11:00:54 AM"	Unknown	121.98577	01/16/0117 11:02.59	00007319	21.482	Inter618t1-0	-0.087	1	2	215.759	24.444	-20.9	0.205	0.000	D	F	1887.4	215.419	0.165	-1.482	742.937	1204.286	0.153	-	-2.107	0.125	-	-	-	32	2.205	47.359	34.682	FREEWAY_SMOOTH	Urban	F	1011101000011101	0000000000010000	-	car	219.938	11.142	0.000	0.000	180.000	696.000	987.000	-0.000	Terminate	
"Student30Mode3"	"Tanvi_6"	"Feb 16, 2017 11:00:54 AM"	Unknown	122.98579	01/16/0117 11:03.00	00007379	21.583	Inter618t1-0	-0.139	1	2	210.491	24.444	-19.6	0.205	0.000	D	F	1894.4	209.564	0.144	-1.479	731.194	1186.246	0.152	-	-2.152	0.128	-	-	-	32	2.134	46.056	31.385	FREEWAY_SMOOTH	Urban	F	1111101000011101	0000000000010000	-	car	199.971	9.832	0.000	0.000	180.000	696.000	987.000	-0.000	Terminate	
"Student30Mode3"	"Tanvi_6"	"Feb 16, 2017 11:00:54 AM"	Unknown	123.98581	01/16/0117 11:03.01	00007439	21.695	Inter618t1-0	-0.302	1	2	205.190	24.444	-17.1	0.206	0.000	D	F	1900.8	204.499	0.153	-1.519	721.211	1167.054	0.147	-	-1.833	0.129	-	-	-	32	2.056	44.596	28.243	FREEWAY_SMOOTH	Urban	F	1011101000011101	0000000000010000	-	car	179.451	8.628	0.000	0.000	180.000	696.000	987.000	-0.000	Terminate	
"Student30Mode3"	"Tanvi_6"	"Feb 16, 2017 11:00:54 AM"	Unknown	124.98583	01/16/0117 11:03.02	00007499	21.806	Inter618t1-0	-0.335	1	2	199.867	24.444	-20.7	0.206	0.000	D	F	1906.2	199.447	0.163	-1.488	712.884	1146.964	0.146	-	-2.055	0.130	-	-	-	32	1.976	43.088	25.496	FREEWAY_SMOOTH	Urban	F	1011101000011101	0000000000010000	-	car	158.493	7.472	0.000	0.000	180.000	696.000	987.000	-0.000	Terminate	
"Student30Mode3"	"Tanvi_6"	"Feb 16, 2017 11:00:54 AM"	Unknown	125.98586	01/16/0117 11:03.03	00007559	21.912	Inter618t1-0	-0.362	1	2	194.540	24.444	-16.9	0.206	0.000	D	F	1912.8	193.984	0.092	-1.467	706.424	1126.089	0.143	-	-1.905	0.120	-	-	-	32	1.881	41.216	22.955	FREEWAY_SMOOTH	Urban	F	1011101000011101	0000000000010000	-	car	137.119	6.349	0.000	0.000	180.000	696.000	987.000	-0.000	Terminate	
"Student30Mode3"	"Tanvi_6"	"Feb 16, 2017 11:00:54 AM"	Unknown	126.98587	01/16/0117 11:03.04	00007619	22.014	Inter618t1-0	-0.337	1	2	189.789	24.444	-18.2	0.208	0.000	D	F	1916.8	189.478	0.114	-1.161	701.779	1104.626	0.122	-	-1.820	0.115	-	-	-	-	-	-	-	FREEWAY_SMOOTH	Urban	F	1011101000011101	0000000000010000	-	car	115.408	5.278	0.000	0.000	180.000	696.000	987.000	-0.000	Terminate	
"Student30Mode3"	"Tanvi_6"	"Feb 16, 2017 11:00:54 AM"	Unknown	127.98589	01/16/0117 11:03.05	00007679	22.117	Inter618t1-0	-0.398	1	2	185.961	24.444	-12.9	0.205	0.000	D	F	1910.0	185.354	0.115	-0.921	698.827	1082.763	0.100	-	-1.333	0.110	-	-	-	-	-	-	-	FREEWAY_SMOOTH	Urban	F	1011101000011101	0000000000010000	-	car	93.446	4.234	0.000	0.000	180.000	696.000	987.000	-0.000	Terminate	
"Student30Mode3"	"Tanvi_6"	"Feb 16, 2017 11:00:54 AM"	Unknown	128.98592	01/16/0117 11:03.06	00007739	21.622	Inter618t1-0	-0.574	1	2	183.086	24.444	-6.5	0.000	0.000	D	F	1474.1	182.032	0.107	-0.650	697.290	1060.888	0.080	-	-1.063	-0.640	-	-	-	-	-	-	-	FREEWAY_SMOOTH	Urban	F	1011101000011101	0000000000010000	-	car	71.540	3.309	0.000	0.000	180.000	696.000	987.000	-0.000	Terminate	
"Student30Mode3"	"Tanvi_6"	"Feb 16, 2017 11:00:54 AM"	Unknown	129.98593	01/16/0117 11:03.07	00007799	18.594	Inter618t1-0	-0.732	1	2	181.236	24.444	-0.7	0.000	0.301	D	F	1216.0	181.426	0.080	-0.490	696.692	1040.381	0.070	-	-0.047	-4.168	-	-	-	-	-	-	-	FREEWAY_SMOOTH	Urban	F	1011101000011101	0000000000010000	-	car	51.026	2.744	0.000	0.000	180.000	696.000	987.000	-0.000	Terminate	
"Student30Mode3"	"Tanvi_6"	"Feb 16, 2017 11:00:54 AM"	Unknown	130.98595	01/16/0117 11:03.08	00007859	13.199	Inter618t1-0	-0.605	1	2	180.371	24.444	-3.0	0.000	0.454	D	F	920.2	180.928	-0.063	-0.245	696.348	1024.366	0.058	-	-0.164	-5.749	-	-	-	-	-	-	-	FREEWAY_SMOOTH	Urban	F	1011101000011101	0000000000010000	-	car	35.039	2.730	0.367	2.000	179.993	696.000	986.969	-0.000	Terminate	
"Student30Mode3"	"Tanvi_6"	"Feb 16, 2017 11:00:54 AM"	Unknown	131.98598	01/16/0117 11:03.09	00007919	7.951	Inter618t1-0	-0.526	1	2	180.080	24.444	-2.3	0.000	0.191	D	F	759.4	180.376	0.116	-0.122	696.231	1013.961	0.046	-	-0.055	-3.221	-	-	-	-	-	-	-	FREEWAY_SMOOTH	Urban	F	1011101000011101	0000000000010000	-	car	25.980	4.648	2.367	2.000	176.761	696.073	985.621	-0.000	Terminate	
"Student30Mode3"	"Tanvi_6"	"Feb 16, 2017 11:00:54 AM"	Unknown	132.98599	01/16/0117 11:03.10	00007979	7.293	Inter618t1-0	-0.526	1	2	180.004	24.444	-11.4	0.000	0.000	D	F	716.7	179.684	0.145	0.010	696.226	1006.422	0.030	-	-0.218	-0.471	-	-	-	-	-	-	-	FREEWAY_SMOOTH	Urban	F	1011101000011101	0000000000010000	-	car	21.786	7.433	4.367	2.000	177.140	696.255	982.276	-0.000	Terminate	
"Student30Mode3"	"Tanvi_6"	"Feb 16, 2017 11:00:54 AM"	Unknown	133.98601	01/16/0117 11:03.11	00008039	6.825	Inter686t1-0	0.038	1	1	180.000	11.111	2.4	0.002	0.000	D	F	671.4	178.784	0.198	-0.009	696.358	999.364	0.028	-	0.055	-0.465	-	-	-	-	-	-	-	PAVEMENT_GENERAL	Urban	F	1011101000011101	0000000000010000	-	car	20.077	43.849	6.367	2.000	179.189	696.381	976.927	-0.000	Terminate	
"Student30Mode3"	"Tanvi_6"	"Feb 16, 2017 11:00:54 AM"	Unknown	134.98604	01/16/0117 11:03.12	00008099	7.271	Inter686t1-0	-0.067	1	1	180.000	11.111	4.7	0.159	0.000	D	F	1457.1	179.321	0.209	-0.014	696.463	992.413	0.022	-	0.084	0.763	-	-	-	car	2.492	18.117	-	PAVEMENT_GENERAL	Urban	F	1011101000011101	0000000000010000	-	car	20.477	-18.673	8.367	2.000	180.010	696.400	969.577	-0.000	Terminate	
"Student30Mode3"	"Tanvi_6"	"Feb 16, 2017 11:00:54 AM"	Unknown	135.98605	01/16/0117 11:03.13	00008159	8.044	Inter686t1-0	-0.141	1	1	180.000	11.111	-4.2	0.180	0.000	D	F	1547.4	179.286	0.210	0.014	696.538	984.762	0.023	-	-0.089	0.830	-	-	-	car	2.463	19.817	-	PAVEMENT_GENERAL	Urban	F	1011101000011101	0000000000010000	-	car	22.176	-9.543	10.367	2.000	180.006	696.397	960.227	-0.000	Terminate	
"Student30Mode3"	"Tanvi_6"	"Feb 16, 2017 11:00:54 AM"	Unknown	136.98607	01/16/0117 11:03.14	00008219	9.059	Inter686t1-0	-0.241	1	1	180.000	11.111	2.4	0.220	0.000	D	F	1864.8	179.559	0.214	-0.005	696.637	976.248	0.021	-	0.064	1.275	-	-	-	car	2.500	22.653	-	PAVEMENT_GENERAL	Urban	F	1011101000011101	0000000000010000	-	car	25.013	-7.561	12.367	2.000	180.003	696.397	948.876	-0.000	Terminate	
"Student30Mode3"	"Tanvi_6"	"Feb 16, 2017 11:00:54 AM"	Unknown	137.98610	01/16/0117 11:03.15	00008279	10.301	Inter686t1-0	-0.304	1	1	180.000	11.111	0.1	0.220	0.000	D	F	1988.9	179.542	0.211	-0.001	696.700	966.556	0.021	-	-0.011	1.174	-	-	-	car	2.554	26.311	-	PAVEMENT_GENERAL	Urban	F	1011101000011101	0000000000010000	-	car	28.672	-7.050	14.367	2.000	180.003	696.397	935.526	-0.000	Terminate	
"Student30Mode3"	"Tanvi_6"	"Feb 16, 2017 11:00:54 AM"	Unknown	138.98611	01/16/0117 11:03.16	00008339	11.396	Inter686t1-0	-0.385	1	1	180.000	11.111	1.4	0.220	0.000	D	F	2077.9	179.622	0.208	-0.005	696.781	955.695	0.022	-	0.040	1.026	-	-	-	car	2.703	30.801	-	PAVEMENT_GENERAL	Urban	F	1011101000011101	0000000000010000	-	car	33.162	-6.670	16.367	2.000	180.002	696.397	920.175	-0.000	Terminate	
"Student30Mode3"	"Tanvi_6"	"Feb 16, 2017 11:00:54 AM"	Unknown	139.98613	01/16/0117 11:03.17	00008399	12.381	Inter686t1-0	-0.417	1	1	180.000	11.111	1.7	0.222	0.000	D	F	2191.5	180.044	0.207	-0.010	696.813	943.802	0.022	-	0.076	0.955	-	-	-	car	2.928	36.252	-	PAVEMENT_GENERAL	Urban	F	1011101000011101	0000000000010000	-	car	38.614	-6.579	18.250	1.000	180.002	696.397	902.831	-0.000	Terminate	
"Student30Mode3"	"Tanvi_6"	"Feb 16, 2017 11:00:54 AM"	Unknown	140.98616	01/16/0117 11:03.18	00008459	13.307	Inter686t1-0	-0.385	1	1	180.000	11.111	-0.8	0.220	0.000	D	F	2296.3	180.196	0.205	0.003	696.781	930.952	0.022	-	-0.014	0.891	-	-	-	car	3.167	42.141	-	PAVEMENT_GENERAL	Urban	F	1011101000011101	0000000000010000	-	car	44.502	-7.574	19.184	0.500	180.002	696.397	884.092	-0.000	Terminate	
"Student30Mode3"	"Tanvi_6"	"Feb 16, 2017 11:00:54 AM"	Unknown	141.98618	01/16/0117 11:03.19	00008519	14.193	Inter686t1-0	-0.369	1	1	180.000	11.111	-3.5	0.222	0.000	D	F	2120.1	179.838	0.207	0.020	696.766	917.204	0.022	-	-0.156	0.870	-	-	-	car	3.369	47.823	-	PAVEMENT_GENERAL	Urban	F	1011101000011101	0000000000010000	-	car	50.183	-9.139	19.684	0.500	180.002	696.397	864.662	-0.000	Terminate	
"Student30Mode3"	"Tanvi_6"	"Feb 16, 2017 11:00:54 AM"	Unknown	142.98619	01/16/0117 11:03.20	00008579	14.877	Inter686t1-0	-0.489	1	1	180.000	11.111	5.8	0.222	0.000	D	F	1941.2	179.370	0.201	-0.027	696.885	902.657	0.023	-	0.148	0.633	-	-	-	car	3.576	53.202	-	PAVEMENT_GENERAL	Urban	F	1011101000011101	0000000000010000	-	car	55.563	-10.601	20.116	0.000	180.002	696.397	844.736	-0.000	Terminate	
"Student30Mode3"	"Tanvi_6"	"Feb 16, 2017 11:00:54 AM"	Unknown	143.98621	01/16/0117 11:03.21	00008639	15.489	Inter686t1-0	-0.488	1	1	180.000	11.111	-1.3	0.222	0.000	D	F	1966.7	180.517	0.200	-0.000	696.884	887.471	0.024	-	0.051	0.593	-	-	-	car	3.753	58.131	-	PAVEMENT_GENERAL	Urban	F	1011101000011101	0000000000010000	-	car	60.493	-13.075	20.116	0.000	180.002	696.397	824.620	-0.000	Terminate	
"Student30Mode3"	"Tanvi_6"	"Feb 16, 2017 11:00:54 AM"	Unknown	144.98624	01/16/0117 11:03.22	00008699	16.063	Inter686t1-0	-0.412	1	1	180.000	11.111	-3.6	0.224	0.000	D	F	1994.8	180.012	0.199	0.025	696.808	871.692	0.024	-	-0.167	0.557	-	-	-	car	3.889	62.469	-	PAVEMENT_GENERAL	Urban	F	1011101000011101	0000000000010000	-	car	64.829	-15.995	20.116	0.000	179.974	696.400	804.504	-0.000	Terminate	
"Student30Mode3"	"Tanvi_6"	"Feb 16, 2017 11:00:54 AM"	Unknown	145.98625	01/16/0117 11:03.23	00008759	16.603	Inter686t1-0	-0.499	1	1	180.000	11.111	-1.0	0.226	0.000	D	F	2022.5	179.386	0.198	0.009	696.895	855.357	0.024	-	-0.093	0.527	-	-	-	car	3.990	66.250	-	PAVEMENT_GENERAL	Urban	F	1011101000011101	0000000000010000	-	car	68.611	-19.518	20.116	0.000	179.995	696.403	784.388	-0.000	Terminate	
"Student30Mode3"	"Tanvi_6"	"Feb 16, 2017 11:00:54 AM"	Unknown	146.98627	01/16/0117 11:03.24	00008819	17.117	Inter686t1-0	-0.665	1	1	180.000	11.111	4.4	0.231	0.000	D	F	2052.9	179.736	0.197	-0.033	697.061	838.496	0.024	-	0.256	0.506	-	-	-	car	4.061	69.505	-	PAVEMENT_GENERAL	Urban	F	1011101000011101	0000000000010000	-	car	71.867	-23.956	20.116	0.000	179.996	696.403	764.273	-0.000	Terminate	
"Student30Mode3"	"Tanvi_6"	"Feb 16, 2017 11:00:54 AM"	Unknown	147.98630	01/16/0117 11:03.25	00008879	17.615	Inter686t1-0	-0.635	1	1	180.000	11.111	1.8	0.238	0.000	D	F	2087.1	180.518	0.196	-0.022	697.031	821.130	0.024	-	0.169	0.497	-	-	-	car	4.102	72.254	-	PAVEMENT_GENERAL	Urban	F	1011101000011101	0000000000010000	-	car	74.616	-29.839	20.116	0.000	179.996	696.403	744.157	-0.000	Terminate	
"Student30Mode3"	"Tanvi_6"	"Feb 16, 2017 11:00:54 AM"	Unknown	148.98631	01/16/0117 11:03.26	00008939	18.119	Inter686t1-0	-0.468	1	1	180.000	11.111	-2.2	0.254	0.000	D	F	2128.8	180.449	0.195	0.016	696.864	803.264	0.024	-	-0.114	0.501	-	-	-	car	4.112	74.504	-	PAVEMENT_GENERAL	Urban	F	1011101000011101	0000000000010000	-	car	76.865	-38.495	20.116	0.000	179.996	696.403	724.041	-0.000	Terminate	
"Student30Mode3"	"Tanvi_6"	"Feb 16, 2017 11:00:54 AM"	Unknown	149.98633	01/16/0117 11:03.27	00008999	18.604	Inter682t1-1	-0.382	1	1	180.000	11.111	-2.3	0.252	0.000	D	F	2165.5	179.964	0.194	0.020	696.786	784.901	0.024	-	-0.157	0.476	-	-	-	car	4.099	76.257	-	PAVEMENT_GENERAL	Urban	F	1011101000011101	0000000000010000	-	car	78.617	-51.982	20.116	0.000	179.996	696.403	703.925	-0.000	Terminate	
"Student30Mode3"	"Tanvi_6"	"Feb 16, 2017 11:00:54 AM"	Unknown	150.98636	01/16/0117 11:03.28	00009059	19.069	Inter682t1-1	-0.457	1	1	180.000	11.111	-1.9	0.250	0.000	D	F	2199.0	179.517	0.193	0.017	696.860	766.062	0.025	-	-0.133	0.455	-	-	-	car	4.066	77.535	-	PAVEMENT_GENERAL	Urban	F	1111101000011101	0000000000010000	-	car	79.895	-76.230	20.116	0.000	179.996	696.403	683.809	-0.000	Terminate	
"Student30Mode3"	"Tanvi_6"	"Feb 16, 2017 11:00:54 AM"	Unknown	151.98637	01/16/0117 11:03.29	00009119	19.520	Inter682t1-1	-0.634	1	1	180.000	11.111	2.7	0.252	0.000	D	F	2234.6	179.531	0.193	-0.017	697.038	746.768	0.025	-	0.123	0.445	-	-	-	car	4.014	78.356	-	PAVEMENT_GENERAL	Urban	F	1011101000011101	0000000000010000	-	car	80.718	-134.965	20.116	0.000	179.996	696.403	663.693	-0.000	Terminate	
"Student30Mode3"	"Tanvi_6"	"Feb 16, 2017 11:00:54 AM"	Unknown	152.98639	01/16/0117 11:03.30	00009179	19.961	Inter682t1-1	-0.691	1	1	180.000	11.111	4.1	0.256	0.000	D	F	2272.3	180.280	0.192	-0.036	697.095	727.027	0.025	-	0.277	0.445	-	-	-	car	3.944	78.731	-	PAVEMENT_GENERAL	Urban	F	1011101000011101	0000000000010000	-	car	81.094	-526.689	20.116	0.000	179.996	696.403	643.577	-0.000	Terminate	
