"Name"	"Project"	"Time"	ZoneName	Time	SystemTime	Frame	Velocity	LaneName	LanePos	LaneIndex	LaneCount	LaneHeading	SpeedLimit	Steer	Accel	Brake	Gear	Horn	SubjectEngineRPM	SubjectHeading	SubjectPitch	SubjectRoll	SubjectX	SubjectY	SubjectZ	Signal	LatAccel	LongAccel	Collision	CollisionAngle	CollisionVelocity	VehAhead	HeadwayTime	HeadwayDist	TTC	TerrainType	CultureType	Slip	DigitalInputs	DigitalInputs2	ActiveTrigger	EntityName	DistToEntity	TimeToEntity	EntityVelocity	EntityAccel	EntityHeading	EntityX	EntityY	EntityZ	GrabData	
"student5mode1"	"Seema_Shokoufeh_Track2"	"Nov 28, 2016 05:45:37 AM"	Unknown	0.98335	10/28/0116 05:45.41	00000059	0.002	Inter625t13-0	-0.088	1	2	0.000	11.111	0.5	0.000	0.000	D	F	0.0	0.000	0.153	-0.000	1503.500	523.206	0.019	-	-0.000	0.000	-	-	-	-	-	-	-	PAVEMENT_GENERAL	Urban	F	1011101000001001	0000000000000000	-	-	-	-	-	-	-	-	-	-	Terminate	
"student5mode1"	"Seema_Shokoufeh_Track2"	"Nov 28, 2016 05:45:37 AM"	Unknown	1.98337	10/28/0116 05:45.42	00000119	0.000	Inter625t13-0	-0.088	1	2	0.000	11.111	0.5	0.030	0.000	D	F	0.0	0.000	0.197	-0.000	1503.500	523.208	0.026	-	0.000	-0.001	-	-	-	-	-	-	-	PAVEMENT_GENERAL	Urban	F	1011101000001001	0000000000000000	-	-	-	-	-	-	-	-	-	-	Terminate	
"student5mode1"	"Seema_Shokoufeh_Track2"	"Nov 28, 2016 05:45:37 AM"	Unknown	2.98339	10/28/0116 05:45.43	00000179	-0.000	Inter625t13-0	-0.088	1	2	0.000	11.111	0.5	0.026	0.000	D	F	0.0	0.000	0.207	-0.000	1503.500	523.208	0.028	-	0.000	-0.000	-	-	-	-	-	-	-	PAVEMENT_GENERAL	Urban	F	1011101000001001	0000000000000000	-	-	-	-	-	-	-	-	-	-	Terminate	
"student5mode1"	"Seema_Shokoufeh_Track2"	"Nov 28, 2016 05:45:37 AM"	Unknown	3.98341	10/28/0116 05:45.44	00000239	-0.000	Inter625t13-0	-0.088	1	2	0.000	11.111	0.5	0.000	0.000	D	F	0.0	0.000	0.210	-0.000	1503.500	523.208	0.028	-	0.000	-0.000	-	-	-	-	-	-	-	PAVEMENT_GENERAL	Urban	F	1011101000001001	0000000000000000	-	-	-	-	-	-	-	-	-	-	Terminate	
"student5mode1"	"Seema_Shokoufeh_Track2"	"Nov 28, 2016 05:45:37 AM"	Unknown	4.98343	10/28/0116 05:45.45	00000299	-0.000	Inter625t13-0	-0.088	1	2	0.000	11.111	0.5	0.000	0.045	D	F	0.0	0.000	0.210	-0.000	1503.500	523.208	0.028	-	0.000	0.000	-	-	-	-	-	-	-	PAVEMENT_GENERAL	Urban	F	1011101000001001	0000000000000000	-	-	-	-	-	-	-	-	-	-	Terminate	
"student5mode1"	"Seema_Shokoufeh_Track2"	"Nov 28, 2016 05:45:37 AM"	Unknown	5.98345	10/28/0116 05:45.46	00000359	-0.000	Inter625t13-0	-0.088	1	2	0.000	11.111	0.5	0.000	0.997	P	F	0.0	0.000	0.209	-0.000	1503.500	523.208	0.028	-	0.000	0.000	-	-	-	-	-	-	-	PAVEMENT_GENERAL	Urban	F	1011101000001001	0000000000000000	-	-	-	-	-	-	-	-	-	-	Terminate	
"student5mode1"	"Seema_Shokoufeh_Track2"	"Nov 28, 2016 05:45:37 AM"	Unknown	6.98347	10/28/0116 05:45.47	00000419	-0.000	Inter625t13-0	-0.088	1	2	0.000	11.111	0.5	0.000	1.000	P	F	0.0	0.000	0.209	-0.000	1503.500	523.208	0.028	-	0.000	0.000	-	-	-	-	-	-	-	PAVEMENT_GENERAL	Urban	F	1011101000001001	0000000000000000	-	-	-	-	-	-	-	-	-	-	Terminate	
"student5mode1"	"Seema_Shokoufeh_Track2"	"Nov 28, 2016 05:45:37 AM"	Unknown	7.98349	10/28/0116 05:45.48	00000479	-0.000	Inter625t13-0	-0.088	1	2	0.000	11.111	0.5	0.000	0.970	P	F	27.8	0.000	0.209	-0.000	1503.500	523.208	0.028	-	0.000	0.000	-	-	-	-	-	-	-	PAVEMENT_GENERAL	Urban	F	1011101000001011	0000000000000000	-	-	-	-	-	-	-	-	-	-	Terminate	
"student5mode1"	"Seema_Shokoufeh_Track2"	"Nov 28, 2016 05:45:37 AM"	Unknown	8.98351	10/28/0116 05:45.49	00000539	-0.000	Inter625t13-0	-0.088	1	2	0.000	11.111	0.4	0.000	0.967	P	F	361.1	0.000	0.209	-0.000	1503.500	523.208	0.028	-	0.000	0.000	-	-	-	-	-	-	-	PAVEMENT_GENERAL	Urban	F	1011101000001001	0000000000000000	-	-	-	-	-	-	-	-	-	-	Terminate	
"student5mode1"	"Seema_Shokoufeh_Track2"	"Nov 28, 2016 05:45:37 AM"	Unknown	9.98353	10/28/0116 05:45.50	00000599	-0.000	Inter625t13-0	-0.088	1	2	0.000	11.111	0.4	0.000	0.958	P	F	477.5	0.000	0.209	-0.000	1503.500	523.208	0.028	-	0.000	0.000	-	-	-	-	-	-	-	PAVEMENT_GENERAL	Urban	F	1111101000001001	0000000000000000	-	-	-	-	-	-	-	-	-	-	Terminate	
"student5mode1"	"Seema_Shokoufeh_Track2"	"Nov 28, 2016 05:45:37 AM"	Unknown	10.98355	10/28/0116 05:45.51	00000659	-0.000	Inter625t13-0	-0.088	1	2	0.000	11.111	0.4	0.000	0.928	N	F	477.5	0.000	0.209	-0.000	1503.500	523.208	0.028	-	0.000	0.000	-	-	-	-	-	-	-	PAVEMENT_GENERAL	Urban	F	1011101000001001	0000000000000000	-	-	-	-	-	-	-	-	-	-	Terminate	
"student5mode1"	"Seema_Shokoufeh_Track2"	"Nov 28, 2016 05:45:37 AM"	Unknown	11.98357	10/28/0116 05:45.52	00000719	-0.000	Inter625t13-0	-0.088	1	2	0.000	11.111	0.5	0.000	0.128	D	F	477.5	0.000	0.209	-0.000	1503.500	523.208	0.028	-	0.000	-0.000	-	-	-	-	-	-	-	PAVEMENT_GENERAL	Urban	F	1011101000001001	0000000000000000	-	-	-	-	-	-	-	-	-	-	Terminate	
"student5mode1"	"Seema_Shokoufeh_Track2"	"Nov 28, 2016 05:45:37 AM"	Unknown	12.98359	10/28/0116 05:45.53	00000779	0.004	Inter625t13-0	-0.088	1	2	0.000	11.111	0.5	0.000	0.000	D	F	477.5	0.000	0.207	-0.000	1503.500	523.208	0.027	-	0.000	0.017	-	-	-	-	-	-	-	PAVEMENT_GENERAL	Urban	F	1011101000001001	0000000000000000	-	-	-	-	-	-	-	-	-	-	Terminate	
"student5mode1"	"Seema_Shokoufeh_Track2"	"Nov 28, 2016 05:45:37 AM"	Unknown	13.98361	10/28/0116 05:45.54	00000839	0.757	Inter625t13-0	-0.088	1	2	0.000	11.111	0.5	0.081	0.000	D	F	1114.7	0.002	0.239	-0.000	1503.500	523.387	0.017	-	0.001	2.127	-	-	-	-	-	-	-	PAVEMENT_GENERAL	Urban	F	1011101000001001	0000000000000000	-	-	-	-	-	-	-	-	-	-	Terminate	
"student5mode1"	"Seema_Shokoufeh_Track2"	"Nov 28, 2016 05:45:37 AM"	Unknown	14.98363	10/28/0116 05:45.55	00000899	2.789	Inter625t13-0	-0.087	1	2	0.000	11.111	0.5	0.097	0.000	D	F	1311.0	0.020	0.218	-0.000	1503.501	525.189	0.017	-	0.002	1.800	-	-	-	-	-	-	-	PAVEMENT_GENERAL	Urban	F	1011101000001001	0000000000000000	-	-	-	-	-	-	-	-	-	-	Terminate	
"student5mode1"	"Seema_Shokoufeh_Track2"	"Nov 28, 2016 05:45:37 AM"	Unknown	15.98365	10/28/0116 05:45.56	00000959	4.453	Inter625t13-0	-0.084	1	2	0.000	11.111	0.4	0.132	0.000	D	F	1586.7	0.052	0.218	-0.000	1503.504	528.827	0.019	-	0.004	1.541	-	-	-	-	-	-	-	PAVEMENT_GENERAL	Urban	F	1011101000001001	0000000000000000	-	-	-	-	-	-	-	-	-	-	Terminate	
"student5mode1"	"Seema_Shokoufeh_Track2"	"Nov 28, 2016 05:45:37 AM"	Unknown	16.98367	10/28/0116 05:45.57	00001019	5.783	Inter625t49-0	-0.078	1	1	0.005	11.111	-0.1	0.143	0.000	D	F	1667.8	0.065	0.222	0.002	1503.510	533.965	0.020	-	-0.003	1.389	-	-	-	-	-	-	-	PAVEMENT_GENERAL	Urban	F	1011101000001001	0000000000000000	-	-	-	-	-	-	-	-	-	-	Terminate	
"student5mode1"	"Seema_Shokoufeh_Track2"	"Nov 28, 2016 05:45:37 AM"	Unknown	17.98369	10/28/0116 05:45.58	00001079	6.923	Inter625t49-0	-0.072	1	1	0.006	11.111	-1.6	0.157	0.000	D	F	1589.1	0.014	0.214	0.007	1503.516	540.346	0.021	-	-0.030	1.069	-	-	-	-	-	-	-	PAVEMENT_GENERAL	Urban	F	1011101000001001	0000000000000000	-	-	-	-	-	-	-	-	-	-	Terminate	
"student5mode1"	"Seema_Shokoufeh_Track2"	"Nov 28, 2016 05:45:37 AM"	Unknown	18.98371	10/28/0116 05:45.59	00001139	7.942	Inter625t49-0	-0.073	1	1	0.008	11.111	0.5	0.166	0.000	D	F	1677.7	0.062	0.212	0.001	1503.517	547.788	0.022	-	0.007	0.990	-	-	-	-	-	-	-	PAVEMENT_GENERAL	Urban	F	1011101000001001	0000000000000000	-	-	-	-	-	-	-	-	-	-	Terminate	
"student5mode1"	"Seema_Shokoufeh_Track2"	"Nov 28, 2016 05:45:37 AM"	Unknown	19.98373	10/28/0116 05:46.00	00001199	8.916	Inter625t49-0	-0.059	1	1	0.007	11.111	0.2	0.173	0.000	D	F	1764.5	0.123	0.210	-0.001	1503.531	556.224	0.022	-	0.006	0.932	-	-	-	-	-	-	-	PAVEMENT_GENERAL	Urban	F	1011101000001001	0000000000000000	-	-	-	-	-	-	-	-	-	-	Terminate	
"student5mode1"	"Seema_Shokoufeh_Track2"	"Nov 28, 2016 05:45:37 AM"	Unknown	20.98375	10/28/0116 05:46.01	00001259	9.802	Inter625t49-0	-0.046	1	1	0.005	11.111	-0.8	0.182	0.000	D	F	1845.8	0.040	0.209	0.003	1503.546	565.588	0.022	-	-0.024	0.867	-	-	-	-	-	-	-	PAVEMENT_GENERAL	Urban	F	1011101000001001	0000000000000000	-	-	-	-	-	-	-	-	-	-	Terminate	
"student5mode1"	"Seema_Shokoufeh_Track2"	"Nov 28, 2016 05:45:37 AM"	Unknown	21.98377	10/28/0116 05:46.02	00001319	10.618	Inter625t49-0	-0.046	1	1	0.005	11.111	0.5	0.183	0.000	D	F	1920.0	0.012	0.207	-0.002	1503.546	575.805	0.023	-	0.016	0.777	-	-	-	-	-	-	-	PAVEMENT_GENERAL	Urban	F	1011101000001001	0000000000000000	-	-	-	-	-	-	-	-	-	-	Terminate	
"student5mode1"	"Seema_Shokoufeh_Track2"	"Nov 28, 2016 05:45:37 AM"	Unknown	22.98379	10/28/0116 05:46.03	00001379	11.391	Inter625t15-0	-0.037	1	2	0.000	11.111	-0.1	0.185	0.000	D	F	2015.8	0.068	0.206	0.000	1503.557	586.812	0.023	-	-0.001	0.762	-	-	-	-	-	-	-	PAVEMENT_GENERAL	Urban	F	1011101000001001	0000000000000000	-	-	-	-	-	-	-	-	-	-	Terminate	
"student5mode1"	"Seema_Shokoufeh_Track2"	"Nov 28, 2016 05:45:37 AM"	Unknown	23.98381	10/28/0116 05:46.04	00001439	12.148	Inter625t15-0	-0.026	1	2	0.000	11.111	0.2	0.192	0.000	D	F	2109.2	0.039	0.205	0.000	1503.568	598.582	0.023	-	0.001	0.747	-	-	-	-	-	-	-	PAVEMENT_GENERAL	Urban	F	1011101000001001	0000000000000000	-	-	-	-	-	-	-	-	-	-	Terminate	
"student5mode1"	"Seema_Shokoufeh_Track2"	"Nov 28, 2016 05:45:37 AM"	Unknown	24.98383	10/28/0116 05:46.05	00001499	12.916	Inter614t1-0	-0.016	1	2	0.000	11.111	-0.3	0.201	0.000	D	F	1966.8	0.025	0.207	0.002	1503.577	611.108	0.023	-	-0.015	0.776	-	-	-	12	17.653	228.011	-	PAVEMENT_GENERAL	Urban	F	1011101000001001	0000000000000000	-	-	-	-	-	-	-	-	-	-	Terminate	
"student5mode1"	"Seema_Shokoufeh_Track2"	"Nov 28, 2016 05:45:37 AM"	Unknown	25.98385	10/28/0116 05:46.06	00001559	13.567	Inter614t1-0	-0.017	1	2	0.000	11.111	-0.2	0.203	0.000	D	F	1832.0	0.000	0.202	0.001	1503.576	624.361	0.024	-	-0.011	0.606	-	-	-	12	17.205	233.424	-	PAVEMENT_GENERAL	Urban	F	1011101000001001	0000000000000000	-	-	-	-	-	-	-	-	-	-	Terminate	
"student5mode1"	"Seema_Shokoufeh_Track2"	"Nov 28, 2016 05:45:37 AM"	Unknown	26.98387	10/28/0116 05:46.07	00001619	14.137	Inter614t1-0	-0.032	1	2	0.000	11.111	-0.5	0.194	0.000	D	F	1837.5	359.888	0.201	0.004	1503.562	638.220	0.024	-	-0.028	0.525	-	-	-	12	16.984	240.105	-	PAVEMENT_GENERAL	Urban	F	1011101000001001	0000000000000000	-	-	-	-	-	-	-	-	-	-	Terminate	
"student5mode1"	"Seema_Shokoufeh_Track2"	"Nov 28, 2016 05:45:37 AM"	Unknown	27.98389	10/28/0116 05:46.08	00001679	14.566	Inter614t1-0	-0.074	1	2	0.000	11.111	-0.5	0.175	0.000	D	F	1798.2	359.767	0.199	0.004	1503.520	652.592	0.025	-	-0.029	0.343	-	-	-	-	-	-	-	PAVEMENT_GENERAL	Urban	F	1011101000001001	0000000000000000	-	-	-	-	-	-	-	-	-	-	Terminate	
"student5mode1"	"Seema_Shokoufeh_Track2"	"Nov 28, 2016 05:45:37 AM"	Unknown	28.98391	10/28/0116 05:46.09	00001739	14.943	Inter614t1-0	-0.147	1	2	0.000	11.111	-0.5	0.175	0.000	D	F	1819.2	359.655	0.198	0.004	1503.446	667.349	0.025	-	-0.029	0.352	-	-	-	-	-	-	-	PAVEMENT_GENERAL	Urban	F	1011101000001001	0000000000000000	-	-	-	-	-	-	-	-	-	-	Terminate	
"student5mode1"	"Seema_Shokoufeh_Track2"	"Nov 28, 2016 05:45:37 AM"	Unknown	29.98393	10/28/0116 05:46.10	00001799	15.274	Inter614t1-0	-0.251	1	2	0.000	11.111	-0.6	0.169	0.000	D	F	1817.5	359.541	0.197	0.005	1503.342	682.463	0.025	-	-0.033	0.290	-	-	-	-	-	-	-	PAVEMENT_GENERAL	Urban	F	1011101000001001	0000000000000000	-	-	-	-	-	-	-	-	-	-	Terminate	
"student5mode1"	"Seema_Shokoufeh_Track2"	"Nov 28, 2016 05:45:37 AM"	Unknown	30.98395	10/28/0116 05:46.11	00001859	15.528	Inter614t1-0	-0.361	1	2	0.000	11.111	1.5	0.153	0.000	D	F	1800.7	359.741	0.196	-0.011	1503.232	697.875	0.026	-	0.089	0.191	-	-	-	-	-	-	-	PAVEMENT_GENERAL	Urban	F	1011101000001001	0000000000000000	-	-	-	-	-	-	-	-	-	-	Terminate	
"student5mode1"	"Seema_Shokoufeh_Track2"	"Nov 28, 2016 05:45:37 AM"	Unknown	31.98397	10/28/0116 05:46.12	00001919	15.743	Inter614t1-0	-0.400	1	2	0.000	11.111	0.2	0.160	0.000	D	F	1828.4	0.000	0.196	-0.003	1503.193	713.509	0.026	-	0.028	0.221	-	-	-	-	-	-	-	PAVEMENT_GENERAL	Urban	F	1011101000001001	0000000000000000	-	-	-	-	-	-	-	-	-	-	Terminate	
"student5mode1"	"Seema_Shokoufeh_Track2"	"Nov 28, 2016 05:45:37 AM"	Unknown	32.98399	10/28/0116 05:46.13	00001979	15.962	Inter614t1-0	-0.406	1	2	0.000	11.111	0.5	0.157	0.000	D	F	1838.6	0.000	0.195	-0.003	1503.187	729.365	0.026	-	0.018	0.199	-	-	-	-	-	-	-	PAVEMENT_GENERAL	Urban	F	1011101000001001	0000000000000000	-	-	-	-	-	-	-	-	-	-	Terminate	
"student5mode1"	"Seema_Shokoufeh_Track2"	"Nov 28, 2016 05:45:37 AM"	Unknown	33.98401	10/28/0116 05:46.14	00002039	16.142	Inter614t1-0	-0.396	1	2	0.000	11.111	0.4	0.152	0.000	D	F	1843.6	0.081	0.195	-0.003	1503.197	745.420	0.026	-	0.021	0.168	-	-	-	-	-	-	-	PAVEMENT_GENERAL	Urban	F	1011101000001001	0000000000000000	-	-	-	-	-	-	-	-	-	-	Terminate	
"student5mode1"	"Seema_Shokoufeh_Track2"	"Nov 28, 2016 05:45:37 AM"	Unknown	34.98403	10/28/0116 05:46.15	00002099	15.834	Inter614t1-0	-0.363	1	2	0.000	11.111	0.4	0.069	0.000	D	F	1684.1	0.168	0.198	-0.003	1503.230	761.465	0.029	-	0.027	-0.239	-	-	-	-	-	-	-	PAVEMENT_GENERAL	Urban	F	1011101000001001	0000000000000000	-	-	-	-	-	-	-	-	-	-	Terminate	
"student5mode1"	"Seema_Shokoufeh_Track2"	"Nov 28, 2016 05:45:37 AM"	Unknown	35.98405	10/28/0116 05:46.16	00002159	15.688	Inter614t1-0	-0.308	1	2	0.000	11.111	0.4	0.106	0.000	D	F	1722.4	0.241	0.194	-0.003	1503.285	777.211	0.027	-	0.020	-0.039	-	-	-	-	-	-	-	PAVEMENT_GENERAL	Urban	F	1011101000001001	0000000000000000	-	-	-	-	-	-	-	-	-	-	Terminate	
"student5mode1"	"Seema_Shokoufeh_Track2"	"Nov 28, 2016 05:45:37 AM"	Unknown	36.98407	10/28/0116 05:46.17	00002219	15.641	Inter614t1-0	-0.235	1	2	0.000	11.111	-0.5	0.092	0.000	D	F	1699.5	0.277	0.191	0.003	1503.358	792.881	0.027	-	-0.014	-0.104	-	-	-	-	-	-	-	PAVEMENT_GENERAL	Urban	F	1011101000001001	0000000000000000	-	-	-	-	-	-	-	-	-	-	Terminate	
"student5mode1"	"Seema_Shokoufeh_Track2"	"Nov 28, 2016 05:45:37 AM"	Unknown	37.98409	10/28/0116 05:46.18	00002279	15.559	Inter612t1-0	-0.170	1	2	0.000	11.111	-0.3	0.093	0.000	D	F	1693.7	0.202	0.193	0.002	1503.423	808.481	0.027	-	-0.018	-0.079	-	-	-	-	-	-	-	PAVEMENT_GENERAL	Urban	F	1011101000001001	0000000000000000	-	-	-	-	-	-	-	-	-	-	Terminate	
"student5mode1"	"Seema_Shokoufeh_Track2"	"Nov 28, 2016 05:45:37 AM"	Unknown	38.98411	10/28/0116 05:46.19	00002339	15.476	Inter612t1-0	-0.124	1	2	0.000	11.111	-0.3	0.093	0.000	D	F	1686.5	0.136	0.193	0.002	1503.470	823.999	0.027	-	-0.018	-0.082	-	-	-	-	-	-	-	PAVEMENT_GENERAL	Urban	F	1011101000001001	0000000000000000	-	-	-	-	-	-	-	-	-	-	Terminate	
"student5mode1"	"Seema_Shokoufeh_Track2"	"Nov 28, 2016 05:45:37 AM"	Unknown	39.98413	10/28/0116 05:46.20	00002399	15.399	Inter612t1-0	-0.096	1	2	0.000	11.111	-0.3	0.093	0.000	D	F	1681.9	0.062	0.194	0.002	1503.497	839.435	0.027	-	-0.017	-0.072	-	-	-	-	-	-	-	PAVEMENT_GENERAL	Urban	F	1011101000001001	0000000000000000	-	-	-	-	-	-	-	-	-	-	Terminate	
"student5mode1"	"Seema_Shokoufeh_Track2"	"Nov 28, 2016 05:45:37 AM"	Unknown	40.98415	10/28/0116 05:46.21	00002459	15.394	Inter612t1-0	-0.084	1	2	0.000	11.111	-0.0	0.132	0.000	D	F	1757.3	0.030	0.198	0.000	1503.509	854.814	0.026	-	-0.003	0.130	-	-	-	-	-	-	-	PAVEMENT_GENERAL	Urban	F	1011101000001001	0000000000000000	-	-	-	-	-	-	-	-	-	-	Terminate	
"student5mode1"	"Seema_Shokoufeh_Track2"	"Nov 28, 2016 05:45:37 AM"	Unknown	41.98417	10/28/0116 05:46.22	00002519	15.496	Inter612t1-0	-0.076	1	2	0.000	11.111	0.0	0.134	0.000	D	F	1758.0	0.029	0.196	-0.000	1503.517	870.260	0.026	-	0.000	0.104	-	-	-	-	-	-	-	PAVEMENT_GENERAL	Urban	F	1011101000001001	0000000000000000	-	-	-	-	-	-	-	-	-	-	Terminate	
"student5mode1"	"Seema_Shokoufeh_Track2"	"Nov 28, 2016 05:45:37 AM"	Unknown	42.98419	10/28/0116 05:46.23	00002579	15.642	Inter612t1-0	-0.065	1	2	0.000	11.111	-0.2	0.146	0.000	D	F	1803.3	0.051	0.196	0.000	1503.528	885.818	0.026	-	-0.002	0.187	-	-	-	-	-	-	-	PAVEMENT_GENERAL	Urban	F	1011101000001001	0000000000000000	-	-	-	-	-	-	-	-	-	-	Terminate	
"student5mode1"	"Seema_Shokoufeh_Track2"	"Nov 28, 2016 05:45:37 AM"	Unknown	43.98421	10/28/0116 05:46.24	00002639	15.827	Inter612t1-0	-0.060	1	2	0.000	11.111	-0.3	0.160	0.000	D	F	1833.8	0.000	0.196	0.002	1503.534	901.550	0.026	-	-0.018	0.218	-	-	-	-	-	-	-	PAVEMENT_GENERAL	Urban	F	1011101000001001	0000000000000000	-	-	-	-	-	-	-	-	-	-	Terminate	
"student5mode1"	"Seema_Shokoufeh_Track2"	"Nov 28, 2016 05:45:37 AM"	Unknown	44.98423	10/28/0116 05:46.25	00002699	15.981	Inter612t1-0	-0.067	1	2	0.000	11.111	0.1	0.153	0.000	D	F	1831.5	0.000	0.196	-0.001	1503.526	917.460	0.026	-	0.005	0.163	-	-	-	-	-	-	-	PAVEMENT_GENERAL	Urban	F	1011101000001001	0000000000000000	-	-	-	-	-	-	-	-	-	-	Terminate	
"student5mode1"	"Seema_Shokoufeh_Track2"	"Nov 28, 2016 05:45:37 AM"	Unknown	45.98425	10/28/0116 05:46.26	00002759	16.140	Inter612t1-0	-0.072	1	2	0.000	11.111	-0.1	0.148	0.000	D	F	1835.4	0.000	0.195	0.001	1503.521	933.526	0.026	-	-0.005	0.142	-	-	-	-	-	-	-	PAVEMENT_GENERAL	Urban	F	1011101000001001	0000000000000000	-	-	-	-	-	-	-	-	-	-	Terminate	
"student5mode1"	"Seema_Shokoufeh_Track2"	"Nov 28, 2016 05:45:37 AM"	Unknown	46.98427	10/28/0116 05:46.27	00002819	16.269	Inter612t1-0	-0.082	1	2	0.000	11.111	-0.2	0.132	0.000	D	F	1811.5	359.946	0.193	0.001	1503.511	949.737	0.026	-	-0.010	0.078	-	-	-	-	-	-	-	PAVEMENT_GENERAL	Urban	F	1011101000001001	0000000000000000	-	-	-	-	-	-	-	-	-	-	Terminate	
"student5mode1"	"Seema_Shokoufeh_Track2"	"Nov 28, 2016 05:45:37 AM"	Unknown	47.98429	10/28/0116 05:46.28	00002879	16.313	Inter612t1-0	-0.102	1	2	0.000	11.111	-0.3	0.118	0.000	D	F	1790.9	359.905	0.193	0.002	1503.491	966.036	0.027	-	-0.015	0.003	-	-	-	-	-	-	-	PAVEMENT_GENERAL	Urban	F	1011101000001001	0000000000000000	-	-	-	-	-	-	-	-	-	-	Terminate	
"student5mode1"	"Seema_Shokoufeh_Track2"	"Nov 28, 2016 05:45:37 AM"	Unknown	48.98431	10/28/0116 05:46.29	00002939	16.300	Inter612t1-0	-0.135	1	2	0.000	11.111	-0.3	0.111	0.000	D	F	1782.6	359.853	0.193	0.002	1503.458	982.345	0.027	-	-0.016	-0.022	-	-	-	-	-	-	-	PAVEMENT_GENERAL	Urban	F	1011101000001001	0000000000000000	-	-	-	-	-	-	-	-	-	-	Terminate	
"student5mode1"	"Seema_Shokoufeh_Track2"	"Nov 28, 2016 05:45:37 AM"	Unknown	49.98433	10/28/0116 05:46.30	00002999	16.271	Inter612t1-0	-0.183	1	2	0.000	11.111	-0.2	0.108	0.000	D	F	1774.9	359.820	0.193	0.001	1503.411	998.632	0.027	-	-0.008	-0.035	-	-	-	-	-	-	-	PAVEMENT_GENERAL	Urban	F	1011101000001001	0000000000000000	-	-	-	-	-	-	-	-	-	-	Terminate	
"student5mode1"	"Seema_Shokoufeh_Track2"	"Nov 28, 2016 05:45:37 AM"	Unknown	50.98435	10/28/0116 05:46.31	00003059	16.206	Inter613t1-0	-0.240	1	2	0.000	11.111	-0.2	0.102	0.000	D	F	1761.9	359.763	0.193	0.003	1503.353	1014.875	0.027	-	-0.017	-0.072	-	-	-	-	-	-	-	PAVEMENT_GENERAL	Urban	F	1011101000001001	0000000000000000	-	-	-	-	-	-	-	-	-	-	Terminate	
"student5mode1"	"Seema_Shokoufeh_Track2"	"Nov 28, 2016 05:45:37 AM"	Unknown	51.98437	10/28/0116 05:46.32	00003119	16.142	Inter613t1-0	-0.299	1	2	0.000	11.111	0.2	0.104	0.000	D	F	1755.6	359.838	0.193	-0.002	1503.294	1031.048	0.027	-	0.018	-0.063	-	-	-	-	-	-	-	PAVEMENT_GENERAL	Urban	F	1011101000001001	0000000000000000	-	-	-	-	-	-	-	-	-	-	Terminate	
"student5mode1"	"Seema_Shokoufeh_Track2"	"Nov 28, 2016 05:45:37 AM"	Unknown	52.98439	10/28/0116 05:46.33	00003179	16.085	Inter613t1-0	-0.340	1	2	0.000	11.111	0.1	0.109	0.000	D	F	1761.7	359.860	0.193	0.001	1503.253	1047.159	0.027	-	0.000	-0.038	-	-	-	-	-	-	-	PAVEMENT_GENERAL	Urban	F	1011101000001001	0000000000000000	-	-	-	-	-	-	-	-	-	-	Terminate	
"student5mode1"	"Seema_Shokoufeh_Track2"	"Nov 28, 2016 05:45:37 AM"	Unknown	53.98441	10/28/0116 05:46.34	00003239	16.082	Inter613t1-0	-0.353	1	2	0.000	11.111	1.1	0.125	0.000	D	F	1787.7	0.098	0.195	-0.008	1503.240	1063.239	0.026	-	0.065	0.050	-	-	-	-	-	-	-	PAVEMENT_GENERAL	Urban	F	1011101000001001	0000000000000000	-	-	-	-	-	-	-	-	-	-	Terminate	
"student5mode1"	"Seema_Shokoufeh_Track2"	"Nov 28, 2016 05:45:37 AM"	Unknown	54.98443	10/28/0116 05:46.35	00003299	16.144	Inter613t1-0	-0.307	1	2	0.000	11.111	0.2	0.131	0.000	D	F	1796.6	0.214	0.194	-0.001	1503.286	1079.352	0.026	-	0.014	0.068	-	-	-	-	-	-	-	PAVEMENT_GENERAL	Urban	F	1011101000001001	0000000000000000	-	-	-	-	-	-	-	-	-	-	Terminate	
"student5mode1"	"Seema_Shokoufeh_Track2"	"Nov 28, 2016 05:45:37 AM"	Unknown	55.98445	10/28/0116 05:46.36	00003359	16.219	Inter613t1-0	-0.241	1	2	0.000	11.111	0.1	0.134	0.000	D	F	1812.2	0.255	0.194	-0.001	1503.352	1095.532	0.026	-	0.009	0.083	-	-	-	-	-	-	-	PAVEMENT_GENERAL	Urban	F	1011101000001001	0000000000000000	-	-	-	-	-	-	-	-	-	-	Terminate	
"student5mode1"	"Seema_Shokoufeh_Track2"	"Nov 28, 2016 05:45:37 AM"	Unknown	56.98447	10/28/0116 05:46.37	00003419	16.320	Inter613t1-0	-0.168	1	2	0.000	11.111	-0.0	0.148	0.000	D	F	1843.9	0.244	0.194	0.001	1503.425	1111.798	0.026	-	-0.010	0.122	-	-	-	-	-	-	-	PAVEMENT_GENERAL	Urban	F	1011101000001001	0000000000000000	-	-	-	-	-	-	-	-	-	-	Terminate	
"student5mode1"	"Seema_Shokoufeh_Track2"	"Nov 28, 2016 05:45:37 AM"	Unknown	57.98449	10/28/0116 05:46.38	00003479	16.475	Inter613t1-0	-0.097	1	2	0.000	11.111	0.2	0.152	0.000	D	F	1867.5	0.257	0.195	-0.001	1503.496	1128.193	0.026	-	0.009	0.163	-	-	-	-	-	-	-	PAVEMENT_GENERAL	Urban	F	1011101000001001	0000000000000000	-	-	-	-	-	-	-	-	-	-	Terminate	
"student5mode1"	"Seema_Shokoufeh_Track2"	"Nov 28, 2016 05:45:37 AM"	Unknown	58.98451	10/28/0116 05:46.39	00003539	16.635	Inter613t1-0	-0.022	1	2	0.000	11.111	-0.0	0.152	0.000	D	F	1878.0	0.264	0.194	0.000	1503.572	1144.748	0.026	-	-0.001	0.154	-	-	-	-	-	-	-	PAVEMENT_GENERAL	Urban	F	1011101000001001	0000000000000000	-	-	-	-	-	-	-	-	-	-	Terminate	
"student5mode1"	"Seema_Shokoufeh_Track2"	"Nov 28, 2016 05:45:37 AM"	Unknown	59.98453	10/28/0116 05:46.40	00003599	16.782	Inter613t1-0	0.057	1	2	0.000	11.111	-0.2	0.146	0.000	D	F	1883.6	0.273	0.194	0.001	1503.650	1161.457	0.026	-	-0.006	0.139	-	-	-	-	-	-	-	PAVEMENT_GENERAL	Urban	F	1011101000001001	0000000000000000	-	-	-	-	-	-	-	-	-	-	Terminate	
"student5mode1"	"Seema_Shokoufeh_Track2"	"Nov 28, 2016 05:45:37 AM"	Unknown	60.98455	10/28/0116 05:46.41	00003659	16.915	Inter613t1-0	0.132	1	2	0.000	11.111	-0.2	0.146	0.000	D	F	1890.9	0.225	0.194	0.002	1503.725	1178.307	0.026	-	-0.014	0.128	-	-	-	-	-	-	-	PAVEMENT_GENERAL	Urban	F	1011101000001001	0000000000000000	-	-	-	-	-	-	-	-	-	-	Terminate	
"student5mode1"	"Seema_Shokoufeh_Track2"	"Nov 28, 2016 05:45:37 AM"	Unknown	61.98457	10/28/0116 05:46.42	00003719	17.036	Inter613t1-0	0.196	1	2	0.000	11.111	0.0	0.148	0.000	D	F	1895.2	0.224	0.193	-0.001	1503.790	1195.283	0.026	-	0.004	0.115	-	-	-	-	-	-	-	PAVEMENT_GENERAL	Urban	F	1011101000001001	0000000000000000	-	-	-	-	-	-	-	-	-	-	Terminate	
"student5mode1"	"Seema_Shokoufeh_Track2"	"Nov 28, 2016 05:45:37 AM"	Unknown	62.98459	10/28/0116 05:46.43	00003779	17.112	Inter746t1-0	0.259	1	2	0.000	11.111	-0.3	0.134	0.000	D	F	1879.7	0.182	0.192	0.002	1503.852	1212.364	0.026	-	-0.017	0.048	-	-	-	-	-	-	-	PAVEMENT_GENERAL	Urban	F	1011101000001001	0000000000000000	-	-	-	-	-	-	-	-	-	-	Terminate	
"student5mode1"	"Seema_Shokoufeh_Track2"	"Nov 28, 2016 05:45:37 AM"	Unknown	63.98461	10/28/0116 05:46.44	00003839	17.151	Inter746t1-0	0.306	1	2	0.000	11.111	-0.3	0.139	0.000	D	F	1891.3	0.127	0.193	0.002	1503.899	1229.497	0.026	-	-0.017	0.062	-	-	-	-	-	-	-	PAVEMENT_GENERAL	Urban	F	1011101000001001	0000000000000000	-	-	-	-	-	-	-	-	-	-	Terminate	
"student5mode1"	"Seema_Shokoufeh_Track2"	"Nov 28, 2016 05:45:37 AM"	Unknown	64.98463	10/28/0116 05:46.45	00003899	17.205	Inter746t1-0	0.336	1	2	0.000	11.111	-0.3	0.129	0.000	D	F	1881.8	0.068	0.192	0.002	1503.929	1246.680	0.026	-	-0.018	0.031	-	-	-	-	-	-	-	PAVEMENT_GENERAL	Urban	F	1011101000001001	0000000000000000	-	-	-	-	-	-	-	-	-	-	Terminate	
"student5mode1"	"Seema_Shokoufeh_Track2"	"Nov 28, 2016 05:45:37 AM"	Unknown	65.98465	10/28/0116 05:46.46	00003959	17.075	Inter746t1-0	0.348	1	2	0.000	11.111	-0.4	0.081	0.000	D	F	1799.8	0.000	0.190	0.003	1503.942	1263.837	0.027	-	-0.023	-0.183	-	-	-	-	-	-	-	PAVEMENT_GENERAL	Urban	F	1011101000001001	0000000000000000	-	-	-	-	-	-	-	-	-	-	Terminate	
"student5mode1"	"Seema_Shokoufeh_Track2"	"Nov 28, 2016 05:45:37 AM"	Unknown	66.98467	10/28/0116 05:46.47	00004019	16.851	Inter746t1-0	0.339	1	2	0.000	11.111	-0.2	0.078	0.000	D	F	1768.6	359.933	0.190	0.001	1503.932	1280.799	0.028	-	-0.014	-0.217	-	-	-	-	-	-	-	PAVEMENT_GENERAL	Urban	F	1011101000001001	0000000000000000	-	-	-	-	-	-	-	-	-	-	Terminate	
"student5mode1"	"Seema_Shokoufeh_Track2"	"Nov 28, 2016 05:45:37 AM"	Unknown	67.98470	10/28/0116 05:46.48	00004079	16.705	Inter746t1-0	0.315	1	2	0.000	11.111	-0.8	0.093	0.000	D	F	1790.8	359.882	0.191	0.005	1503.908	1297.568	0.027	-	-0.035	-0.123	-	-	-	-	-	-	-	PAVEMENT_GENERAL	Urban	F	1111101000001001	0000000000000000	-	-	-	-	-	-	-	-	-	-	Terminate	
"student5mode1"	"Seema_Shokoufeh_Track2"	"Nov 28, 2016 05:45:37 AM"	Unknown	68.98471	10/28/0116 05:46.49	00004139	16.580	Inter746t1-0	0.259	1	2	0.000	11.111	-2.0	0.092	0.000	D	F	1777.1	359.715	0.191	0.010	1503.852	1314.212	0.027	L	-0.081	-0.128	-	-	-	-	-	-	-	PAVEMENT_GENERAL	Urban	F	1011101000101001	0000000000000000	-	-	-	-	-	-	-	-	-	-	Terminate	
"student5mode1"	"Seema_Shokoufeh_Track2"	"Nov 28, 2016 05:45:37 AM"	Unknown	69.98473	10/28/0116 05:46.50	00004199	16.444	Inter746t1-0	0.155	1	2	0.000	11.111	0.5	0.085	0.000	D	F	1755.9	359.665	0.191	-0.005	1503.748	1330.726	0.027	L	0.036	-0.145	-	-	-	-	-	-	-	PAVEMENT_GENERAL	Urban	F	1011101000101001	0000000000000000	-	-	-	-	-	-	-	-	-	-	Terminate	
"student5mode1"	"Seema_Shokoufeh_Track2"	"Nov 28, 2016 05:45:37 AM"	Unknown	70.98476	10/28/0116 05:46.51	00004259	16.272	Inter746t1-0	0.066	1	2	0.000	11.111	-0.4	0.079	0.000	D	F	1724.9	359.685	0.191	0.002	1503.660	1347.087	0.027	L	-0.017	-0.187	-	-	-	-	-	-	-	PAVEMENT_GENERAL	Urban	F	1011101000101001	0000000000000000	-	-	-	-	-	-	-	-	-	-	Terminate	
"student5mode1"	"Seema_Shokoufeh_Track2"	"Nov 28, 2016 05:45:37 AM"	Unknown	71.98477	10/28/0116 05:46.52	00004319	16.011	Inter746t1-0	-0.039	1	2	0.000	11.111	-2.6	0.000	0.000	D	F	1571.9	359.484	0.177	0.018	1503.554	1363.254	0.028	L	-0.133	-0.597	-	-	-	-	-	-	-	PAVEMENT_GENERAL	Urban	F	1011101000101001	0000000000000000	-	-	-	-	-	-	-	-	-	-	Terminate	
"student5mode1"	"Seema_Shokoufeh_Track2"	"Nov 28, 2016 05:45:37 AM"	Unknown	72.98479	10/28/0116 05:46.53	00004379	15.423	Inter746t1-0	-0.291	1	2	0.000	11.111	-3.1	0.000	0.000	D	F	1514.7	358.567	0.188	0.029	1503.302	1378.968	0.029	L	-0.233	-0.583	-	-	-	-	-	-	-	PAVEMENT_GENERAL	Urban	F	1011101000101001	0000000000000000	-	-	-	-	-	-	-	-	-	-	Terminate	
"student5mode1"	"Seema_Shokoufeh_Track2"	"Nov 28, 2016 05:45:37 AM"	Unknown	73.98481	10/28/0116 05:46.54	00004439	14.845	Inter746t1-0	-0.763	1	2	0.000	11.111	-1.6	0.000	0.000	D	F	1457.9	357.809	0.189	0.016	1502.830	1394.094	0.029	L	-0.144	-0.573	-	-	-	-	-	-	-	PAVEMENT_GENERAL	Urban	F	1011101000101001	0000000000000000	-	-	-	-	-	-	-	-	-	-	Terminate	
"student5mode1"	"Seema_Shokoufeh_Track2"	"Nov 28, 2016 05:45:37 AM"	Unknown	74.98483	10/28/0116 05:46.55	00004499	14.500	Inter749t9-0	-1.371	1	2	0.000	11.111	-1.9	0.076	0.000	D	F	1575.3	357.402	0.193	0.012	1502.222	1408.700	0.027	L	-0.093	-0.143	-	-	-	-	-	-	-	PAVEMENT_GENERAL	Urban	F	1011101000101001	0000000000000000	-	-	-	-	-	-	-	-	-	-	Terminate	
"student5mode1"	"Seema_Shokoufeh_Track2"	"Nov 28, 2016 05:45:37 AM"	Unknown	75.98486	10/28/0116 05:46.56	00004559	14.281	Inter749t31-0	-1.718	1	1	355.901	11.111	0.1	0.005	0.000	D	F	1402.9	357.150	0.182	0.002	1501.531	1423.110	0.028	L	-0.012	-0.528	-	-	-	12	5.256	75.063	14.351	PAVEMENT_GENERAL	Urban	F	1011101000101001	0000000000000000	-	-	-	-	-	-	-	-	-	-	Terminate	
"student5mode1"	"Seema_Shokoufeh_Track2"	"Nov 28, 2016 05:45:37 AM"	Unknown	76.98487	10/28/0116 05:46.57	00004619	13.727	Inter749t31-0	-1.469	1	1	354.807	11.111	3.9	0.002	0.000	D	F	1348.5	357.493	0.190	-0.024	1500.861	1437.099	0.029	L	0.182	-0.553	-	-	-	12	5.126	70.363	17.293	PAVEMENT_GENERAL	Urban	F	1011101000101001	0000000000000000	-	-	-	-	-	-	-	-	-	-	Terminate	
"student5mode1"	"Seema_Shokoufeh_Track2"	"Nov 28, 2016 05:45:37 AM"	Unknown	77.98489	10/28/0116 05:46.58	00004679	12.656	Inter749t31-0	-0.612	1	1	356.888	11.111	2.5	0.002	0.155	D	F	1216.2	358.364	0.139	-0.017	1500.379	1450.455	0.032	L	0.142	-2.450	-	-	-	12	5.382	68.114	63.483	PAVEMENT_GENERAL	Urban	F	1011101000101001	0000000000000000	-	-	-	-	-	-	-	-	-	-	Terminate	
"student5mode1"	"Seema_Shokoufeh_Track2"	"Nov 28, 2016 05:45:37 AM"	Unknown	78.98492	10/28/0116 05:46.59	00004739	9.550	Inter749t31-0	-0.266	1	1	356.903	11.111	1.9	0.000	0.269	D	F	904.4	358.984	0.133	-0.009	1500.111	1461.698	0.036	L	0.082	-3.758	-	-	-	12	7.274	69.468	-	PAVEMENT_GENERAL	Urban	F	1011101000101001	0000000000000000	-	-	-	-	-	-	-	-	-	-	Terminate	
"student5mode1"	"Seema_Shokoufeh_Track2"	"Nov 28, 2016 05:45:37 AM"	Unknown	79.98493	10/28/0116 05:47.00	00004799	5.770	Inter749t11-0	-0.062	LT1	2	0.000	11.111	3.1	0.000	0.251	D	F	548.5	359.325	0.148	-0.005	1500.001	1469.342	0.036	L	0.038	-3.578	-	-	-	12	13.241	76.396	-	PAVEMENT_GENERAL	Urban	F	1011101000101001	0000000000000000	-	-	-	-	-	-	-	-	-	-	Terminate	
"student5mode1"	"Seema_Shokoufeh_Track2"	"Nov 28, 2016 05:45:37 AM"	Unknown	80.98495	10/28/0116 05:47.01	00004859	2.914	Inter749t11-0	-0.098	LT1	2	0.000	11.111	-0.4	0.000	0.185	D	F	477.5	359.545	0.164	0.006	1499.964	1473.640	0.033	L	-0.016	-2.684	-	-	-	12	30.423	88.666	-	PAVEMENT_GENERAL	Urban	F	1011101000101001	0000000000000000	-	-	-	-	-	-	-	-	-	-	Terminate	
"student5mode1"	"Seema_Shokoufeh_Track2"	"Nov 28, 2016 05:45:37 AM"	Unknown	81.98497	10/28/0116 05:47.02	00004919	0.822	Inter749t11-0	-0.113	LT1	2	0.000	11.111	-0.5	0.000	0.131	D	F	477.5	359.525	0.188	0.001	1499.949	1475.407	0.031	L	-0.000	-1.559	-	-	-	12	128.244	105.467	-	PAVEMENT_GENERAL	Urban	F	1011101000101001	0000000000000000	-	-	-	-	-	-	-	-	-	-	Terminate	
"student5mode1"	"Seema_Shokoufeh_Track2"	"Nov 28, 2016 05:45:37 AM"	Unknown	82.98499	10/28/0116 05:47.03	00004979	0.044	Inter749t11-0	-0.116	LT1	2	0.000	11.111	-0.3	0.000	0.125	D	F	477.5	359.522	0.220	0.000	1499.947	1475.722	0.029	L	-0.000	-0.196	-	-	-	12	2860.083	125.551	-	PAVEMENT_GENERAL	Urban	F	1011101000101001	0000000000000000	-	-	-	-	-	-	-	-	-	-	Terminate	
"student5mode1"	"Seema_Shokoufeh_Track2"	"Nov 28, 2016 05:45:37 AM"	Unknown	83.98502	10/28/0116 05:47.04	00005039	0.000	Inter749t11-0	-0.116	LT1	2	0.000	11.111	1.2	0.000	0.134	D	F	477.5	359.522	0.213	-0.000	1499.946	1475.731	0.028	L	0.000	-0.002	-	-	-	12	-	146.925	-	PAVEMENT_GENERAL	Urban	F	1011101000101001	0000000000000000	-	-	-	-	-	-	-	-	-	-	Terminate	
"student5mode1"	"Seema_Shokoufeh_Track2"	"Nov 28, 2016 05:45:37 AM"	Unknown	84.98503	10/28/0116 05:47.05	00005099	-0.000	Inter749t11-0	-0.116	LT1	2	0.000	11.111	2.3	0.000	0.179	D	F	477.5	359.522	0.210	-0.000	1499.946	1475.731	0.028	L	0.000	0.000	-	-	-	12	-	168.847	-	PAVEMENT_GENERAL	Urban	F	1011101000101001	0000000000000000	-	-	-	-	-	-	-	-	-	-	Terminate	
"student5mode1"	"Seema_Shokoufeh_Track2"	"Nov 28, 2016 05:45:37 AM"	Unknown	85.98505	10/28/0116 05:47.06	00005159	-0.000	Inter749t11-0	-0.116	LT1	2	0.000	11.111	1.2	0.000	0.167	D	F	477.5	359.522	0.209	-0.000	1499.946	1475.731	0.028	L	0.000	0.000	-	-	-	12	-	191.167	-	PAVEMENT_GENERAL	Urban	F	1011101000101001	0000000000000000	-	-	-	-	-	-	-	-	-	-	Terminate	
"student5mode1"	"Seema_Shokoufeh_Track2"	"Nov 28, 2016 05:45:37 AM"	Unknown	86.98507	10/28/0116 05:47.07	00005219	-0.000	Inter749t11-0	-0.116	LT1	2	0.000	11.111	0.7	0.002	0.167	D	F	477.5	359.522	0.209	-0.000	1499.946	1475.731	0.028	L	0.000	0.000	-	-	-	12	-	213.521	-	PAVEMENT_GENERAL	Urban	F	1011101000101001	0000000000000000	-	-	-	-	-	-	-	-	-	-	Terminate	
"student5mode1"	"Seema_Shokoufeh_Track2"	"Nov 28, 2016 05:45:37 AM"	Unknown	87.98509	10/28/0116 05:47.08	00005279	-0.000	Inter749t11-0	-0.116	LT1	2	0.000	11.111	0.4	0.000	0.164	D	F	477.5	359.522	0.209	-0.000	1499.946	1475.731	0.028	L	-0.000	0.000	-	-	-	Ambient248	-	34.545	-	PAVEMENT_GENERAL	Urban	F	1011101000101001	0000000000000000	-	-	-	-	-	-	-	-	-	-	Terminate	
"student5mode1"	"Seema_Shokoufeh_Track2"	"Nov 28, 2016 05:45:37 AM"	Unknown	88.98512	10/28/0116 05:47.09	00005339	-0.000	Inter749t11-0	-0.116	LT1	2	0.000	11.111	0.1	0.000	0.164	D	F	477.5	359.522	0.209	-0.000	1499.946	1475.731	0.028	L	0.000	0.000	-	-	-	Ambient248	-	45.216	-	PAVEMENT_GENERAL	Urban	F	1011101000101001	0000000000000000	-	-	-	-	-	-	-	-	-	-	Terminate	
"student5mode1"	"Seema_Shokoufeh_Track2"	"Nov 28, 2016 05:45:37 AM"	Unknown	89.98513	10/28/0116 05:47.10	00005399	-0.000	Inter749t11-0	-0.116	LT1	2	0.000	11.111	-0.0	0.000	0.161	D	F	477.5	359.522	0.209	0.000	1499.946	1475.731	0.028	L	-0.000	0.000	-	-	-	Ambient248	-	56.027	-	PAVEMENT_GENERAL	Urban	F	1011101000101001	0000000000000000	-	-	-	-	-	-	-	-	-	-	Terminate	
"student5mode1"	"Seema_Shokoufeh_Track2"	"Nov 28, 2016 05:45:37 AM"	Unknown	90.98515	10/28/0116 05:47.11	00005459	-0.000	Inter749t11-0	-0.116	LT1	2	0.000	11.111	0.1	0.000	0.164	D	F	477.5	359.522	0.209	-0.000	1499.946	1475.731	0.028	L	-0.000	0.000	-	-	-	Ambient248	-	66.838	-	PAVEMENT_GENERAL	Urban	F	1011101000101001	0000000000000000	-	-	-	-	-	-	-	-	-	-	Terminate	
"student5mode1"	"Seema_Shokoufeh_Track2"	"Nov 28, 2016 05:45:37 AM"	Unknown	91.98518	10/28/0116 05:47.12	00005519	0.000	Inter749t11-0	-0.116	LT1	2	0.000	11.111	-0.0	0.000	0.164	D	F	477.5	359.522	0.209	-0.000	1499.946	1475.731	0.028	L	-0.000	0.000	-	-	-	Ambient248	-	77.648	-	PAVEMENT_GENERAL	Urban	F	1011101000101001	0000000000000000	-	-	-	-	-	-	-	-	-	-	Terminate	
"student5mode1"	"Seema_Shokoufeh_Track2"	"Nov 28, 2016 05:45:37 AM"	Unknown	92.98519	10/28/0116 05:47.13	00005579	0.000	Inter749t11-0	-0.116	LT1	2	0.000	11.111	-0.0	0.000	0.164	D	F	477.5	359.522	0.209	-0.000	1499.946	1475.731	0.028	L	-0.000	0.000	-	-	-	Ambient248	-	88.459	-	PAVEMENT_GENERAL	Urban	F	1011101000101001	0000000000000000	-	-	-	-	-	-	-	-	-	-	Terminate	
"student5mode1"	"Seema_Shokoufeh_Track2"	"Nov 28, 2016 05:45:37 AM"	Unknown	93.98521	10/28/0116 05:47.14	00005639	0.000	Inter749t11-0	-0.116	LT1	2	0.000	11.111	-0.0	0.002	0.164	D	F	477.5	359.522	0.209	-0.000	1499.946	1475.731	0.028	L	0.000	-0.000	-	-	-	Ambient248	-	99.269	-	PAVEMENT_GENERAL	Urban	F	1011101000101001	0000000000000000	-	-	-	-	-	-	-	-	-	-	Terminate	
"student5mode1"	"Seema_Shokoufeh_Track2"	"Nov 28, 2016 05:45:37 AM"	Unknown	94.98523	10/28/0116 05:47.15	00005699	0.000	Inter749t11-0	-0.116	LT1	2	0.000	11.111	-0.3	0.002	0.164	D	F	477.5	359.522	0.209	0.000	1499.946	1475.731	0.028	L	0.000	-0.000	-	-	-	Ambient248	-	110.080	-	PAVEMENT_GENERAL	Urban	F	1011101000101001	0000000000000000	-	-	-	-	-	-	-	-	-	-	Terminate	
"student5mode1"	"Seema_Shokoufeh_Track2"	"Nov 28, 2016 05:45:37 AM"	Unknown	95.98525	10/28/0116 05:47.16	00005759	0.000	Inter749t11-0	-0.116	LT1	2	0.000	11.111	-0.5	0.002	0.164	D	F	477.5	359.522	0.209	-0.000	1499.946	1475.731	0.028	L	0.000	-0.000	-	-	-	Ambient248	-	120.894	-	PAVEMENT_GENERAL	Urban	F	1011101000101001	0000000000000000	-	-	-	-	-	-	-	-	-	-	Terminate	
"student5mode1"	"Seema_Shokoufeh_Track2"	"Nov 28, 2016 05:45:37 AM"	Unknown	96.98528	10/28/0116 05:47.17	00005819	0.000	Inter749t11-0	-0.116	LT1	2	0.000	11.111	-0.6	0.000	0.164	D	F	477.5	359.522	0.209	-0.000	1499.946	1475.731	0.028	L	-0.000	0.000	-	-	-	-	-	-	-	PAVEMENT_GENERAL	Urban	F	1011101000101001	0000000000000000	-	-	-	-	-	-	-	-	-	-	Terminate	
"student5mode1"	"Seema_Shokoufeh_Track2"	"Nov 28, 2016 05:45:37 AM"	Unknown	97.98529	10/28/0116 05:47.18	00005879	0.000	Inter749t11-0	-0.116	LT1	2	0.000	11.111	-0.3	0.000	0.164	D	F	477.5	359.522	0.209	-0.000	1499.946	1475.731	0.028	L	-0.000	-0.000	-	-	-	-	-	-	-	PAVEMENT_GENERAL	Urban	F	1011101000101001	0000000000000000	-	-	-	-	-	-	-	-	-	-	Terminate	
"student5mode1"	"Seema_Shokoufeh_Track2"	"Nov 28, 2016 05:45:37 AM"	Unknown	98.98531	10/28/0116 05:47.19	00005939	0.000	Inter749t11-0	-0.116	LT1	2	0.000	11.111	-1.5	0.002	0.161	D	F	477.5	359.522	0.209	-0.000	1499.946	1475.731	0.028	L	0.000	-0.000	-	-	-	-	-	-	-	PAVEMENT_GENERAL	Urban	F	1011101000101001	0000000000000000	-	-	-	-	-	-	-	-	-	-	Terminate	
"student5mode1"	"Seema_Shokoufeh_Track2"	"Nov 28, 2016 05:45:37 AM"	Unknown	99.98534	10/28/0116 05:47.20	00005999	0.000	Inter749t11-0	-0.116	LT1	2	0.000	11.111	-1.4	0.000	0.152	D	F	477.5	359.522	0.209	-0.000	1499.946	1475.731	0.028	L	-0.000	0.000	-	-	-	-	-	-	-	PAVEMENT_GENERAL	Urban	F	1011101000101001	0000000000000000	-	-	-	-	-	-	-	-	-	-	Terminate	
"student5mode1"	"Seema_Shokoufeh_Track2"	"Nov 28, 2016 05:45:37 AM"	Unknown	100.98535	10/28/0116 05:47.21	00006059	0.000	Inter749t11-0	-0.116	LT1	2	0.000	11.111	-1.5	0.000	0.158	D	F	477.5	359.522	0.209	-0.000	1499.946	1475.731	0.028	L	-0.000	-0.000	-	-	-	-	-	-	-	PAVEMENT_GENERAL	Urban	F	1011101000101001	0000000000000000	-	-	-	-	-	-	-	-	-	-	Terminate	
"student5mode1"	"Seema_Shokoufeh_Track2"	"Nov 28, 2016 05:45:37 AM"	Unknown	101.98537	10/28/0116 05:47.22	00006119	0.000	Inter749t11-0	-0.116	LT1	2	0.000	11.111	-1.2	0.000	0.069	D	F	477.5	359.522	0.209	-0.000	1499.946	1475.731	0.028	L	-0.000	0.000	-	-	-	-	-	-	-	PAVEMENT_GENERAL	Urban	F	1011101000101001	0000000000000000	-	-	-	-	-	-	-	-	-	-	Terminate	
"student5mode1"	"Seema_Shokoufeh_Track2"	"Nov 28, 2016 05:45:37 AM"	Unknown	102.98539	10/28/0116 05:47.23	00006179	0.005	Inter749t11-0	-0.116	LT1	2	0.000	11.111	-1.0	0.000	0.000	D	F	477.5	359.522	0.207	0.000	1499.946	1475.732	0.027	L	-0.000	0.018	-	-	-	-	-	-	-	PAVEMENT_GENERAL	Urban	F	1011101000101001	0000000000000000	-	-	-	-	-	-	-	-	-	-	Terminate	
"student5mode1"	"Seema_Shokoufeh_Track2"	"Nov 28, 2016 05:45:37 AM"	Unknown	103.98541	10/28/0116 05:47.24	00006239	0.027	Inter749t11-0	-0.116	LT1	2	0.000	11.111	-1.1	0.021	0.000	D	F	482.9	359.521	0.197	-0.000	1499.946	1475.745	0.024	L	-0.000	0.068	-	-	-	-	-	-	-	PAVEMENT_GENERAL	Urban	F	1011101000101001	0000000000000000	-	-	-	-	-	-	-	-	-	-	Terminate	
"student5mode1"	"Seema_Shokoufeh_Track2"	"Nov 28, 2016 05:45:37 AM"	Unknown	104.98544	10/28/0116 05:47.25	00006299	0.658	Inter749t11-0	-0.118	LT1	2	0.000	11.111	-1.1	0.044	0.000	D	F	830.0	359.515	0.212	0.000	1499.944	1476.002	0.022	L	-0.001	0.912	-	-	-	-	-	-	-	PAVEMENT_GENERAL	Urban	F	1011101000101001	0000000000000000	-	-	-	-	-	-	-	-	-	-	Terminate	
"student5mode1"	"Seema_Shokoufeh_Track2"	"Nov 28, 2016 05:45:37 AM"	Unknown	105.98545	10/28/0116 05:47.26	00006359	1.856	Inter749t11-0	-0.130	LT1	2	0.000	11.111	-1.2	0.058	0.000	D	F	1035.1	359.485	0.214	0.000	1499.932	1477.222	0.020	L	-0.002	1.261	-	-	-	-	-	-	-	PAVEMENT_GENERAL	Urban	F	1011101000101001	0000000000000000	-	-	-	-	-	-	-	-	-	-	Terminate	
"student5mode1"	"Seema_Shokoufeh_Track2"	"Nov 28, 2016 05:45:37 AM"	Unknown	106.98547	10/28/0116 05:47.27	00006419	3.183	Inter749t11-0	-0.153	LT1	2	0.000	11.111	4.1	0.076	0.000	D	F	1280.2	359.483	0.215	-0.009	1499.909	1479.721	0.020	L	0.043	1.323	-	-	-	-	-	-	-	PAVEMENT_GENERAL	Urban	F	1011101000101001	0000000000000000	-	-	-	-	-	-	-	-	-	-	Terminate	
"student5mode1"	"Seema_Shokoufeh_Track2"	"Nov 28, 2016 05:45:37 AM"	Unknown	107.98550	10/28/0116 05:47.28	00006479	3.103	Inter749t65-0	-0.115	1	1	354.344	11.111	1.4	0.000	0.000	D	F	490.8	359.753	0.196	0.001	1499.895	1482.987	0.028	L	-0.006	-0.446	-	-	-	-	-	-	-	PAVEMENT_GENERAL	Urban	F	1011101000101001	0000000000000000	-	-	-	-	-	-	-	-	-	-	Terminate	
"student5mode1"	"Seema_Shokoufeh_Track2"	"Nov 28, 2016 05:45:37 AM"	Unknown	108.98551	10/28/0116 05:47.29	00006539	2.629	Inter749t65-0	0.324	1	1	345.975	11.111	-1.0	0.000	0.048	D	F	477.5	359.786	0.181	0.001	1499.885	1485.876	0.028	L	-0.011	-0.888	-	-	-	-	-	-	-	PAVEMENT_GENERAL	Urban	F	1011101000101001	0000000000000000	-	-	-	-	-	-	-	-	-	-	Terminate	
"student5mode1"	"Seema_Shokoufeh_Track2"	"Nov 28, 2016 05:45:37 AM"	Unknown	109.98553	10/28/0116 05:47.30	00006599	1.223	Inter749t65-0	0.831	1	1	341.377	11.111	-1.9	0.000	0.101	D	F	477.5	359.703	0.186	0.000	1499.874	1487.826	0.030	L	-0.002	-1.352	-	-	-	-	-	-	-	PAVEMENT_GENERAL	Urban	F	1011101000101001	0000000000000000	-	-	-	-	-	-	-	-	-	-	Terminate	
"student5mode1"	"Seema_Shokoufeh_Track2"	"Nov 28, 2016 05:45:37 AM"	Unknown	110.98555	10/28/0116 05:47.31	00006659	0.690	Inter749t65-0	1.085	1	1	339.625	11.111	-2.4	0.000	0.000	D	F	477.5	359.666	0.211	0.000	1499.869	1488.642	0.028	L	-0.000	-0.013	-	-	-	-	-	-	-	PAVEMENT_GENERAL	Urban	F	1011101000101001	0000000000000000	-	-	-	-	-	-	-	-	-	-	Terminate	
"student5mode1"	"Seema_Shokoufeh_Track2"	"Nov 28, 2016 05:45:37 AM"	Unknown	111.98557	10/28/0116 05:47.32	00006719	0.676	Inter749t65-0	1.317	1	1	338.200	11.111	-3.5	0.000	0.000	D	F	477.5	359.627	0.202	0.000	1499.863	1489.324	0.026	L	-0.001	-0.012	-	-	-	-	-	-	-	PAVEMENT_GENERAL	Urban	F	1011101000101001	0000000000000000	-	-	-	-	-	-	-	-	-	-	Terminate	
"student5mode1"	"Seema_Shokoufeh_Track2"	"Nov 28, 2016 05:45:37 AM"	Unknown	112.98560	10/28/0116 05:47.33	00006779	0.678	Inter749t65-0	1.558	1	1	336.903	11.111	-23.8	0.018	0.000	D	F	550.9	359.525	0.208	0.006	1499.856	1489.996	0.026	L	-0.026	0.112	-	-	-	-	-	-	-	PAVEMENT_GENERAL	Urban	F	1011101000101001	0000000000000000	-	-	-	-	-	-	-	-	-	-	Terminate	
"student5mode1"	"Seema_Shokoufeh_Track2"	"Nov 28, 2016 05:45:37 AM"	Unknown	113.98561	10/28/0116 05:47.34	00006839	0.676	-Inter749t73-0	0.102	-1	1	217.178	11.111	-11.4	0.000	0.000	D	F	477.5	359.312	0.204	0.001	1499.843	1490.677	0.026	-	-0.003	-0.011	-	-	-	24	244.465	165.225	244.465	PAVEMENT_GENERAL	Urban	F	1011101000001001	0000000000000000	-	-	-	-	-	-	-	-	-	-	Terminate	
"student5mode1"	"Seema_Shokoufeh_Track2"	"Nov 28, 2016 05:45:37 AM"	Unknown	114.98563	10/28/0116 05:47.36	00006899	0.666	-Inter749t61-0	1.467	-1	1	89.733	11.111	-12.8	0.000	0.000	D	F	477.5	359.144	0.204	0.000	1499.829	1491.348	0.026	-	-0.001	-0.009	-	-	-	-	-	-	-	PAVEMENT_GENERAL	Urban	F	1011101000001001	0000000000000000	-	-	-	-	-	-	-	-	-	-	Terminate	
"student5mode1"	"Seema_Shokoufeh_Track2"	"Nov 28, 2016 05:45:37 AM"	Unknown	115.98566	10/28/0116 05:47.37	00006959	0.658	-Inter749t61-0	0.806	-1	1	89.733	11.111	-20.9	0.000	0.003	D	F	477.5	358.922	0.204	0.002	1499.812	1492.010	0.026	-	-0.005	-0.007	-	-	-	-	-	-	-	PAVEMENT_GENERAL	Urban	F	1011101000001001	0000000000000000	-	-	-	-	-	-	-	-	-	-	Terminate	
"student5mode1"	"Seema_Shokoufeh_Track2"	"Nov 28, 2016 05:45:37 AM"	Unknown	116.98567	10/28/0116 05:47.38	00007019	0.313	-Inter749t61-0	0.271	-1	1	89.733	11.111	-25.1	0.000	0.093	D	F	477.5	358.678	0.192	-0.001	1499.794	1492.545	0.027	-	0.008	-0.523	-	-	-	Ambient273	48.068	15.027	-	PAVEMENT_GENERAL	Urban	F	1011101000001001	0000000000000000	-	-	-	-	-	-	-	-	-	-	Terminate	
"student5mode1"	"Seema_Shokoufeh_Track2"	"Nov 28, 2016 05:45:37 AM"	Unknown	117.98569	10/28/0116 05:47.39	00007079	0.129	-Inter749t61-0	0.095	-1	1	89.733	11.111	-60.9	0.000	0.048	D	F	477.5	358.539	0.207	0.000	1499.786	1492.721	0.027	-	-0.002	-0.027	-	-	-	Ambient273	194.598	25.174	-	PAVEMENT_GENERAL	Urban	F	1111101000001001	0000000000000000	-	-	-	-	-	-	-	-	-	-	Terminate	
"student5mode1"	"Seema_Shokoufeh_Track2"	"Nov 28, 2016 05:45:37 AM"	Unknown	118.98571	10/28/0116 05:47.40	00007139	0.296	-Inter749t61-0	-0.102	-1	1	89.733	11.111	-107.8	0.000	0.000	D	F	477.5	358.196	0.206	0.005	1499.771	1492.918	0.026	-	-0.027	0.186	-	-	-	Ambient273	119.032	35.239	-	PAVEMENT_GENERAL	Urban	F	1011101000001001	0000000000000000	-	-	-	-	-	-	-	-	-	-	Terminate	
"student5mode1"	"Seema_Shokoufeh_Track2"	"Nov 28, 2016 05:45:37 AM"	Unknown	119.98573	10/28/0116 05:47.41	00007199	1.419	-Inter749t61-0	-0.695	-1	1	89.733	11.111	-139.8	0.095	0.000	D	F	1224.1	356.682	0.238	0.042	1499.703	1493.510	0.019	-	-0.389	2.506	-	-	-	Ambient273	32.163	45.644	-	PAVEMENT_GENERAL	Urban	F	1011101000001001	0000000000000000	-	-	-	-	-	-	-	-	-	-	Terminate	
"student5mode1"	"Seema_Shokoufeh_Track2"	"Nov 28, 2016 05:45:37 AM"	Unknown	120.98576	10/28/0116 05:47.42	00007259	3.765	-Inter749t59-0	0.370	-1	1	89.733	11.111	-280.2	0.152	0.000	D	F	1575.0	344.227	0.203	0.266	1498.972	1496.042	0.016	-	-1.854	1.903	-	-	-	-	-	-	-	PAVEMENT_GENERAL	Urban	F	1011101000001001	0000000000000000	-	-	-	-	-	-	-	-	-	-	Terminate	
"student5mode1"	"Seema_Shokoufeh_Track2"	"Nov 28, 2016 05:45:37 AM"	Unknown	121.98577	10/28/0116 05:47.43	00007319	5.432	-Inter749t83-0	0.364	-1	1	179.883	11.111	-287.2	0.145	0.000	D	F	1795.6	315.583	0.177	0.410	1496.062	1499.680	0.021	-	-3.026	0.940	-	-	-	24	31.933	173.462	31.933	PAVEMENT_GENERAL	Urban	F	1011101000001001	0000000000000000	-	-	-	-	-	-	-	-	-	-	Terminate	
"student5mode1"	"Seema_Shokoufeh_Track2"	"Nov 28, 2016 05:45:37 AM"	Unknown	122.98579	10/28/0116 05:47.44	00007379	6.617	Inter749t75-0	-1.588	1	1	269.734	11.111	-203.3	0.146	0.000	D	F	1550.1	283.880	0.174	0.376	1490.483	1501.984	0.023	-	-2.918	0.740	-	-	-	-	-	-	-	PAVEMENT_GENERAL	Urban	F	1011101000001001	0000000000000000	-	-	-	-	-	-	-	-	-	-	Terminate	
"student5mode1"	"Seema_Shokoufeh_Track2"	"Nov 28, 2016 05:45:37 AM"	Unknown	123.98581	10/28/0116 05:47.45	00007439	7.732	Inter749t75-0	-1.287	1	1	269.734	11.111	-6.8	0.185	0.000	D	F	1712.7	269.910	0.216	0.006	1483.325	1502.251	0.021	-	-0.073	1.209	-	-	-	-	-	-	-	PAVEMENT_GENERAL	Urban	F	1011101000001001	0000000000000000	-	-	-	-	-	-	-	-	-	-	Terminate	
"student5mode1"	"Seema_Shokoufeh_Track2"	"Nov 28, 2016 05:45:37 AM"	Unknown	124.98583	10/28/0116 05:47.46	00007499	9.147	Inter749t3-3	-1.195	1	2	270.000	11.111	18.0	0.250	0.000	D	F	1933.2	271.702	0.214	-0.062	1474.908	1502.336	0.020	-	0.463	1.442	-	-	-	-	-	-	-	PAVEMENT_GENERAL	Urban	F	1011101000001001	0000000000000000	-	-	-	-	-	-	-	-	-	-	Terminate	
"student5mode1"	"Seema_Shokoufeh_Track2"	"Nov 28, 2016 05:45:37 AM"	Unknown	125.98586	10/28/0116 05:47.47	00007559	10.508	Inter749t19-0	-0.784	1	1	270.068	11.111	-4.2	0.268	0.000	D	F	2052.8	272.299	0.213	0.019	1465.081	1502.750	0.020	-	-0.135	1.327	-	-	-	-	-	-	-	PAVEMENT_GENERAL	Urban	F	1011101000001001	0000000000000000	-	-	-	-	-	-	-	-	-	-	Terminate	
"student5mode1"	"Seema_Shokoufeh_Track2"	"Nov 28, 2016 05:45:37 AM"	Unknown	126.98587	10/28/0116 05:47.48	00007619	11.726	Inter749t19-0	-0.432	1	1	270.103	11.111	-3.7	0.263	0.000	D	F	2148.0	271.519	0.209	0.018	1453.955	1503.113	0.021	-	-0.142	1.141	-	-	-	-	-	-	-	PAVEMENT_GENERAL	Urban	F	1011101000001001	0000000000000000	-	-	-	-	-	-	-	-	-	-	Terminate	
"student5mode1"	"Seema_Shokoufeh_Track2"	"Nov 28, 2016 05:45:37 AM"	Unknown	127.98589	10/28/0116 05:47.49	00007679	12.811	Inter749t19-0	-0.190	1	1	270.086	11.111	-1.4	0.249	0.000	D	F	2264.2	271.043	0.207	0.006	1441.681	1503.377	0.022	-	-0.061	1.027	-	-	-	-	-	-	-	PAVEMENT_GENERAL	Urban	F	1011101000001001	0000000000000000	-	-	-	-	-	-	-	-	-	-	Terminate	
"student5mode1"	"Seema_Shokoufeh_Track2"	"Nov 28, 2016 05:45:37 AM"	Unknown	128.98592	10/28/0116 05:47.50	00007739	13.779	Inter749t19-0	-0.014	1	1	270.061	11.111	-2.6	0.240	0.000	D	F	2374.7	270.612	0.206	0.015	1428.381	1503.573	0.022	-	-0.121	0.942	-	-	-	-	-	-	-	PAVEMENT_GENERAL	Urban	F	1111101000001001	0000000000000000	-	-	-	-	-	-	-	-	-	-	Terminate	
"student5mode1"	"Seema_Shokoufeh_Track2"	"Nov 28, 2016 05:45:37 AM"	Unknown	129.98593	10/28/0116 05:47.51	00007799	14.688	Inter749t1-2	0.068	1	2	270.000	11.111	-0.1	0.236	0.000	D	F	2500.3	270.201	0.204	0.003	1414.143	1503.668	0.022	-	-0.033	0.882	-	-	-	-	-	-	-	PAVEMENT_GENERAL	Urban	F	1011101000001001	0000000000000000	-	-	-	-	-	-	-	-	-	-	Terminate	
"student5mode1"	"Seema_Shokoufeh_Track2"	"Nov 28, 2016 05:45:37 AM"	Unknown	130.98595	10/28/0116 05:47.52	00007859	15.423	Inter747t1-2	0.113	1	2	270.000	11.111	-0.5	0.224	0.000	D	F	1976.5	270.171	0.200	0.004	1399.052	1503.720	0.024	-	-0.022	0.604	-	-	-	-	-	-	-	PAVEMENT_GENERAL	Urban	F	1111101000001001	0000000000000000	-	-	-	-	-	-	-	-	-	-	Terminate	
"student5mode1"	"Seema_Shokoufeh_Track2"	"Nov 28, 2016 05:45:37 AM"	Unknown	131.98598	10/28/0116 05:47.53	00007919	16.031	Inter747t1-2	0.149	1	2	270.000	11.111	0.3	0.243	0.000	D	F	2013.1	270.103	0.199	-0.001	1383.325	1503.756	0.024	-	0.004	0.605	-	-	-	-	-	-	-	PAVEMENT_GENERAL	Urban	F	1011101000001001	0000000000000000	-	-	-	-	-	-	-	-	-	-	Terminate	
"student5mode1"	"Seema_Shokoufeh_Track2"	"Nov 28, 2016 05:45:37 AM"	Unknown	132.98599	10/28/0116 05:47.54	00007979	16.525	Inter747t1-2	0.191	1	2	270.000	11.111	-0.3	0.185	0.000	D	F	1929.3	270.203	0.196	-0.001	1367.017	1503.797	0.025	-	0.012	0.335	-	-	-	-	-	-	-	PAVEMENT_GENERAL	Urban	F	1011101000001001	0000000000000000	-	-	-	-	-	-	-	-	-	-	Terminate	
"student5mode1"	"Seema_Shokoufeh_Track2"	"Nov 28, 2016 05:45:37 AM"	Unknown	133.98601	10/28/0116 05:47.55	00008039	16.303	Inter747t1-2	0.221	1	2	270.000	11.111	-2.1	0.002	0.000	D	F	1601.0	269.937	0.185	0.017	1350.510	1503.827	0.029	-	-0.122	-0.591	-	-	-	-	-	-	-	PAVEMENT_GENERAL	Urban	F	1011101000001001	0000000000000000	-	-	-	-	-	-	-	-	-	-	Terminate	
"student5mode1"	"Seema_Shokoufeh_Track2"	"Nov 28, 2016 05:45:37 AM"	Unknown	134.98604	10/28/0116 05:47.56	00008099	15.729	Inter747t1-2	0.138	1	2	270.000	11.111	-1.4	0.002	0.000	D	F	1544.7	269.432	0.188	0.014	1334.496	1503.745	0.029	-	-0.118	-0.569	-	-	-	-	-	-	-	PAVEMENT_GENERAL	Urban	F	1011101000001001	0000000000000000	-	-	-	-	-	-	-	-	-	-	Terminate	
"student5mode1"	"Seema_Shokoufeh_Track2"	"Nov 28, 2016 05:45:37 AM"	Unknown	135.98605	10/28/0116 05:47.57	00008159	15.244	Inter747t1-2	-0.056	1	2	270.000	11.111	-1.1	0.025	0.000	D	F	1500.4	269.113	0.190	0.009	1319.021	1503.551	0.029	-	-0.069	-0.442	-	-	-	-	-	-	-	PAVEMENT_GENERAL	Urban	F	1011101000001001	0000000000000000	-	-	-	-	-	-	-	-	-	-	Terminate	
"student5mode1"	"Seema_Shokoufeh_Track2"	"Nov 28, 2016 05:45:37 AM"	Unknown	136.98607	10/28/0116 05:47.58	00008219	14.864	Inter747t1-2	-0.315	1	2	270.000	11.111	-1.2	0.039	0.000	D	F	1510.0	268.878	0.192	0.012	1303.976	1503.292	0.028	-	-0.071	-0.336	-	-	-	-	-	-	-	PAVEMENT_GENERAL	Urban	F	1011101000001001	0000000000000000	-	-	-	-	-	-	-	-	-	-	Terminate	
"student5mode1"	"Seema_Shokoufeh_Track2"	"Nov 28, 2016 05:45:37 AM"	Unknown	137.98610	10/28/0116 05:47.59	00008279	14.625	Inter747t1-2	-0.598	1	2	270.000	11.111	6.8	0.106	0.000	D	F	1648.3	269.232	0.197	-0.051	1289.259	1503.009	0.027	-	0.321	-0.018	-	-	-	-	-	-	-	PAVEMENT_GENERAL	Urban	F	1011101000001001	0000000000000000	-	-	-	-	-	-	-	-	-	-	Terminate	
"student5mode1"	"Seema_Shokoufeh_Track2"	"Nov 28, 2016 05:45:37 AM"	Unknown	138.98611	10/28/0116 05:48.00	00008339	14.759	Inter747t1-2	-0.641	1	2	270.000	11.111	0.4	0.111	0.000	D	F	1662.4	270.299	0.192	-0.011	1274.570	1502.966	0.026	-	0.087	0.035	-	-	-	-	-	-	-	PAVEMENT_GENERAL	Urban	F	1011101000001001	0000000000000000	-	-	-	-	-	-	-	-	-	-	Terminate	
"student5mode1"	"Seema_Shokoufeh_Track2"	"Nov 28, 2016 05:45:37 AM"	Unknown	139.98613	10/28/0116 05:48.01	00008399	14.873	Inter747t1-2	-0.546	1	2	270.000	11.111	0.1	0.132	0.000	D	F	1719.2	270.446	0.197	-0.002	1259.764	1503.061	0.026	-	0.015	0.142	-	-	-	-	-	-	-	PAVEMENT_GENERAL	Urban	F	1011101000001001	0000000000000000	-	-	-	-	-	-	-	-	-	-	Terminate	
"student5mode1"	"Seema_Shokoufeh_Track2"	"Nov 28, 2016 05:45:37 AM"	Unknown	140.98616	10/28/0116 05:48.02	00008459	15.007	Inter747t1-2	-0.436	1	2	270.000	11.111	-0.8	0.173	0.000	D	F	1797.5	270.371	0.197	0.005	1244.825	1503.171	0.026	-	-0.037	0.195	-	-	-	-	-	-	-	PAVEMENT_GENERAL	Urban	F	1011101000001001	0000000000000000	-	-	-	-	-	-	-	-	-	-	Terminate	
"student5mode1"	"Seema_Shokoufeh_Track2"	"Nov 28, 2016 05:45:37 AM"	Unknown	141.98618	10/28/0116 05:48.03	00008519	15.467	Inter747t1-2	-0.357	1	2	270.000	11.111	-0.7	0.183	0.000	D	F	1872.1	270.204	0.198	0.005	1229.578	1503.250	0.025	-	-0.042	0.378	-	-	-	-	-	-	-	PAVEMENT_GENERAL	Urban	F	1011101000001001	0000000000000000	-	-	-	-	-	-	-	-	-	-	Terminate	
"student5mode1"	"Seema_Shokoufeh_Track2"	"Nov 28, 2016 05:45:37 AM"	Unknown	142.98619	10/28/0116 05:48.04	00008579	15.735	Inter747t1-2	-0.317	1	2	270.000	11.111	-0.2	0.138	0.000	D	F	1789.0	270.094	0.193	0.002	1213.953	1503.290	0.026	-	-0.017	0.124	-	-	-	-	-	-	-	PAVEMENT_GENERAL	Urban	F	1011101000001001	0000000000000000	-	-	-	-	-	-	-	-	-	-	Terminate	
"student5mode1"	"Seema_Shokoufeh_Track2"	"Nov 28, 2016 05:45:37 AM"	Unknown	143.98621	10/28/0116 05:48.05	00008639	15.863	Inter748t1-2	-0.294	1	2	270.000	11.111	0.4	0.143	0.000	D	F	1807.0	270.091	0.195	-0.002	1198.155	1503.312	0.026	-	0.019	0.136	-	-	-	-	-	-	-	PAVEMENT_GENERAL	Urban	F	1011101000001001	0000000000000000	-	-	-	-	-	-	-	-	-	-	Terminate	
"student5mode1"	"Seema_Shokoufeh_Track2"	"Nov 28, 2016 05:45:37 AM"	Unknown	144.98624	10/28/0116 05:48.06	00008699	16.006	Inter748t1-2	-0.265	1	2	270.000	11.111	-0.3	0.141	0.000	D	F	1810.7	270.086	0.194	0.003	1182.220	1503.342	0.026	-	-0.020	0.127	-	-	-	-	-	-	-	PAVEMENT_GENERAL	Urban	F	1011101000001001	0000000000000000	-	-	-	-	-	-	-	-	-	-	Terminate	
"student5mode1"	"Seema_Shokoufeh_Track2"	"Nov 28, 2016 05:45:37 AM"	Unknown	145.98625	10/28/0116 05:48.07	00008759	16.126	Inter748t1-2	-0.248	1	2	270.000	11.111	-0.1	0.139	0.000	D	F	1813.4	270.038	0.194	0.001	1166.151	1503.359	0.026	-	-0.008	0.104	-	-	-	-	-	-	-	PAVEMENT_GENERAL	Urban	F	1011101000001001	0000000000000000	-	-	-	-	-	-	-	-	-	-	Terminate	
"student5mode1"	"Seema_Shokoufeh_Track2"	"Nov 28, 2016 05:45:37 AM"	Unknown	146.98627	10/28/0116 05:48.08	00008819	16.228	Inter748t1-2	-0.237	1	2	270.000	11.111	0.3	0.139	0.000	D	F	1821.4	270.038	0.194	-0.001	1149.974	1503.369	0.026	-	0.010	0.103	-	-	-	-	-	-	-	PAVEMENT_GENERAL	Urban	F	1011101000001001	0000000000000000	-	-	-	-	-	-	-	-	-	-	Terminate	
"student5mode1"	"Seema_Shokoufeh_Track2"	"Nov 28, 2016 05:45:37 AM"	Unknown	147.98630	10/28/0116 05:48.09	00008879	16.312	Inter748t1-2	-0.217	1	2	270.000	11.111	0.5	0.136	0.000	D	F	1816.6	270.118	0.194	-0.004	1133.701	1503.390	0.026	-	0.026	0.077	-	-	-	-	-	-	-	PAVEMENT_GENERAL	Urban	F	1011101000001001	0000000000000000	-	-	-	-	-	-	-	-	-	-	Terminate	
"student5mode1"	"Seema_Shokoufeh_Track2"	"Nov 28, 2016 05:45:37 AM"	Unknown	148.98631	10/28/0116 05:48.10	00008939	16.396	Inter748t1-2	-0.174	1	2	270.000	11.111	-0.2	0.139	0.000	D	F	1838.7	270.159	0.194	0.001	1117.350	1503.433	0.026	-	-0.008	0.100	-	-	-	-	-	-	-	PAVEMENT_GENERAL	Urban	F	1011101000001001	0000000000000000	-	-	-	-	-	-	-	-	-	-	Terminate	
"student5mode1"	"Seema_Shokoufeh_Track2"	"Nov 28, 2016 05:45:37 AM"	Unknown	149.98633	10/28/0116 05:48.11	00008999	16.510	Inter748t1-2	-0.133	1	2	270.000	11.111	-0.1	0.143	0.000	D	F	1846.0	270.120	0.194	0.001	1100.898	1503.474	0.026	-	-0.009	0.110	-	-	-	-	-	-	-	PAVEMENT_GENERAL	Urban	F	1011101000001001	0000000000000000	-	-	-	-	-	-	-	-	-	-	Terminate	
"student5mode1"	"Seema_Shokoufeh_Track2"	"Nov 28, 2016 05:45:37 AM"	Unknown	150.98636	10/28/0116 05:48.12	00009059	16.564	Inter748t1-2	-0.098	1	2	270.000	11.111	0.1	0.139	0.000	D	F	1847.6	270.125	0.193	-0.000	1084.363	1503.509	0.026	-	0.004	0.093	-	-	-	-	-	-	-	PAVEMENT_GENERAL	Urban	F	1011101000001001	0000000000000000	-	-	-	-	-	-	-	-	-	-	Terminate	
"student5mode1"	"Seema_Shokoufeh_Track2"	"Nov 28, 2016 05:45:37 AM"	Unknown	151.98637	10/28/0116 05:48.13	00009119	16.596	Inter748t1-2	-0.059	1	2	270.000	11.111	-0.2	0.111	0.000	D	F	1805.2	270.125	0.191	0.003	1067.768	1503.547	0.027	-	-0.012	-0.045	-	-	-	-	-	-	-	PAVEMENT_GENERAL	Urban	F	1011101000001001	0000000000000000	-	-	-	-	-	-	-	-	-	-	Terminate	
"student5mode1"	"Seema_Shokoufeh_Track2"	"Nov 28, 2016 05:45:37 AM"	Unknown	152.98639	10/28/0116 05:48.14	00009179	16.559	Inter748t1-2	-0.023	1	2	270.000	11.111	0.1	0.113	0.000	D	F	1807.8	270.137	0.193	-0.001	1051.192	1503.584	0.027	-	0.005	-0.016	-	-	-	-	-	-	-	PAVEMENT_GENERAL	Urban	F	1011101000001001	0000000000000000	-	-	-	-	-	-	-	-	-	-	Terminate	
"student5mode1"	"Seema_Shokoufeh_Track2"	"Nov 28, 2016 05:45:37 AM"	Unknown	153.98642	10/28/0116 05:48.15	00009239	16.550	Inter748t1-2	0.021	1	2	270.000	11.111	0.4	0.118	0.000	D	F	1813.4	270.184	0.193	-0.003	1034.639	1503.627	0.027	-	0.022	0.002	-	-	-	-	-	-	-	PAVEMENT_GENERAL	Urban	F	1011101000001001	0000000000000000	-	-	-	-	-	-	-	-	-	-	Terminate	
"student5mode1"	"Seema_Shokoufeh_Track2"	"Nov 28, 2016 05:45:37 AM"	Unknown	154.98643	10/28/0116 05:48.16	00009299	16.585	Inter748t1-2	0.077	1	2	270.000	11.111	-0.2	0.132	0.000	D	F	1833.3	270.187	0.193	0.002	1018.077	1503.684	0.026	-	-0.011	0.061	-	-	-	-	-	-	-	PAVEMENT_GENERAL	Urban	F	1011101000001001	0000000000000000	-	-	-	-	-	-	-	-	-	-	Terminate	
"student5mode1"	"Seema_Shokoufeh_Track2"	"Nov 28, 2016 05:45:37 AM"	Unknown	155.98645	10/28/0116 05:48.17	00009359	16.675	Inter748t1-2	0.130	1	2	270.000	11.111	1.9	0.139	0.000	D	F	1856.5	270.215	0.193	-0.010	1001.450	1503.737	0.026	-	0.071	0.090	12	6.7	-5.667	-	-	-	-	PAVEMENT_GENERAL	Urban	F	1011101000001001	0000000000000000	-	-	-	-	-	-	-	-	-	-	Terminate	
"student5mode1"	"Seema_Shokoufeh_Track2"	"Nov 28, 2016 05:45:37 AM"	Unknown	156.98647	10/28/0116 05:48.18	00009419	16.810	Inter752t1-2	-0.461	1	2	269.841	24.444	-0.0	0.152	0.000	D	F	1891.8	270.404	0.132	-0.341	984.718	1503.825	0.043	-	0.007	0.174	-	-	-	-	-	-	-	FREEWAY_SMOOTH	Urban	F	1011101000001001	0000000000000000	-	-	-	-	-	-	-	-	-	-	Terminate	
"student5mode1"	"Seema_Shokoufeh_Track2"	"Nov 28, 2016 05:45:37 AM"	Unknown	157.98650	10/28/0116 05:48.19	00009479	16.999	Inter752t1-2	-0.266	1	2	269.181	24.444	-5.8	0.152	0.000	D	F	1905.9	269.849	0.299	-0.716	967.813	1503.883	0.077	-	-0.342	0.194	-	-	-	-	-	-	-	FREEWAY_SMOOTH	Urban	F	1011101000001001	0000000000000000	-	-	-	-	-	-	-	-	-	-	Terminate	
"student5mode1"	"Seema_Shokoufeh_Track2"	"Nov 28, 2016 05:45:37 AM"	Unknown	158.98651	10/28/0116 05:48.20	00009539	17.193	Inter752t1-2	-0.117	1	2	267.988	24.444	-6.4	0.152	0.000	D	F	1915.2	268.270	0.304	-1.124	950.718	1503.612	0.109	-	-0.502	0.186	-	-	-	-	-	-	-	FREEWAY_SMOOTH	Urban	F	1011101000001001	0000000000000000	-	-	-	-	-	-	-	-	-	-	Terminate	
"student5mode1"	"Seema_Shokoufeh_Track2"	"Nov 28, 2016 05:45:37 AM"	Unknown	159.98653	10/28/0116 05:48.21	00009599	17.375	Inter752t1-2	-0.023	1	2	266.254	24.444	-9.2	0.150	0.000	D	F	1920.1	266.458	0.306	-1.529	933.450	1502.835	0.143	-	-0.678	0.163	-	-	-	-	-	-	-	FREEWAY_SMOOTH	Urban	F	1011101000001001	0000000000000000	-	-	-	-	-	-	-	-	-	-	Terminate	
"student5mode1"	"Seema_Shokoufeh_Track2"	"Nov 28, 2016 05:45:37 AM"	Unknown	160.98656	10/28/0116 05:48.22	00009659	17.521	Inter752t1-2	0.036	1	2	263.978	24.444	-11.1	0.141	0.000	D	F	1919.9	264.082	0.301	-1.947	916.058	1501.400	0.177	-	-0.811	0.117	-	-	-	-	-	-	-	FREEWAY_SMOOTH	Urban	F	1011101000001001	0000000000000000	-	-	-	-	-	-	-	-	-	-	Terminate	
"student5mode1"	"Seema_Shokoufeh_Track2"	"Nov 28, 2016 05:45:37 AM"	Unknown	161.98657	10/28/0116 05:48.23	00009719	17.573	Inter752t1-2	0.048	1	2	261.129	24.444	-10.9	0.123	0.000	D	F	1902.2	260.906	0.292	-2.361	898.653	1499.122	0.210	-	-0.982	0.022	-	-	-	-	-	-	-	FREEWAY_SMOOTH	Urban	F	1011101000001001	0000000000000000	-	-	-	-	-	-	-	-	-	-	Terminate	
"student5mode1"	"Seema_Shokoufeh_Track2"	"Nov 28, 2016 05:45:37 AM"	Unknown	162.98659	10/28/0116 05:48.24	00009779	17.563	Inter752t1-2	0.021	1	2	257.743	24.444	-14.9	0.106	0.000	D	F	1880.0	257.367	0.280	-2.756	881.385	1495.856	0.242	-	-1.275	-0.041	-	-	-	-	-	-	-	FREEWAY_SMOOTH	Urban	F	1011101000001001	0000000000000000	-	-	-	-	-	-	-	-	-	-	Terminate	
"student5mode1"	"Seema_Shokoufeh_Track2"	"Nov 28, 2016 05:45:37 AM"	Unknown	163.98662	10/28/0116 05:48.25	00009839	17.526	Inter752t1-2	-0.096	1	2	253.845	24.444	-13.9	0.111	0.000	D	F	1881.0	253.238	0.262	-3.194	864.416	1491.413	0.267	-	-1.253	-0.027	-	-	-	-	-	-	-	FREEWAY_SMOOTH	Urban	F	1011101000001001	0000000000000000	-	-	-	-	-	-	-	-	-	-	Terminate	
"student5mode1"	"Seema_Shokoufeh_Track2"	"Nov 28, 2016 05:45:37 AM"	Unknown	164.98663	10/28/0116 05:48.26	00009899	17.432	Inter752t1-2	-0.134	1	2	249.530	24.444	-14.7	0.093	0.000	D	F	1846.8	249.758	0.211	-3.362	847.838	1485.839	0.279	-	-1.148	-0.157	-	-	-	-	-	-	-	FREEWAY_SMOOTH	Urban	F	1011101000001001	0000000000000000	-	-	-	-	-	-	-	-	-	-	Terminate	
"student5mode1"	"Seema_Shokoufeh_Track2"	"Nov 28, 2016 05:45:37 AM"	Unknown	165.98665	10/28/0116 05:48.27	00009959	17.281	Inter752t1-2	0.009	1	2	245.161	24.444	-16.1	0.093	0.000	D	F	1835.7	245.614	0.223	-3.338	831.785	1479.243	0.287	-	-1.312	-0.152	-	-	-	-	-	-	-	FREEWAY_SMOOTH	Urban	F	1011101000001001	0000000000000000	-	-	-	-	-	-	-	-	-	-	Terminate	
"student5mode1"	"Seema_Shokoufeh_Track2"	"Nov 28, 2016 05:45:37 AM"	Unknown	166.98668	10/28/0116 05:48.28	00010019	17.126	Inter752t1-2	0.077	1	2	240.868	24.444	-22.3	0.092	0.000	D	F	1818.5	240.213	0.154	-3.272	816.446	1471.461	0.291	-	-1.819	-0.147	-	-	-	-	-	-	-	FREEWAY_SMOOTH	Urban	F	1011101000001001	0000000000000000	-	-	-	-	-	-	-	-	-	-	Terminate	
"student5mode1"	"Seema_Shokoufeh_Track2"	"Nov 28, 2016 05:45:37 AM"	Unknown	167.98669	10/28/0116 05:48.29	00010079	16.968	Inter752t1-2	-0.287	1	2	236.603	24.444	-13.9	0.090	0.000	D	F	1801.5	234.611	0.079	-3.326	802.095	1462.272	0.270	-	-1.393	-0.131	-	-	-	-	-	-	-	FREEWAY_SMOOTH	Urban	F	1011101000001001	0000000000000000	-	-	-	-	-	-	-	-	-	-	Terminate	
"student5mode1"	"Seema_Shokoufeh_Track2"	"Nov 28, 2016 05:45:37 AM"	Unknown	168.98671	10/28/0116 05:48.30	00010139	16.855	Inter752t1-2	-0.688	1	2	232.367	24.444	-11.6	0.101	0.000	D	F	1811.1	231.725	0.152	-3.392	788.593	1452.094	0.245	-	-0.876	-0.104	-	-	-	-	-	-	-	FREEWAY_SMOOTH	Urban	F	1011101000001001	0000000000000000	-	-	-	-	-	-	-	-	-	-	Terminate	
