"Name"	"Project"	"Time"	ZoneName	Time	SystemTime	Frame	Velocity	LaneName	LanePos	LaneIndex	LaneCount	LaneHeading	SpeedLimit	Steer	Accel	Brake	Gear	Horn	SubjectEngineRPM	SubjectHeading	SubjectPitch	SubjectRoll	SubjectX	SubjectY	SubjectZ	Signal	LatAccel	LongAccel	Collision	CollisionAngle	CollisionVelocity	VehAhead	HeadwayTime	HeadwayDist	TTC	TerrainType	CultureType	Slip	DigitalInputs	DigitalInputs2	ActiveTrigger	EntityName	DistToEntity	TimeToEntity	EntityVelocity	EntityAccel	EntityHeading	EntityX	EntityY	EntityZ	GrabData	
"student20mode3"	"Tanvi_6"	"Feb 14, 2017 10:21:40 AM"	Unknown	0.98335	01/14/0117 10:21.44	00000059	0.002	Inter625t13-0	-0.088	1	2	0.000	11.111	2.3	0.005	0.000	D	F	0.0	0.001	0.153	-0.001	1503.500	523.206	0.019	-	-0.000	0.000	-	-	-	-	-	-	-	PAVEMENT_GENERAL	Urban	F	1011101000011101	0000000000000000	-	car	928.855	774736.688	0.000	0.000	180.000	696.000	987.000	-0.000	Terminate	
"student20mode3"	"Tanvi_6"	"Feb 14, 2017 10:21:40 AM"	Unknown	1.98337	01/14/0117 10:21.45	00000119	0.000	Inter625t13-0	-0.088	1	2	0.000	11.111	2.3	0.005	0.000	D	F	0.0	0.000	0.197	-0.000	1503.500	523.208	0.026	-	0.000	-0.001	-	-	-	-	-	-	-	PAVEMENT_GENERAL	Urban	F	1011101000011101	0000000000000000	-	car	928.855	4213771.500	0.000	0.000	180.000	696.000	987.000	-0.000	Terminate	
"student20mode3"	"Tanvi_6"	"Feb 14, 2017 10:21:40 AM"	Unknown	2.98339	01/14/0117 10:21.46	00000179	-0.000	Inter625t13-0	-0.088	1	2	0.000	11.111	2.3	0.005	0.000	D	F	0.0	0.000	0.207	-0.000	1503.500	523.208	0.028	-	0.000	-0.000	-	-	-	-	-	-	-	PAVEMENT_GENERAL	Urban	F	1011101000011101	0000000000000000	-	car	928.854	-115997392.000	0.000	0.000	180.000	696.000	987.000	-0.000	Terminate	
"student20mode3"	"Tanvi_6"	"Feb 14, 2017 10:21:40 AM"	Unknown	3.98341	01/14/0117 10:21.47	00000239	-0.000	Inter625t13-0	-0.088	1	2	0.000	11.111	2.3	0.007	0.000	D	F	0.0	0.000	0.210	-0.000	1503.500	523.208	0.028	-	0.000	-0.000	-	-	-	-	-	-	-	PAVEMENT_GENERAL	Urban	F	1011101000011101	0000000000000000	-	car	928.854	-22305566.000	0.000	0.000	180.000	696.000	987.000	-0.000	Terminate	
"student20mode3"	"Tanvi_6"	"Feb 14, 2017 10:21:40 AM"	Unknown	4.98343	01/14/0117 10:21.48	00000299	-0.000	Inter625t13-0	-0.088	1	2	0.000	11.111	2.3	0.028	0.000	D	F	0.0	0.000	0.210	-0.000	1503.500	523.208	0.028	-	0.000	0.000	-	-	-	-	-	-	-	PAVEMENT_GENERAL	Urban	F	1011101000011101	0000000000000000	-	car	928.854	-24858488.000	0.000	0.000	180.000	696.000	987.000	-0.000	Terminate	
"student20mode3"	"Tanvi_6"	"Feb 14, 2017 10:21:40 AM"	Unknown	5.98345	01/14/0117 10:21.49	00000359	-0.000	Inter625t13-0	-0.088	1	2	0.000	11.111	0.5	0.139	0.000	D	F	0.0	0.000	0.209	-0.000	1503.500	523.208	0.028	-	-0.000	0.000	-	-	-	-	-	-	-	PAVEMENT_GENERAL	Urban	F	1011101000011101	0000000000000000	-	car	928.855	-34382652.000	0.000	0.000	180.000	696.000	987.000	-0.000	Terminate	
"student20mode3"	"Tanvi_6"	"Feb 14, 2017 10:21:40 AM"	Unknown	6.98347	01/14/0117 10:21.50	00000419	0.000	Inter625t13-0	-0.088	1	2	0.000	11.111	6.0	0.168	0.000	D	F	83.3	0.000	0.209	-0.000	1503.500	523.208	0.028	-	0.000	0.003	-	-	-	-	-	-	-	PAVEMENT_GENERAL	Urban	F	1011101000011111	0000000000000000	-	car	928.855	8891379.000	0.000	0.000	180.000	696.000	987.000	-0.000	Terminate	
"student20mode3"	"Tanvi_6"	"Feb 14, 2017 10:21:40 AM"	Unknown	7.98349	01/14/0117 10:21.51	00000479	2.291	Inter625t13-0	-0.084	1	2	0.000	11.111	6.7	0.159	0.000	D	F	416.7	0.117	0.222	-0.003	1503.504	524.018	0.011	-	0.024	3.066	-	-	-	-	-	-	-	PAVEMENT_GENERAL	Urban	F	1011101000011101	0000000000000000	-	car	928.455	817.660	0.000	0.000	180.000	696.000	987.000	-0.000	Terminate	
"student20mode3"	"Tanvi_6"	"Feb 14, 2017 10:21:40 AM"	Unknown	8.98351	01/14/0117 10:21.52	00000539	4.574	Inter625t13-0	-0.046	1	2	0.000	11.111	7.1	0.159	0.000	D	F	1675.3	0.677	0.218	-0.007	1503.542	527.539	0.017	-	0.052	1.878	-	-	-	-	-	-	-	PAVEMENT_GENERAL	Urban	F	1011101000011101	0000000000000000	-	car	926.742	418.391	0.000	0.000	180.000	696.000	987.000	-0.000	Terminate	
"student20mode3"	"Tanvi_6"	"Feb 14, 2017 10:21:40 AM"	Unknown	9.98353	01/14/0117 10:21.53	00000599	6.120	Inter625t49-0	0.044	1	1	0.005	11.111	2.0	0.164	0.000	D	F	1699.9	0.982	0.219	-0.006	1503.632	532.914	0.019	-	0.030	1.496	-	-	-	-	-	-	-	PAVEMENT_GENERAL	Urban	F	1011101000011101	0000000000000000	-	car	924.173	317.873	0.000	0.000	180.000	696.000	987.000	-0.000	Terminate	
"student20mode3"	"Tanvi_6"	"Feb 14, 2017 10:21:40 AM"	Unknown	10.98355	01/14/0117 10:21.54	00000659	7.488	Inter625t49-0	0.181	1	1	0.006	11.111	-1.2	0.199	0.000	D	F	1745.6	1.221	0.214	0.008	1503.769	539.716	0.020	-	-0.026	1.402	-	-	-	-	-	-	-	PAVEMENT_GENERAL	Urban	F	1011101000011101	0000000000000000	-	car	920.979	264.132	0.000	0.000	180.000	696.000	987.000	-0.000	Terminate	
"student20mode3"	"Tanvi_6"	"Feb 14, 2017 10:21:40 AM"	Unknown	11.98357	01/14/0117 10:21.55	00000719	8.814	Inter625t49-0	0.341	1	1	0.008	11.111	1.4	0.201	0.000	D	F	1834.7	1.093	0.212	-0.006	1503.930	547.884	0.020	-	0.029	1.214	-	-	-	-	-	-	-	PAVEMENT_GENERAL	Urban	F	1011101000011101	0000000000000000	-	car	917.192	225.872	0.000	0.000	180.000	696.000	987.000	-0.000	Terminate	
"student20mode3"	"Tanvi_6"	"Feb 14, 2017 10:21:40 AM"	Unknown	12.98359	01/14/0117 10:21.56	00000779	9.866	Inter625t49-0	0.533	1	1	0.007	11.111	-0.1	0.187	0.000	D	F	1865.0	1.228	0.209	0.000	1504.123	557.254	0.022	-	0.000	0.908	-	-	-	-	-	-	-	PAVEMENT_GENERAL	Urban	F	1011101000011101	0000000000000000	-	car	912.925	205.405	0.000	0.000	180.000	696.000	987.000	-0.000	Terminate	
"student20mode3"	"Tanvi_6"	"Feb 14, 2017 10:21:40 AM"	Unknown	13.98361	01/14/0117 10:21.57	00000839	10.750	Inter625t49-0	0.737	1	1	0.005	11.111	-2.6	0.189	0.000	D	F	1949.8	0.978	0.207	0.010	1504.329	567.569	0.022	-	-0.086	0.836	-	-	-	-	-	-	-	PAVEMENT_GENERAL	Urban	F	1011101000011101	0000000000000000	-	car	908.310	189.726	0.000	0.000	180.000	696.000	987.000	-0.000	Terminate	
"student20mode3"	"Tanvi_6"	"Feb 14, 2017 10:21:40 AM"	Unknown	14.98363	01/14/0117 10:21.58	00000899	11.551	Inter625t49-0	0.874	1	1	0.005	11.111	-2.9	0.190	0.000	D	F	2038.9	0.467	0.206	0.013	1504.467	578.724	0.023	-	-0.105	0.771	-	-	-	-	-	-	-	PAVEMENT_GENERAL	Urban	F	1011101000011101	0000000000000000	-	car	903.349	176.337	0.000	0.000	180.000	696.000	987.000	-0.000	Terminate	
"student20mode3"	"Tanvi_6"	"Feb 14, 2017 10:21:40 AM"	Unknown	15.98365	01/14/0117 10:21.59	00000959	12.295	Inter625t15-0	0.917	1	2	0.000	11.111	-2.6	0.189	0.000	D	F	2093.3	0.000	0.205	0.013	1504.510	590.651	0.023	-	-0.104	0.729	-	-	-	-	-	-	-	PAVEMENT_GENERAL	Urban	F	1011101000011101	0000000000000000	-	car	898.074	165.803	0.000	0.000	180.000	696.000	987.000	-0.000	Terminate	
"student20mode3"	"Tanvi_6"	"Feb 14, 2017 10:21:40 AM"	Unknown	16.98367	01/14/0117 10:22.00	00001019	12.937	Inter614t1-0	0.862	1	2	0.000	11.111	1.9	0.187	0.000	D	F	1770.6	359.616	0.203	-0.007	1504.455	603.286	0.024	-	0.035	0.570	-	-	-	-	-	-	-	PAVEMENT_GENERAL	Urban	F	1011101000011101	0000000000000000	-	car	892.535	158.658	0.000	0.000	180.000	696.000	987.000	-0.000	Terminate	
"student20mode3"	"Tanvi_6"	"Feb 14, 2017 10:21:40 AM"	Unknown	17.98369	01/14/0117 10:22.01	00001079	13.483	Inter614t1-0	0.823	1	2	0.000	11.111	0.7	0.189	0.000	D	F	1791.1	0.027	0.202	-0.006	1504.416	616.500	0.024	-	0.055	0.528	-	-	-	-	-	-	-	PAVEMENT_GENERAL	Urban	F	1011101000011101	0000000000000000	-	car	886.914	158.045	0.000	0.000	180.000	696.000	987.000	-0.000	Terminate	
"student20mode3"	"Tanvi_6"	"Feb 14, 2017 10:21:40 AM"	Unknown	18.98371	01/14/0117 10:22.02	00001139	13.992	Inter614t1-0	0.846	1	2	0.000	11.111	0.9	0.187	0.000	D	F	1811.3	0.168	0.201	-0.005	1504.439	630.241	0.024	-	0.039	0.489	-	-	-	-	-	-	-	PAVEMENT_GENERAL	Urban	F	1011101000011101	0000000000000000	-	car	881.298	157.051	0.000	0.000	180.000	696.000	987.000	-0.000	Terminate	
"student20mode3"	"Tanvi_6"	"Feb 14, 2017 10:21:40 AM"	Unknown	19.98373	01/14/0117 10:22.03	00001199	14.506	Inter614t1-0	0.908	1	2	0.000	11.111	0.8	0.201	0.000	D	F	1863.5	0.336	0.201	-0.006	1504.501	644.486	0.024	-	0.042	0.523	-	-	-	-	-	-	-	PAVEMENT_GENERAL	Urban	F	1011101000011101	0000000000000000	-	car	875.701	156.935	0.000	0.000	180.000	696.000	987.000	-0.000	Terminate	
"student20mode3"	"Tanvi_6"	"Feb 14, 2017 10:21:40 AM"	Unknown	20.98375	01/14/0117 10:22.04	00001259	14.970	Inter614t1-0	1.014	1	2	0.000	11.111	0.7	0.166	0.000	D	F	1799.1	0.501	0.193	-0.005	1504.608	659.236	0.025	-	0.040	0.304	-	-	-	11	9.907	148.309	-	PAVEMENT_GENERAL	Urban	F	1011101000011101	0000000000000000	-	car	870.151	158.155	0.000	0.000	180.000	696.000	987.000	-0.000	Terminate	
"student20mode3"	"Tanvi_6"	"Feb 14, 2017 10:21:40 AM"	Unknown	21.98377	01/14/0117 10:22.05	00001319	15.177	Inter614t1-0	1.150	1	2	0.000	11.111	-2.9	0.155	0.000	D	F	1777.4	0.402	0.197	0.019	1504.744	674.310	0.025	-	-0.134	0.223	-	-	-	11	9.957	151.116	-	PAVEMENT_GENERAL	Urban	F	1011101000011101	0000000000000000	-	car	864.728	160.916	0.000	0.000	180.000	696.000	987.000	-0.000	Terminate	
"student20mode3"	"Tanvi_6"	"Feb 14, 2017 10:21:40 AM"	Unknown	22.98379	01/14/0117 10:22.06	00001379	15.401	Inter614t1-0	1.184	1	2	0.000	11.111	-2.8	0.157	0.000	D	F	1797.7	359.827	0.196	0.019	1504.777	689.600	0.025	-	-0.148	0.225	-	-	-	11	9.980	153.701	-	PAVEMENT_GENERAL	Urban	F	1011101000011101	0000000000000000	-	car	859.364	160.365	0.000	0.000	180.000	696.000	987.000	-0.000	Terminate	
"student20mode3"	"Tanvi_6"	"Feb 14, 2017 10:21:40 AM"	Unknown	23.98381	01/14/0117 10:22.07	00001439	15.623	Inter614t1-0	1.074	1	2	0.000	11.111	1.8	0.153	0.000	D	F	1806.9	359.402	0.196	-0.008	1504.667	705.112	0.025	-	0.020	0.209	-	-	-	11	9.990	156.065	-	PAVEMENT_GENERAL	Urban	F	1011101000011101	0000000000000000	-	car	854.030	161.255	0.000	0.000	180.000	696.000	987.000	-0.000	Terminate	
"student20mode3"	"Tanvi_6"	"Feb 14, 2017 10:21:40 AM"	Unknown	24.98383	01/14/0117 10:22.08	00001499	15.716	Inter614t1-0	0.962	1	2	0.000	11.111	3.0	0.120	0.000	D	F	1748.1	359.843	0.194	-0.020	1504.555	720.791	0.026	-	0.154	0.043	-	-	-	-	-	-	-	PAVEMENT_GENERAL	Urban	F	1011101000011101	0000000000000000	-	car	848.892	171.296	0.000	0.000	180.000	696.000	987.000	-0.000	Terminate	
"student20mode3"	"Tanvi_6"	"Feb 14, 2017 10:21:40 AM"	Unknown	25.98385	01/14/0117 10:22.09	00001559	15.738	Inter614t1-0	0.987	1	2	0.000	11.111	2.2	0.113	0.000	D	F	1734.9	0.350	0.194	-0.015	1504.580	736.520	0.026	-	0.120	0.009	-	-	-	-	-	-	-	PAVEMENT_GENERAL	Urban	F	1011101000011101	0000000000000000	-	car	844.129	184.912	0.000	0.000	180.000	696.000	987.000	-0.000	Terminate	
"student20mode3"	"Tanvi_6"	"Feb 14, 2017 10:21:40 AM"	Unknown	26.98387	01/14/0117 10:22.10	00001619	15.744	Inter614t1-0	1.088	1	2	0.000	11.111	-3.2	0.115	0.000	D	F	1735.9	0.112	0.194	0.025	1504.681	752.260	0.027	-	-0.197	0.003	-	-	-	11	10.326	162.572	-	PAVEMENT_GENERAL	Urban	F	1011101000011101	0000000000000000	-	car	839.702	192.619	0.000	0.000	180.000	696.000	987.000	-0.000	Terminate	
"student20mode3"	"Tanvi_6"	"Feb 14, 2017 10:21:40 AM"	Unknown	27.98389	01/14/0117 10:22.11	00001679	15.776	Inter614t1-0	1.053	1	2	0.000	11.111	-2.4	0.118	0.000	D	F	1748.3	359.625	0.194	0.017	1504.646	768.019	0.026	-	-0.125	0.026	-	-	-	11	10.440	164.689	-	PAVEMENT_GENERAL	Urban	F	1011101000011101	0000000000000000	-	car	835.412	197.827	0.000	0.000	180.000	696.000	987.000	-0.000	Terminate	
"student20mode3"	"Tanvi_6"	"Feb 14, 2017 10:21:40 AM"	Unknown	28.98391	01/14/0117 10:22.12	00001739	15.803	Inter614t1-0	0.927	1	2	0.000	11.111	1.3	0.116	0.000	D	F	1749.2	359.612	0.194	-0.010	1504.520	783.808	0.026	-	0.078	0.026	-	-	-	-	-	-	-	PAVEMENT_GENERAL	Urban	F	1011101000011101	0000000000000000	-	car	831.302	210.165	0.000	0.000	180.000	696.000	987.000	-0.000	Terminate	
"student20mode3"	"Tanvi_6"	"Feb 14, 2017 10:21:40 AM"	Unknown	29.98393	01/14/0117 10:22.13	00001799	15.819	Inter614t1-0	0.869	1	2	0.000	11.111	3.1	0.115	0.000	D	F	1741.5	0.050	0.194	-0.021	1504.463	799.621	0.027	-	0.157	0.001	-	-	-	-	-	-	-	PAVEMENT_GENERAL	Urban	F	1011101000011101	0000000000000000	-	car	827.534	232.565	0.000	0.000	180.000	696.000	987.000	-0.000	Terminate	
"student20mode3"	"Tanvi_6"	"Feb 14, 2017 10:21:40 AM"	Unknown	30.98395	01/14/0117 10:22.14	00001859	15.822	Inter612t1-0	0.945	1	2	0.000	11.111	1.9	0.115	0.000	D	F	1744.0	0.484	0.194	-0.013	1504.539	815.440	0.026	-	0.099	0.008	-	-	-	-	-	-	-	PAVEMENT_GENERAL	Urban	F	1011101000011101	0000000000000000	-	car	824.180	261.374	0.000	0.000	180.000	696.000	987.000	-0.000	Terminate	
"student20mode3"	"Tanvi_6"	"Feb 14, 2017 10:21:40 AM"	Unknown	31.98397	01/14/0117 10:22.15	00001919	15.823	Inter612t1-0	1.129	1	2	0.000	11.111	1.4	0.111	0.000	D	F	1741.4	0.877	0.194	-0.013	1504.722	831.262	0.027	-	0.095	-0.003	-	-	-	11	10.933	172.991	-	PAVEMENT_GENERAL	Urban	F	1011101000011101	0000000000000000	-	car	821.222	298.208	0.000	0.000	180.000	696.000	987.000	-0.000	Terminate	
"student20mode3"	"Tanvi_6"	"Feb 14, 2017 10:21:40 AM"	Unknown	32.98399	01/14/0117 10:22.16	00001979	15.821	Inter612t1-0	1.328	1	2	0.000	11.111	-5.3	0.111	0.000	D	F	1739.7	0.334	0.194	0.035	1504.922	847.083	0.027	-	-0.269	-0.001	-	-	-	11	11.064	175.044	-	PAVEMENT_GENERAL	Urban	F	1011101000011101	0000000000000000	-	car	818.573	314.163	0.000	0.000	180.000	696.000	987.000	-0.000	Terminate	
"student20mode3"	"Tanvi_6"	"Feb 14, 2017 10:21:40 AM"	Unknown	33.98401	01/14/0117 10:22.17	00002039	15.817	Inter612t1-0	1.317	1	2	0.000	11.111	0.7	0.113	0.000	D	F	1740.5	359.774	0.194	-0.000	1504.910	862.902	0.027	-	0.013	-0.002	-	-	-	11	11.197	177.096	-	PAVEMENT_GENERAL	Urban	F	1011101000011101	0000000000000000	-	car	816.015	331.705	0.000	0.000	180.000	696.000	987.000	-0.000	Terminate	
"student20mode3"	"Tanvi_6"	"Feb 14, 2017 10:21:40 AM"	Unknown	34.98403	01/14/0117 10:22.18	00002099	15.813	Inter612t1-0	1.290	1	2	0.000	11.111	-1.2	0.111	0.000	D	F	1739.8	0.029	0.194	-0.001	1504.883	878.717	0.027	-	-0.000	-0.004	-	-	-	11	11.330	179.163	-	PAVEMENT_GENERAL	Urban	F	1011101000011101	0000000000000000	-	car	813.739	389.286	0.000	0.000	180.000	696.000	987.000	-0.000	Terminate	
"student20mode3"	"Tanvi_6"	"Feb 14, 2017 10:21:40 AM"	Unknown	35.98405	01/14/0117 10:22.19	00002159	15.810	Inter612t1-0	1.256	1	2	0.000	11.111	-0.8	0.111	0.000	D	F	1739.9	359.768	0.194	0.005	1504.849	894.528	0.027	-	-0.039	-0.002	-	-	-	11	11.463	181.226	-	PAVEMENT_GENERAL	Urban	F	1011101000011101	0000000000000000	-	car	811.758	436.556	0.000	0.000	180.000	696.000	987.000	-0.000	Terminate	
"student20mode3"	"Tanvi_6"	"Feb 14, 2017 10:21:40 AM"	Unknown	36.98407	01/14/0117 10:22.20	00002219	15.808	Inter612t1-0	1.186	1	2	0.000	11.111	0.5	0.113	0.000	D	F	1740.3	359.758	0.194	-0.002	1504.780	910.337	0.027	-	0.017	-0.001	-	-	-	11	11.595	183.295	-	PAVEMENT_GENERAL	Urban	F	1011101000011101	0000000000000000	-	car	810.045	519.818	0.000	0.000	180.000	696.000	987.000	-0.000	Terminate	
"student20mode3"	"Tanvi_6"	"Feb 14, 2017 10:21:40 AM"	Unknown	37.98409	01/14/0117 10:22.21	00002279	15.821	Inter612t1-0	1.138	1	2	0.000	11.111	1.2	0.122	0.000	D	F	1754.0	359.916	0.194	-0.007	1504.731	926.149	0.026	-	0.056	0.031	-	-	-	11	11.716	185.364	-	PAVEMENT_GENERAL	Urban	F	1011101000011101	0000000000000000	-	car	808.658	668.165	0.000	0.000	180.000	696.000	987.000	-0.000	Terminate	
"student20mode3"	"Tanvi_6"	"Feb 14, 2017 10:21:40 AM"	Unknown	38.98411	01/14/0117 10:22.22	00002339	15.856	Inter612t1-0	1.134	1	2	0.000	11.111	-2.4	0.122	0.000	D	F	1763.5	359.925	0.194	0.017	1504.727	941.987	0.026	-	-0.111	0.038	-	-	-	11	11.819	187.405	-	PAVEMENT_GENERAL	Urban	F	1011101000011101	0000000000000000	-	car	807.619	895.587	0.000	0.000	180.000	696.000	987.000	-0.000	Terminate	
"student20mode3"	"Tanvi_6"	"Feb 14, 2017 10:21:40 AM"	Unknown	39.98413	01/14/0117 10:22.23	00002399	15.928	Inter612t1-0	1.065	1	2	0.000	11.111	3.4	0.127	0.000	D	F	1781.1	359.720	0.194	-0.022	1504.658	957.878	0.026	-	0.124	0.066	-	-	-	11	11.890	189.389	-	PAVEMENT_GENERAL	Urban	F	1011101000011101	0000000000000000	-	car	806.823	1239.090	0.000	0.000	180.000	696.000	987.000	-0.000	Terminate	
"student20mode3"	"Tanvi_6"	"Feb 14, 2017 10:21:40 AM"	Unknown	40.98415	01/14/0117 10:22.24	00002459	16.019	Inter612t1-0	1.057	1	2	0.000	11.111	0.1	0.138	0.000	D	F	1806.5	0.191	0.194	-0.007	1504.650	973.848	0.026	-	0.057	0.106	-	-	-	11	11.943	191.304	-	PAVEMENT_GENERAL	Urban	F	1011101000011101	0000000000000000	-	car	806.397	3895.294	0.000	0.000	180.000	696.000	987.000	-0.000	Terminate	
"student20mode3"	"Tanvi_6"	"Feb 14, 2017 10:21:40 AM"	Unknown	41.98417	01/14/0117 10:22.25	00002519	16.133	Inter612t1-0	1.102	1	2	0.000	11.111	-1.2	0.139	0.000	D	F	1816.7	0.104	0.195	0.007	1504.695	989.924	0.026	-	-0.053	0.115	-	-	-	11	11.969	193.106	-	PAVEMENT_GENERAL	Urban	F	1011101000011101	0000000000000000	-	car	806.341	-9200.855	0.000	0.000	180.000	696.000	987.000	-0.000	Terminate	
"student20mode3"	"Tanvi_6"	"Feb 14, 2017 10:21:40 AM"	Unknown	42.98419	01/14/0117 10:22.26	00002579	16.239	Inter613t1-0	1.098	1	2	0.000	11.111	-1.4	0.143	0.000	D	F	1829.6	359.836	0.194	0.009	1504.691	1006.110	0.026	-	-0.079	0.115	-	-	-	11	11.995	194.794	-	PAVEMENT_GENERAL	Urban	F	1011101000011101	0000000000000000	-	car	806.557	-2392.689	0.000	0.000	180.000	696.000	987.000	-0.000	Terminate	
"student20mode3"	"Tanvi_6"	"Feb 14, 2017 10:21:40 AM"	Unknown	43.98421	01/14/0117 10:22.27	00002639	16.376	Inter613t1-0	1.015	1	2	0.000	11.111	-1.4	0.148	0.000	D	F	1852.9	359.554	0.195	0.010	1504.608	1022.415	0.026	-	-0.079	0.148	-	-	-	11	12.279	201.083	-	PAVEMENT_GENERAL	Urban	F	1011101000011101	0000000000000000	-	car	807.023	-1369.951	0.000	0.000	180.000	696.000	987.000	-0.000	Terminate	
"student20mode3"	"Tanvi_6"	"Feb 14, 2017 10:21:40 AM"	Unknown	44.98423	01/14/0117 10:22.28	00002699	16.517	Inter613t1-0	0.869	1	2	0.000	11.111	4.9	0.146	0.000	D	F	1855.0	359.571	0.194	-0.027	1504.462	1038.863	0.026	-	0.188	0.125	-	-	-	-	-	-	-	PAVEMENT_GENERAL	Urban	F	1011101000011101	0000000000000000	-	car	807.764	-864.918	0.000	0.000	180.000	696.000	987.000	-0.000	Terminate	
"student20mode3"	"Tanvi_6"	"Feb 14, 2017 10:21:40 AM"	Unknown	45.98425	01/14/0117 10:22.29	00002759	16.637	Inter613t1-0	0.903	1	2	0.000	11.111	5.3	0.143	0.000	D	F	1861.7	0.788	0.193	-0.045	1504.496	1055.440	0.026	-	0.340	0.116	-	-	-	-	-	-	-	PAVEMENT_GENERAL	Urban	F	1011101000011101	0000000000000000	-	car	809.029	-495.955	0.000	0.000	180.000	696.000	987.000	-0.000	Terminate	
"student20mode3"	"Tanvi_6"	"Feb 14, 2017 10:21:40 AM"	Unknown	46.98427	01/14/0117 10:22.30	00002819	16.740	Inter613t1-0	1.166	1	2	0.000	11.111	-5.4	0.141	0.000	D	F	1861.2	0.747	0.194	0.039	1504.759	1072.129	0.026	-	-0.247	0.094	-	-	-	11	11.911	199.387	130.677	PAVEMENT_GENERAL	Urban	F	1011101000011101	0000000000000000	-	car	810.868	-411.771	0.000	0.000	180.000	696.000	987.000	-0.000	Terminate	
"student20mode3"	"Tanvi_6"	"Feb 14, 2017 10:21:40 AM"	Unknown	47.98429	01/14/0117 10:22.31	00002879	16.827	Inter613t1-0	1.254	1	2	0.000	11.111	-2.6	0.134	0.000	D	F	1851.8	359.845	0.192	0.023	1504.847	1088.914	0.026	-	-0.184	0.060	-	-	-	11	11.658	196.169	53.554	PAVEMENT_GENERAL	Urban	F	1011101000011101	0000000000000000	-	car	812.883	-394.921	0.000	0.000	180.000	696.000	987.000	-0.000	Terminate	
"student20mode3"	"Tanvi_6"	"Feb 14, 2017 10:21:40 AM"	Unknown	48.98431	01/14/0117 10:22.32	00002939	16.820	Inter613t1-0	1.176	1	2	0.000	11.111	2.7	0.115	0.000	D	F	1833.1	359.813	0.192	-0.020	1504.769	1105.744	0.027	-	0.139	-0.026	-	-	-	-	-	-	-	PAVEMENT_GENERAL	Urban	F	1011101000011101	0000000000000000	-	car	815.080	-341.178	0.000	0.000	180.000	696.000	987.000	-0.000	Terminate	
"student20mode3"	"Tanvi_6"	"Feb 14, 2017 10:21:40 AM"	Unknown	49.98433	01/14/0117 10:22.33	00002999	16.796	Inter613t1-0	1.188	1	2	0.000	11.111	-1.5	0.118	0.000	D	F	1830.9	0.210	0.192	0.007	1504.781	1122.552	0.027	-	-0.022	-0.023	-	-	-	-	-	-	-	PAVEMENT_GENERAL	Urban	F	1011101000011101	0000000000000000	-	car	817.702	-288.237	0.000	0.000	180.000	696.000	987.000	-0.000	Terminate	
"student20mode3"	"Tanvi_6"	"Feb 14, 2017 10:21:40 AM"	Unknown	50.98435	01/14/0117 10:22.34	00003059	16.775	Inter613t1-0	1.195	1	2	0.000	11.111	-2.6	0.116	0.000	D	F	1830.0	359.765	0.192	0.020	1504.788	1139.338	0.027	-	-0.150	-0.017	-	-	-	-	-	-	-	PAVEMENT_GENERAL	Urban	F	1011101000011101	0000000000000000	-	car	820.650	-270.172	0.000	0.000	180.000	696.000	987.000	-0.000	Terminate	
"student20mode3"	"Tanvi_6"	"Feb 14, 2017 10:21:40 AM"	Unknown	51.98437	01/14/0117 10:22.35	00003119	16.754	Inter613t1-0	1.060	1	2	0.000	11.111	-2.6	0.115	0.000	D	F	1823.1	359.252	0.192	0.020	1504.653	1156.102	0.027	-	-0.154	-0.029	-	-	-	-	-	-	-	PAVEMENT_GENERAL	Urban	F	1011101000011101	0000000000000000	-	car	823.785	-256.251	0.000	0.000	180.000	696.000	987.000	-0.000	Terminate	
"student20mode3"	"Tanvi_6"	"Feb 14, 2017 10:21:40 AM"	Unknown	52.98439	01/14/0117 10:22.36	00003179	16.716	Inter613t1-0	0.770	1	2	0.000	11.111	-2.6	0.111	0.000	D	F	1819.3	358.702	0.192	0.021	1504.363	1172.834	0.027	-	-0.158	-0.036	-	-	-	-	-	-	-	PAVEMENT_GENERAL	Urban	F	1011101000011101	0000000000000000	-	car	827.089	-245.053	0.000	0.000	180.000	696.000	987.000	-0.000	Terminate	
"student20mode3"	"Tanvi_6"	"Feb 14, 2017 10:21:40 AM"	Unknown	53.98441	01/14/0117 10:22.37	00003239	16.683	Inter613t1-0	0.353	1	2	0.000	11.111	7.1	0.113	0.000	D	F	1815.9	358.595	0.192	-0.041	1503.946	1189.528	0.027	-	0.251	-0.032	-	-	-	-	-	-	-	PAVEMENT_GENERAL	Urban	F	1011101000011101	0000000000000000	-	car	830.584	-227.030	0.000	0.000	180.000	696.000	987.000	-0.000	Terminate	
"student20mode3"	"Tanvi_6"	"Feb 14, 2017 10:21:40 AM"	Unknown	54.98443	01/14/0117 10:22.38	00003299	16.514	Inter615t9-0	0.161	1	2	0.000	11.111	6.5	0.023	0.000	D	F	1625.6	0.206	0.186	-0.059	1503.755	1206.156	0.028	-	0.457	-0.418	-	-	-	-	-	-	-	PAVEMENT_GENERAL	Urban	F	1011101000011101	0000000000000000	-	car	834.598	-190.483	0.000	0.000	180.000	696.000	987.000	-0.000	Terminate	
"student20mode3"	"Tanvi_6"	"Feb 14, 2017 10:21:40 AM"	Unknown	55.98445	01/14/0117 10:22.39	00003359	15.424	Inter615t33-0	0.326	1	1	0.078	11.111	-19.8	0.000	0.197	D	F	1476.4	0.165	0.109	0.112	1503.925	1222.335	0.033	-	-0.793	-3.012	-	-	-	22	3.390	52.293	3.390	PAVEMENT_GENERAL	Urban	F	1011101000011101	0000000000000000	-	car	839.142	-192.636	0.000	0.000	180.000	696.000	987.000	-0.000	Terminate	
"student20mode3"	"Tanvi_6"	"Feb 14, 2017 10:21:40 AM"	Unknown	56.98447	01/14/0117 10:22.40	00003419	13.005	Inter615t31-0	0.979	1	1	354.672	11.111	-30.3	0.000	0.143	D	F	1256.1	354.547	0.148	0.201	1503.383	1236.489	0.033	-	-1.530	-2.337	-	-	-	22	2.935	38.173	2.935	PAVEMENT_GENERAL	Urban	F	1011101000011101	0000000000000000	-	car	842.692	-319.021	0.000	0.000	180.000	696.000	987.000	-0.000	Terminate	
"student20mode3"	"Tanvi_6"	"Feb 14, 2017 10:21:40 AM"	Unknown	57.98449	01/14/0117 10:22.41	00003479	10.862	Inter615t31-0	0.544	1	1	356.530	11.111	8.6	0.000	0.137	D	F	1048.0	350.634	0.163	-0.022	1501.758	1248.290	0.032	-	0.062	-2.164	-	-	-	22	2.424	26.328	2.424	PAVEMENT_GENERAL	Urban	F	1011101000011101	0000000000000000	-	car	844.705	-520.024	0.000	0.000	180.000	696.000	987.000	-0.000	Terminate	
"student20mode3"	"Tanvi_6"	"Feb 14, 2017 10:21:40 AM"	Unknown	58.98451	01/14/0117 10:22.42	00003539	7.499	Inter615t31-0	-0.101	1	1	356.903	11.111	36.0	0.000	0.349	D	F	702.7	354.449	0.122	-0.098	1500.496	1257.647	0.038	-	0.724	-4.518	-	-	-	22	2.252	16.888	2.252	PAVEMENT_GENERAL	Urban	F	1011101000011101	0000000000000000	-	car	846.442	-500.177	0.000	0.000	180.000	696.000	987.000	-0.000	Terminate	
"student20mode3"	"Tanvi_6"	"Feb 14, 2017 10:21:40 AM"	Unknown	59.98453	01/14/0117 10:22.43	00003599	3.480	Inter615t31-0	-0.084	1	1	356.903	11.111	30.7	0.000	0.200	D	F	477.5	358.244	0.163	-0.005	1500.223	1262.998	0.035	-	0.076	-3.043	-	-	-	22	3.313	11.531	3.313	PAVEMENT_GENERAL	Urban	F	1011101000011101	0000000000000000	-	car	847.905	-824.600	0.000	0.000	180.000	696.000	987.000	-0.000	Terminate	
"student20mode3"	"Tanvi_6"	"Feb 14, 2017 10:21:40 AM"	Unknown	60.98455	01/14/0117 10:22.44	00003659	1.872	Inter615t31-0	0.028	1	1	356.903	11.111	9.1	0.000	0.039	D	F	480.7	359.268	0.200	0.002	1500.200	1265.510	0.030	-	-0.004	-0.926	-	-	-	22	3.551	6.647	3.551	PAVEMENT_GENERAL	Urban	F	1011101000011101	0000000000000000	-	car	848.702	-1438.529	0.000	0.000	180.000	696.000	987.000	-0.000	Terminate	
"student20mode3"	"Tanvi_6"	"Feb 14, 2017 10:21:40 AM"	Unknown	61.98457	01/14/0117 10:22.45	00003719	1.416	Inter615t31-0	0.103	1	1	356.903	11.111	4.2	0.000	0.000	D	F	477.5	359.492	0.202	-0.000	1500.189	1267.096	0.028	-	0.002	-0.269	-	-	-	22	3.576	5.064	3.576	PAVEMENT_GENERAL	Urban	F	1011101000011101	0000000000000000	-	car	849.212	-1870.670	0.000	0.000	180.000	696.000	987.000	-0.000	Terminate	
"student20mode3"	"Tanvi_6"	"Feb 14, 2017 10:21:40 AM"	Unknown	62.98459	01/14/0117 10:22.46	00003779	1.192	Inter615t11-0	0.120	LT1	2	0.000	11.111	5.6	0.000	0.000	D	F	477.5	359.628	0.203	-0.000	1500.183	1268.393	0.027	-	0.002	-0.187	-	-	-	22	5.145	6.133	5.145	PAVEMENT_GENERAL	Urban	F	1011101000011101	0000000000000000	-	car	849.633	-2199.215	0.000	0.000	180.000	696.000	987.000	-0.000	Terminate	
"student20mode3"	"Tanvi_6"	"Feb 14, 2017 10:21:40 AM"	Unknown	63.98461	01/14/0117 10:22.47	00003839	1.034	Inter615t11-0	0.117	LT1	2	0.000	11.111	4.2	0.000	0.000	D	F	477.5	359.745	0.203	-0.000	1500.180	1269.502	0.027	-	0.002	-0.133	-	-	-	22	4.869	5.033	6.037	PAVEMENT_GENERAL	Urban	F	1011101000011101	0000000000000000	-	car	849.997	-2512.749	0.000	0.000	180.000	696.000	987.000	-0.000	Terminate	
"student20mode3"	"Tanvi_6"	"Feb 14, 2017 10:21:40 AM"	Unknown	64.98463	01/14/0117 10:22.48	00003899	0.922	Inter615t11-0	0.116	LT1	2	0.000	11.111	3.7	0.000	0.000	D	F	477.5	359.827	0.204	0.000	1500.178	1270.476	0.027	-	0.001	-0.093	-	-	-	22	5.683	5.241	-	PAVEMENT_GENERAL	Urban	F	1011101000011101	0000000000000000	-	car	850.320	-2797.273	0.000	0.000	180.000	696.000	987.000	-0.000	Terminate	
"student20mode3"	"Tanvi_6"	"Feb 14, 2017 10:21:40 AM"	Unknown	65.98465	01/14/0117 10:22.49	00003959	0.855	Inter615t11-0	0.116	LT1	2	0.000	11.111	2.6	0.021	0.000	D	F	551.6	359.891	0.207	0.000	1500.178	1271.358	0.027	-	0.000	0.044	-	-	-	22	8.824	7.544	-	PAVEMENT_GENERAL	Urban	F	1011101000011101	0000000000000000	-	car	850.613	-3000.603	0.000	0.000	180.000	696.000	987.000	-0.000	Terminate	
"student20mode3"	"Tanvi_6"	"Feb 14, 2017 10:21:40 AM"	Unknown	66.98467	01/14/0117 10:22.50	00004019	1.624	Inter615t11-0	0.114	LT1	2	0.000	11.111	-0.8	0.046	0.000	D	F	932.2	359.910	0.208	0.000	1500.177	1272.528	0.022	-	-0.007	0.968	-	-	-	22	7.148	11.608	-	PAVEMENT_GENERAL	Urban	F	1011101000011101	0000000000000000	-	car	851.002	-1573.094	0.000	0.000	180.000	696.000	987.000	-0.000	Terminate	
"student20mode3"	"Tanvi_6"	"Feb 14, 2017 10:21:40 AM"	Unknown	67.98470	01/14/0117 10:22.51	00004079	2.985	Inter615t11-0	0.103	LT1	2	0.000	11.111	-5.1	0.104	0.000	D	F	1353.1	359.745	0.208	0.003	1500.166	1274.717	0.018	-	-0.030	1.825	-	-	-	22	5.564	16.607	-	PAVEMENT_GENERAL	Urban	F	1011101000011101	0000000000000000	-	car	851.727	-857.811	0.000	0.000	180.000	696.000	987.000	-0.000	Terminate	
"student20mode3"	"Tanvi_6"	"Feb 14, 2017 10:21:40 AM"	Unknown	68.98471	01/14/0117 10:22.52	00004139	4.458	Inter615t11-0	0.055	LT1	2	0.000	11.111	-12.0	0.106	0.000	D	F	1512.8	359.165	0.211	0.014	1500.118	1278.495	0.020	-	-0.106	1.173	-	-	-	22	4.917	21.917	-	PAVEMENT_GENERAL	Urban	F	1011101000011101	0000000000000000	-	car	852.962	-585.023	0.000	0.000	180.000	696.000	987.000	-0.000	Terminate	
"student20mode3"	"Tanvi_6"	"Feb 14, 2017 10:21:40 AM"	Unknown	69.98473	01/14/0117 10:22.53	00004199	5.465	Inter615t65-0	-0.060	1	1	352.796	11.111	-41.7	0.097	0.000	D	F	1463.6	356.770	0.213	0.067	1499.905	1283.469	0.022	-	-0.488	0.902	-	-	-	22	5.107	27.911	-	PAVEMENT_GENERAL	Urban	F	1011101000011101	0000000000000000	-	car	854.470	-534.352	0.000	0.000	180.000	696.000	987.000	-0.000	Terminate	
"student20mode3"	"Tanvi_6"	"Feb 14, 2017 10:21:40 AM"	Unknown	70.98476	01/14/0117 10:22.54	00004259	6.197	Inter615t65-0	0.610	1	1	337.790	11.111	-70.5	0.099	0.000	D	F	1383.6	350.266	0.205	0.126	1499.130	1289.264	0.023	-	-0.953	0.644	-	-	-	22	5.499	34.077	-	PAVEMENT_GENERAL	Urban	F	1011101000011101	0000000000000000	-	car	855.767	-730.922	0.000	0.000	180.000	696.000	987.000	-0.000	Terminate	
"student20mode3"	"Tanvi_6"	"Feb 14, 2017 10:21:40 AM"	Unknown	71.98477	01/14/0117 10:22.55	00004319	6.784	-Inter615t59-0	0.928	-1	1	89.733	11.111	-114.0	0.092	0.000	D	F	1393.1	338.917	0.195	0.248	1497.226	1295.475	0.024	-	-1.840	0.407	-	-	-	22	6.479	43.957	-	PAVEMENT_GENERAL	Urban	F	1011101000011101	0000000000000000	-	car	856.197	274412.750	0.000	0.000	180.000	696.000	987.000	-0.000	Terminate	
"student20mode3"	"Tanvi_6"	"Feb 14, 2017 10:21:40 AM"	Unknown	72.98479	01/14/0117 10:22.56	00004379	7.228	-Inter615t85-0	-0.744	-1	1	179.883	11.111	-126.4	0.092	0.000	D	F	1419.1	323.081	0.191	0.302	1493.567	1301.441	0.025	-	-2.273	0.299	-	-	-	-	-	-	-	PAVEMENT_GENERAL	Urban	F	1011101000011101	0000000000000000	-	car	854.953	445.320	0.000	0.000	180.000	696.000	987.000	-0.000	Terminate	
"student20mode3"	"Tanvi_6"	"Feb 14, 2017 10:21:40 AM"	Unknown	73.98481	01/14/0117 10:22.57	00004439	7.570	Inter615t77-0	-0.935	1	1	269.734	11.111	-141.7	0.092	0.000	D	F	1436.0	303.238	0.182	0.356	1487.955	1306.225	0.026	-	-2.731	0.205	-	-	-	22	8.736	66.128	-	PAVEMENT_GENERAL	Urban	F	1011101000011101	0000000000000000	-	car	851.513	197.062	0.000	0.000	180.000	696.000	987.000	-0.000	Terminate	
"student20mode3"	"Tanvi_6"	"Feb 14, 2017 10:21:40 AM"	Unknown	74.98483	01/14/0117 10:22.58	00004499	7.840	Inter615t3-4	1.675	2	2	270.000	11.111	-139.3	0.090	0.000	D	F	1447.7	281.621	0.177	0.369	1480.730	1308.806	0.026	-	-2.853	0.157	-	-	-	-	-	-	-	PAVEMENT_GENERAL	Urban	F	1011101000011101	0000000000000000	-	car	845.792	130.004	0.000	0.000	180.000	696.000	987.000	-0.000	Terminate	
"student20mode3"	"Tanvi_6"	"Feb 14, 2017 10:21:40 AM"	Unknown	75.98486	01/14/0117 10:22.59	00004559	8.141	-	-	SH	2	-	-	-64.5	0.088	0.000	D	F	1468.8	266.464	0.195	0.179	1472.752	1308.983	0.025	-	-1.381	0.278	-	-	-	-	-	-	-	PAVEMENT_GENERAL	Urban	F	1011101000011101	0000000000000000	-	car	838.483	108.921	0.000	0.000	180.000	696.000	987.000	-0.000	Terminate	
"student20mode3"	"Tanvi_6"	"Feb 14, 2017 10:21:40 AM"	Unknown	76.98487	01/14/0117 10:23.00	00004619	8.454	Inter615t17-0	0.951	1	1	270.070	11.111	39.8	0.085	0.000	D	F	1489.7	264.272	0.201	-0.154	1464.503	1308.085	0.025	-	0.948	0.250	-	-	-	-	-	-	-	PAVEMENT_GENERAL	Urban	F	1011101000011101	0000000000000000	-	car	830.523	102.705	0.000	0.000	180.000	696.000	987.000	-0.000	Terminate	
"student20mode3"	"Tanvi_6"	"Feb 14, 2017 10:21:40 AM"	Unknown	77.98489	01/14/0117 10:23.01	00004679	8.727	Inter615t17-0	0.535	1	1	270.097	11.111	3.0	0.088	0.000	D	F	1313.6	268.475	0.203	-0.001	1455.916	1307.678	0.025	-	0.080	0.238	-	-	-	-	-	-	-	PAVEMENT_GENERAL	Urban	F	1011101000011101	0000000000000000	-	car	822.448	101.184	0.000	0.000	180.000	696.000	987.000	-0.000	Terminate	
"student20mode3"	"Tanvi_6"	"Feb 14, 2017 10:21:40 AM"	Unknown	78.98492	01/14/0117 10:23.02	00004739	8.953	Inter615t17-0	0.304	1	1	270.103	11.111	0.7	0.092	0.000	D	F	1326.8	268.612	0.203	-0.002	1447.079	1307.460	0.025	-	0.016	0.232	-	-	-	-	-	-	-	PAVEMENT_GENERAL	Urban	F	1011101000011101	0000000000000000	-	car	814.227	97.896	0.000	0.000	180.000	696.000	987.000	-0.000	Terminate	
"student20mode3"	"Tanvi_6"	"Feb 14, 2017 10:21:40 AM"	Unknown	79.98493	01/14/0117 10:23.03	00004799	9.240	Inter615t17-0	0.080	1	1	270.074	11.111	1.4	0.102	0.000	D	F	1380.1	268.797	0.204	-0.006	1437.990	1307.253	0.025	-	0.039	0.305	-	-	-	-	-	-	-	PAVEMENT_GENERAL	Urban	F	1011101000011101	0000000000000000	-	car	805.794	94.149	0.000	0.000	180.000	696.000	987.000	-0.000	Terminate	
"student20mode3"	"Tanvi_6"	"Feb 14, 2017 10:21:40 AM"	Unknown	80.98495	01/14/0117 10:23.04	00004859	9.591	Inter615t17-0	-0.145	1	1	270.061	11.111	-0.6	0.131	0.000	D	F	1468.9	268.577	0.203	0.003	1428.594	1307.042	0.024	-	-0.025	0.434	-	-	-	-	-	-	-	PAVEMENT_GENERAL	Urban	F	1011101000011101	0000000000000000	-	car	797.090	89.749	0.000	0.000	180.000	696.000	987.000	-0.000	Terminate	
"student20mode3"	"Tanvi_6"	"Feb 14, 2017 10:21:40 AM"	Unknown	81.98497	01/14/0117 10:23.05	00004919	10.004	Inter615t17-0	-0.394	1	1	270.061	11.111	0.8	0.125	0.000	D	F	1472.3	268.663	0.204	-0.003	1418.795	1306.804	0.025	-	0.023	0.385	-	-	-	-	-	-	-	PAVEMENT_GENERAL	Urban	F	1011101000011101	0000000000000000	-	car	788.024	85.280	0.000	0.000	180.000	696.000	987.000	-0.000	Terminate	
"student20mode3"	"Tanvi_6"	"Feb 14, 2017 10:21:40 AM"	Unknown	82.98499	01/14/0117 10:23.06	00004979	10.385	Inter615t1-3	-0.625	2	2	270.000	11.111	0.2	0.127	0.000	D	F	1488.1	268.731	0.203	-0.001	1408.601	1306.575	0.025	-	0.005	0.367	-	-	-	-	-	-	-	PAVEMENT_GENERAL	Urban	F	1011101000011101	0000000000000000	-	car	778.619	81.379	0.000	0.000	180.000	696.000	987.000	-0.000	Terminate	
"student20mode3"	"Tanvi_6"	"Feb 14, 2017 10:21:40 AM"	Unknown	83.98502	01/14/0117 10:23.07	00005039	10.739	Inter616t1-3	-0.864	2	2	270.000	11.111	-1.4	0.129	0.000	D	F	1508.9	268.752	0.203	0.004	1398.040	1306.343	0.025	-	-0.033	0.352	-	-	-	-	-	-	-	PAVEMENT_GENERAL	Urban	F	1011101000011101	0000000000000000	-	car	768.899	77.907	0.000	0.000	180.000	696.000	987.000	-0.000	Terminate	
"student20mode3"	"Tanvi_6"	"Feb 14, 2017 10:21:40 AM"	Unknown	84.98503	01/14/0117 10:23.08	00005099	11.179	Inter616t1-3	-1.135	2	2	270.000	11.111	3.7	0.182	0.000	D	F	1674.5	268.603	0.207	-0.018	1387.109	1306.072	0.024	-	0.121	0.617	-	-	-	22	16.076	179.721	-	PAVEMENT_GENERAL	Urban	F	1011101000011101	0000000000000000	-	car	758.849	73.955	0.000	0.000	180.000	696.000	987.000	-0.000	Terminate	
"student20mode3"	"Tanvi_6"	"Feb 14, 2017 10:21:40 AM"	Unknown	85.98505	01/14/0117 10:23.09	00005159	11.873	Inter616t1-3	-1.362	2	2	270.000	11.111	0.7	0.187	0.000	D	F	1720.1	269.048	0.204	-0.007	1375.588	1305.845	0.023	-	0.046	0.663	-	-	-	22	15.586	185.057	-	PAVEMENT_GENERAL	Urban	F	1011101000011101	0000000000000000	-	car	748.308	69.086	0.000	0.000	180.000	696.000	987.000	-0.000	Terminate	
"student20mode3"	"Tanvi_6"	"Feb 14, 2017 10:21:40 AM"	Unknown	86.98507	01/14/0117 10:23.10	00005219	12.484	Inter616t1-3	-1.606	2	2	270.000	11.111	-3.5	0.185	0.000	D	F	1736.0	268.501	0.203	0.020	1363.406	1305.601	0.024	-	-0.159	0.577	-	-	-	22	15.154	189.177	-	PAVEMENT_GENERAL	Urban	F	1011101000011101	0000000000000000	-	car	737.192	64.651	0.000	0.000	180.000	696.000	987.000	-0.000	Terminate	
"student20mode3"	"Tanvi_6"	"Feb 14, 2017 10:21:40 AM"	Unknown	87.98509	01/14/0117 10:23.11	00005279	13.040	Inter616t1-2	1.609	1	2	270.000	11.111	6.5	0.187	0.000	D	F	1759.4	268.249	0.202	-0.032	1350.646	1305.215	0.024	-	0.193	0.532	-	-	-	22	14.558	189.833	-	PAVEMENT_GENERAL	Urban	F	1011101000011101	0000000000000000	-	car	725.530	60.988	0.000	0.000	180.000	696.000	987.000	-0.000	Terminate	
"student20mode3"	"Tanvi_6"	"Feb 14, 2017 10:21:40 AM"	Unknown	88.98512	01/14/0117 10:23.12	00005339	13.469	Inter616t1-2	1.356	1	2	270.000	11.111	5.3	0.134	0.000	D	F	1643.3	269.520	0.196	-0.034	1337.365	1304.963	0.025	-	0.252	0.225	-	-	-	22	14.244	191.857	-	PAVEMENT_GENERAL	Urban	F	1011101000011101	0000000000000000	-	car	713.496	58.884	0.000	0.000	180.000	696.000	987.000	-0.000	Terminate	
"student20mode3"	"Tanvi_6"	"Feb 14, 2017 10:21:40 AM"	Unknown	89.98513	01/14/0117 10:23.13	00005399	13.659	Inter616t1-2	1.311	1	2	270.000	11.111	-0.4	0.131	0.000	D	F	1636.7	269.902	0.198	0.003	1323.796	1304.918	0.026	-	-0.014	0.170	-	-	-	22	14.148	193.258	-	PAVEMENT_GENERAL	Urban	F	1011101000011101	0000000000000000	-	car	701.345	57.503	0.000	0.000	180.000	696.000	987.000	-0.000	Terminate	
"student20mode3"	"Tanvi_6"	"Feb 14, 2017 10:21:40 AM"	Unknown	90.98515	01/14/0117 10:23.14	00005459	13.822	Inter616t1-2	1.282	1	2	270.000	11.111	0.1	0.125	0.000	D	F	1633.2	269.864	0.197	-0.000	1310.052	1304.888	0.026	-	0.002	0.143	-	-	-	22	14.052	194.230	-	PAVEMENT_GENERAL	Urban	F	1011101000011101	0000000000000000	-	car	689.097	56.071	0.000	0.000	180.000	696.000	987.000	-0.000	Terminate	
"student20mode3"	"Tanvi_6"	"Feb 14, 2017 10:21:40 AM"	Unknown	91.98518	01/14/0117 10:23.15	00005519	13.975	Inter616t1-2	1.251	1	2	270.000	11.111	-0.4	0.132	0.000	D	F	1661.3	269.882	0.198	0.001	1296.156	1304.858	0.026	-	-0.008	0.169	-	-	-	22	13.941	194.834	-	PAVEMENT_GENERAL	Urban	F	1011101000011101	0000000000000000	-	car	676.772	54.739	0.000	0.000	180.000	696.000	987.000	-0.000	Terminate	
"student20mode3"	"Tanvi_6"	"Feb 14, 2017 10:21:40 AM"	Unknown	92.98519	01/14/0117 10:23.16	00005579	14.144	Inter616t1-2	1.209	1	2	270.000	11.111	-0.0	0.132	0.000	D	F	1671.3	269.800	0.198	0.000	1282.095	1304.816	0.026	-	-0.003	0.166	-	-	-	22	13.793	195.094	-	PAVEMENT_GENERAL	Urban	F	1011101000011101	0000000000000000	-	car	664.360	53.330	0.000	0.000	180.000	696.000	987.000	-0.000	Terminate	
"student20mode3"	"Tanvi_6"	"Feb 14, 2017 10:21:40 AM"	Unknown	93.98521	01/14/0117 10:23.17	00005639	14.336	Inter616t1-2	1.141	1	2	270.000	11.111	-2.4	0.145	0.000	D	F	1711.7	269.546	0.197	0.015	1267.865	1304.748	0.025	-	-0.115	0.232	-	-	-	22	13.604	195.031	767.754	PAVEMENT_GENERAL	Urban	F	1011101000011101	0000000000000000	-	car	651.853	51.790	0.000	0.000	180.000	696.000	987.000	-0.000	Terminate	
"student20mode3"	"Tanvi_6"	"Feb 14, 2017 10:21:40 AM"	Unknown	94.98523	01/14/0117 10:23.18	00005699	14.559	Inter616t1-2	0.976	1	2	270.000	11.111	0.1	0.162	0.000	D	F	1769.8	269.145	0.199	0.008	1253.427	1304.583	0.025	-	-0.048	0.294	-	-	-	22	13.369	194.635	347.372	PAVEMENT_GENERAL	Urban	F	1011101000011101	0000000000000000	-	car	639.188	50.108	0.000	0.000	180.000	696.000	987.000	-0.000	Terminate	
"student20mode3"	"Tanvi_6"	"Feb 14, 2017 10:21:40 AM"	Unknown	95.98525	01/14/0117 10:23.19	00005759	14.947	Inter616t1-2	0.854	1	2	270.000	11.111	5.8	0.185	0.000	D	F	1851.3	270.202	0.198	-0.045	1238.688	1304.461	0.024	-	0.344	0.430	-	-	-	22	12.968	193.831	180.625	PAVEMENT_GENERAL	Urban	F	1011101000011101	0000000000000000	-	car	626.363	48.650	0.000	0.000	180.000	696.000	987.000	-0.000	Terminate	
"student20mode3"	"Tanvi_6"	"Feb 14, 2017 10:21:40 AM"	Unknown	96.98528	01/14/0117 10:23.20	00005819	15.223	Inter616t1-2	0.992	1	2	270.000	11.111	0.8	0.160	0.000	D	F	1796.7	270.704	0.197	-0.006	1223.593	1304.599	0.025	-	0.041	0.257	-	-	-	22	12.669	192.869	626.602	PAVEMENT_GENERAL	Urban	F	1011101000011101	0000000000000000	-	car	613.452	47.389	0.000	0.000	180.000	696.000	987.000	-0.000	Terminate	
"student20mode3"	"Tanvi_6"	"Feb 14, 2017 10:21:40 AM"	Unknown	97.98529	01/14/0117 10:23.21	00005879	15.506	Inter616t1-2	1.188	1	2	270.000	11.111	-0.8	0.153	0.000	D	F	1800.1	270.691	0.195	0.008	1208.235	1304.795	0.025	-	-0.048	0.241	-	-	-	22	12.474	193.410	-	PAVEMENT_GENERAL	Urban	F	1011101000011101	0000000000000000	-	car	600.449	45.919	0.000	0.000	180.000	696.000	987.000	-0.000	Terminate	
"student20mode3"	"Tanvi_6"	"Feb 14, 2017 10:21:40 AM"	Unknown	98.98531	01/14/0117 10:23.22	00005939	15.575	Inter617t1-2	1.390	1	2	270.000	11.111	0.3	0.118	0.000	D	F	1737.0	270.857	0.194	-0.004	1192.682	1304.997	0.026	-	0.039	0.035	-	-	-	-	-	-	-	PAVEMENT_GENERAL	Urban	F	1011101000011101	0000000000000000	-	car	587.399	45.221	0.000	0.000	180.000	696.000	987.000	-0.000	Terminate	
"student20mode3"	"Tanvi_6"	"Feb 14, 2017 10:21:40 AM"	Unknown	99.98534	01/14/0117 10:23.23	00005999	15.637	Inter617t1-2	1.585	1	2	270.000	11.111	-6.8	0.125	0.000	D	F	1753.9	270.250	0.195	0.048	1177.079	1305.191	0.026	-	-0.360	0.063	-	-	-	-	-	-	-	PAVEMENT_GENERAL	Urban	F	1011101000011101	0000000000000000	-	car	574.427	44.171	0.000	0.000	180.000	696.000	987.000	-0.000	Terminate	
"student20mode3"	"Tanvi_6"	"Feb 14, 2017 10:21:40 AM"	Unknown	100.98535	01/14/0117 10:23.24	00006059	15.721	Inter617t1-2	1.495	1	2	270.000	11.111	-1.7	0.139	0.000	D	F	1782.4	269.216	0.195	0.014	1161.405	1305.102	0.026	-	-0.119	0.110	-	-	-	-	-	-	-	PAVEMENT_GENERAL	Urban	F	1011101000011101	0000000000000000	-	car	561.370	42.854	0.000	0.000	180.000	696.000	987.000	-0.000	Terminate	
"student20mode3"	"Tanvi_6"	"Feb 14, 2017 10:21:40 AM"	Unknown	101.98537	01/14/0117 10:23.25	00006119	15.837	Inter617t1-2	1.250	1	2	270.000	11.111	9.6	0.125	0.000	D	F	1770.3	269.269	0.194	-0.055	1145.628	1304.857	0.026	-	0.376	0.089	-	-	-	-	-	-	-	PAVEMENT_GENERAL	Urban	F	1011101000011101	0000000000000000	-	car	548.275	42.021	0.000	0.000	180.000	696.000	987.000	-0.000	Terminate	
"student20mode3"	"Tanvi_6"	"Feb 14, 2017 10:21:40 AM"	Unknown	102.98539	01/14/0117 10:23.26	00006179	15.517	Inter617t1-2	1.298	1	2	270.000	11.111	0.1	0.005	0.000	D	F	1523.1	270.967	0.185	-0.018	1129.892	1304.905	0.029	-	0.162	-0.557	-	-	-	-	-	-	-	PAVEMENT_GENERAL	Urban	F	1011101000011101	0000000000000000	-	car	535.531	43.327	0.000	0.000	180.000	696.000	987.000	-0.000	Terminate	
"student20mode3"	"Tanvi_6"	"Feb 14, 2017 10:21:40 AM"	Unknown	103.98541	01/14/0117 10:23.27	00006239	14.994	Inter617t1-2	1.516	1	2	270.000	11.111	-2.6	0.016	0.000	D	F	1474.1	270.549	0.189	0.020	1114.648	1305.122	0.029	-	-0.160	-0.480	-	-	-	-	-	-	-	PAVEMENT_GENERAL	Urban	F	1011101000011101	0000000000000000	-	car	523.443	44.170	0.000	0.000	180.000	696.000	987.000	-0.000	Terminate	
"student20mode3"	"Tanvi_6"	"Feb 14, 2017 10:21:40 AM"	Unknown	104.98544	01/14/0117 10:23.28	00006299	14.466	Inter617t1-2	1.581	1	2	270.000	11.111	-2.3	0.005	0.000	D	F	1421.3	269.926	0.190	0.019	1099.915	1305.188	0.029	-	-0.149	-0.538	-	-	-	-	-	-	-	PAVEMENT_GENERAL	Urban	F	1011101000011101	0000000000000000	-	car	511.830	44.997	0.000	0.000	180.000	696.000	987.000	-0.000	Terminate	
"student20mode3"	"Tanvi_6"	"Feb 14, 2017 10:21:40 AM"	Unknown	105.98545	01/14/0117 10:23.29	00006359	13.462	Inter617t1-2	1.511	1	2	270.000	11.111	-1.2	0.004	0.003	D	F	1323.5	269.516	0.205	0.009	1085.866	1305.118	0.031	-	-0.082	-0.598	-	-	-	-	-	-	-	PAVEMENT_GENERAL	Urban	F	1111101000011101	0000000000000000	-	car	500.825	47.689	0.000	0.000	180.000	696.000	987.000	-0.000	Terminate	
"student20mode3"	"Tanvi_6"	"Feb 14, 2017 10:21:40 AM"	Unknown	106.98547	01/14/0117 10:23.30	00006419	12.940	Inter617t1-2	1.369	1	2	270.000	11.111	-1.1	0.000	0.000	D	F	1271.1	269.241	0.192	0.008	1072.667	1304.975	0.029	-	-0.060	-0.520	-	-	-	-	-	-	-	PAVEMENT_GENERAL	Urban	F	1011101000011101	0000000000000000	-	car	490.577	49.070	0.000	0.000	180.000	696.000	987.000	-0.000	Terminate	
"student20mode3"	"Tanvi_6"	"Feb 14, 2017 10:21:40 AM"	Unknown	107.98550	01/14/0117 10:23.31	00006479	12.014	Inter617t1-2	1.184	1	2	270.000	11.111	0.2	0.004	0.087	D	F	1167.6	269.135	0.174	-0.001	1060.072	1304.791	0.031	-	0.005	-1.511	-	-	-	-	-	-	-	PAVEMENT_GENERAL	Urban	F	1011101000011101	0000000000000000	-	car	480.900	52.445	0.000	0.000	180.000	696.000	987.000	-0.000	Terminate	
"student20mode3"	"Tanvi_6"	"Feb 14, 2017 10:21:40 AM"	Unknown	108.98551	01/14/0117 10:23.32	00006539	10.323	Inter617t1-2	1.022	1	2	270.000	11.111	0.9	0.000	0.113	D	F	998.8	269.241	0.171	-0.004	1048.851	1304.629	0.032	-	0.030	-1.903	-	-	-	-	-	-	-	PAVEMENT_GENERAL	Urban	F	1011101000011101	0000000000000000	-	car	472.395	60.851	0.000	0.000	180.000	696.000	987.000	-0.000	Terminate	
"student20mode3"	"Tanvi_6"	"Feb 14, 2017 10:21:40 AM"	Unknown	109.98553	01/14/0117 10:23.33	00006599	8.711	Inter617t1-2	0.910	1	2	270.000	11.111	0.9	0.004	0.107	D	F	843.7	269.392	0.170	-0.003	1039.352	1304.517	0.031	-	0.023	-1.769	-	-	-	-	-	-	-	PAVEMENT_GENERAL	Urban	F	1011101000011101	0000000000000000	-	car	465.302	72.048	0.000	0.000	180.000	696.000	987.000	-0.000	Terminate	
"student20mode3"	"Tanvi_6"	"Feb 14, 2017 10:21:40 AM"	Unknown	110.98555	01/14/0117 10:23.34	00006659	7.407	Inter617t1-2	0.837	1	2	270.000	11.111	0.8	0.004	0.000	D	F	730.2	269.524	0.200	-0.002	1031.439	1304.444	0.028	-	0.015	-0.441	-	-	-	-	-	-	-	PAVEMENT_GENERAL	Urban	F	1011101000011101	0000000000000000	-	car	459.474	84.743	0.000	0.000	180.000	696.000	987.000	-0.000	Terminate	
"student20mode3"	"Tanvi_6"	"Feb 14, 2017 10:21:40 AM"	Unknown	111.98557	01/14/0117 10:23.35	00006719	7.027	Inter617t1-2	0.786	1	2	270.000	11.111	2.0	0.056	0.000	D	F	1051.4	269.630	0.203	-0.004	1024.241	1304.393	0.028	-	0.037	-0.124	-	-	-	-	-	-	-	PAVEMENT_GENERAL	Urban	F	1011101000011101	0000000000000000	-	car	454.237	89.365	0.000	0.000	180.000	696.000	987.000	-0.000	Terminate	
"student20mode3"	"Tanvi_6"	"Feb 14, 2017 10:21:40 AM"	Unknown	112.98560	01/14/0117 10:23.36	00006779	7.221	Inter617t1-2	0.787	1	2	270.000	11.111	5.4	0.088	0.000	D	F	1246.8	270.292	0.205	-0.009	1017.139	1304.394	0.025	-	0.087	0.289	-	-	-	-	-	-	-	PAVEMENT_GENERAL	Urban	F	1011101000011101	0000000000000000	-	car	449.159	87.902	0.000	0.000	180.000	696.000	987.000	-0.000	Terminate	
"student20mode3"	"Tanvi_6"	"Feb 14, 2017 10:21:40 AM"	Unknown	113.98561	01/14/0117 10:23.37	00006839	7.502	Inter617t1-2	0.871	1	2	270.000	11.111	4.6	0.090	0.000	D	F	1275.7	270.777	0.206	-0.015	1009.776	1304.478	0.025	-	0.089	0.322	-	-	-	-	-	-	-	PAVEMENT_GENERAL	Urban	F	1011101000011101	0000000000000000	-	car	444.012	85.376	0.000	0.000	180.000	696.000	987.000	-0.000	Terminate	
"student20mode3"	"Tanvi_6"	"Feb 14, 2017 10:21:40 AM"	Unknown	114.98563	01/14/0117 10:23.38	00006899	7.922	Inter617t1-2	1.027	1	2	270.000	11.111	2.0	0.129	0.000	D	F	1413.4	271.313	0.208	-0.006	1002.091	1304.634	0.024	-	0.040	0.549	-	-	-	32	3.200	25.350	-	PAVEMENT_GENERAL	Urban	F	1011101000011101	0000000000000000	-	car	438.756	81.785	0.000	0.000	180.000	696.000	987.000	-0.000	Terminate	
"student20mode3"	"Tanvi_6"	"Feb 14, 2017 10:21:40 AM"	Unknown	115.98566	01/14/0117 10:23.39	00006959	8.419	Inter618t1-0	0.535	1	2	270.000	24.444	9.5	0.106	0.000	D	F	1372.1	271.573	0.262	-0.047	993.909	1304.835	0.026	-	0.204	0.420	-	-	-	32	3.673	30.925	-	FREEWAY_SMOOTH	Urban	F	1011101000011101	0000000000000000	-	car	433.265	77.552	0.000	0.000	180.000	696.000	987.000	-0.000	Terminate	
"student20mode3"	"Tanvi_6"	"Feb 14, 2017 10:21:40 AM"	Unknown	116.98567	01/14/0117 10:23.40	00007019	8.790	Inter618t1-0	0.899	1	2	269.897	24.444	-0.8	0.108	0.000	D	F	1386.5	272.796	0.284	-0.132	985.312	1305.193	0.036	-	-0.014	0.385	-	-	-	32	4.065	35.729	-	FREEWAY_SMOOTH	Urban	F	1011101000011101	0000000000000000	-	car	427.697	76.526	0.000	0.000	180.000	696.000	987.000	-0.000	Terminate	
"student20mode3"	"Tanvi_6"	"Feb 14, 2017 10:21:40 AM"	Unknown	117.98569	01/14/0117 10:23.41	00007079	9.159	Inter618t1-0	1.302	1	2	269.641	24.444	-10.8	0.109	0.000	D	F	1407.5	271.882	0.290	-0.224	976.344	1305.564	0.050	-	-0.279	0.374	-	-	-	31	4.325	39.613	-	FREEWAY_SMOOTH	Urban	F	1011101000011101	0000000000000000	-	car	421.994	72.486	0.000	0.000	180.000	696.000	987.000	-0.000	Terminate	
"student20mode3"	"Tanvi_6"	"Feb 14, 2017 10:21:40 AM"	Unknown	118.98571	01/14/0117 10:23.42	00007139	9.507	Inter618t1-0	1.523	1	2	269.202	24.444	-10.8	0.108	0.000	D	F	1417.3	270.070	0.288	-0.355	967.009	1305.694	0.064	-	-0.304	0.341	-	-	-	31	4.891	46.499	-	FREEWAY_SMOOTH	Urban	F	1011101000011101	0000000000000000	-	car	415.984	67.644	0.000	0.000	180.000	696.000	987.000	-0.000	Terminate	
"student20mode3"	"Tanvi_6"	"Feb 14, 2017 10:21:40 AM"	Unknown	119.98573	01/14/0117 10:23.43	00007199	9.914	Inter618t1-0	1.536	1	2	268.563	24.444	-6.3	0.157	0.000	D	F	1561.4	268.357	0.284	-0.503	957.322	1305.523	0.076	-	-0.211	0.609	-	-	-	31	5.428	53.816	-	FREEWAY_SMOOTH	Urban	F	1011101000011101	0000000000000000	-	car	409.643	62.969	0.000	0.000	180.000	696.000	987.000	-0.000	Terminate	
"student20mode3"	"Tanvi_6"	"Feb 14, 2017 10:21:40 AM"	Unknown	120.98576	01/14/0117 10:23.44	00007259	10.573	Inter618t1-0	1.456	1	2	267.693	24.444	-5.5	0.180	0.000	D	F	1646.7	267.314	0.281	-0.647	947.101	1305.117	0.089	-	-0.203	0.690	-	-	-	31	5.768	60.985	-	FREEWAY_SMOOTH	Urban	F	1011101000011101	0000000000000000	-	car	402.918	58.123	0.000	0.000	180.000	696.000	987.000	-0.000	Terminate	
"student20mode3"	"Tanvi_6"	"Feb 14, 2017 10:21:40 AM"	Unknown	121.98577	01/14/0117 10:23.46	00007319	11.248	Inter618t1-0	1.369	1	2	266.533	24.444	-1.8	0.183	0.000	D	F	1678.7	266.444	0.286	-0.811	936.206	1304.490	0.103	-	-0.105	0.662	-	-	-	31	6.017	67.677	-	FREEWAY_SMOOTH	Urban	F	1111101000011101	0000000000000000	-	car	395.760	53.994	0.000	0.000	180.000	696.000	987.000	-0.000	Terminate	
"student20mode3"	"Tanvi_6"	"Feb 14, 2017 10:21:40 AM"	Unknown	122.98579	01/14/0117 10:23.47	00007379	11.886	Inter618t1-0	1.407	1	2	265.071	24.444	-2.9	0.183	0.000	D	F	1703.0	265.787	0.293	-0.964	924.663	1303.693	0.119	-	-0.159	0.620	-	-	-	31	6.198	73.667	-	FREEWAY_SMOOTH	Urban	F	1011101000011101	0000000000000000	-	car	388.257	50.772	0.000	0.000	180.000	696.000	987.000	-0.000	Terminate	
"student20mode3"	"Tanvi_6"	"Feb 14, 2017 10:21:40 AM"	Unknown	123.98581	01/14/0117 10:23.48	00007439	12.522	Inter618t1-0	1.627	1	2	263.234	24.444	-9.6	0.194	0.000	D	F	1764.3	264.780	0.308	-1.091	912.506	1302.683	0.140	-	-0.408	0.640	-	-	-	31	6.274	78.565	-	FREEWAY_SMOOTH	Urban	F	1011101000011101	0000000000000000	-	car	380.434	47.597	0.000	0.000	180.000	696.000	987.000	-0.000	Terminate	
"student20mode3"	"Tanvi_6"	"Feb 14, 2017 10:21:40 AM"	Unknown	124.98583	01/14/0117 10:23.49	00007499	13.197	Inter618t1-1	-1.666	2	2	261.007	24.444	-10.8	0.219	0.000	D	F	1848.7	262.574	0.318	-1.258	899.736	1301.245	0.164	-	-0.539	0.729	-	-	-	31	6.493	85.685	-	FREEWAY_SMOOTH	Urban	F	1011101000011101	0000000000000000	-	car	372.151	43.524	0.000	0.000	180.000	696.000	987.000	-0.000	Terminate	
"student20mode3"	"Tanvi_6"	"Feb 14, 2017 10:21:40 AM"	Unknown	125.98586	01/14/0117 10:23.50	00007559	13.895	Inter618t1-1	-1.356	2	2	258.304	24.444	-20.1	0.212	0.000	D	F	1871.5	259.501	0.321	-1.383	886.348	1299.139	0.193	-	-0.994	0.657	-	-	-	31	6.458	89.736	-	FREEWAY_SMOOTH	Urban	F	1011101000011101	0000000000000000	-	car	363.240	39.164	0.000	0.000	180.000	696.000	987.000	-0.000	Terminate	
"student20mode3"	"Tanvi_6"	"Feb 14, 2017 10:21:40 AM"	Unknown	126.98587	01/14/0117 10:23.51	00007619	14.529	Inter618t1-1	-1.284	2	2	255.145	24.444	-21.3	0.215	0.000	D	F	1899.6	254.836	0.266	-1.556	872.493	1295.973	0.217	-	-1.212	0.613	-	-	-	31	6.426	93.362	-	FREEWAY_SMOOTH	Urban	F	1011101000011101	0000000000000000	-	car	353.469	34.465	0.000	0.000	180.000	696.000	987.000	-0.000	Terminate	
"student20mode3"	"Tanvi_6"	"Feb 14, 2017 10:21:40 AM"	Unknown	127.98589	01/14/0117 10:23.52	00007679	14.991	Inter618t1-1	-1.491	2	2	251.554	24.444	-14.2	0.143	0.000	D	F	1741.5	250.845	0.168	-1.643	858.379	1291.559	0.218	-	-0.876	0.204	-	-	-	31	6.426	96.324	-	FREEWAY_SMOOTH	Urban	F	1011101000011101	0000000000000000	-	car	342.783	31.155	0.000	0.000	180.000	696.000	987.000	-0.000	Terminate	
"student20mode3"	"Tanvi_6"	"Feb 14, 2017 10:21:40 AM"	Unknown	128.98592	01/14/0117 10:23.53	00007739	15.035	Inter618t1-1	-1.678	2	2	247.914	24.444	-14.3	0.081	0.000	D	F	1629.6	247.430	0.177	-1.636	844.323	1286.194	0.214	-	-0.927	-0.128	-	-	-	31	6.562	98.653	-	FREEWAY_SMOOTH	Urban	F	1011101000011101	0000000000000000	-	car	331.582	29.249	0.000	0.000	180.000	696.000	987.000	-0.000	Terminate	
"student20mode3"	"Tanvi_6"	"Feb 14, 2017 10:21:40 AM"	Unknown	129.98593	01/14/0117 10:23.54	00007799	14.909	Inter618t1-0	1.770	1	2	244.284	24.444	-15.2	0.067	0.000	D	F	1587.1	243.798	0.173	-1.628	830.681	1280.006	0.210	-	-0.985	-0.207	-	-	-	31	6.648	99.121	-	FREEWAY_SMOOTH	Urban	F	1011101000011101	0000000000000000	-	car	320.118	27.672	0.000	0.000	180.000	696.000	987.000	-0.000	Terminate	
"student20mode3"	"Tanvi_6"	"Feb 14, 2017 10:21:40 AM"	Unknown	130.98595	01/14/0117 10:23.55	00007859	14.687	Inter618t1-0	1.584	1	2	240.677	24.444	-13.9	0.083	0.000	D	F	1605.0	239.995	0.167	-1.640	817.637	1273.024	0.204	-	-0.916	-0.139	-	-	-	31	6.957	102.182	-	FREEWAY_SMOOTH	Urban	F	1011101000011101	0000000000000000	-	car	308.455	26.283	0.000	0.000	180.000	696.000	987.000	-0.000	Terminate	
"student20mode3"	"Tanvi_6"	"Feb 14, 2017 10:21:40 AM"	Unknown	131.98598	01/14/0117 10:23.56	00007919	14.585	Inter618t1-0	1.421	1	2	237.139	24.444	-12.4	0.083	0.000	D	F	1591.7	236.897	0.182	-1.657	805.178	1265.346	0.199	-	-0.770	-0.105	-	-	-	31	7.219	105.296	-	FREEWAY_SMOOTH	Urban	F	1011101000011101	0000000000000000	-	car	296.632	24.976	0.000	0.000	180.000	696.000	987.000	-0.000	Terminate	
"student20mode3"	"Tanvi_6"	"Feb 14, 2017 10:21:40 AM"	Unknown	132.98599	01/14/0117 10:23.57	00007979	14.476	Inter618t1-0	1.384	1	2	233.607	24.444	-13.5	0.079	0.000	D	F	1582.0	233.842	0.196	-1.651	793.231	1257.075	0.198	-	-0.806	-0.108	-	-	-	31	7.498	108.547	-	FREEWAY_SMOOTH	Urban	F	1011101000011101	0000000000000000	-	car	284.685	23.733	0.000	0.000	180.000	696.000	987.000	-0.000	Terminate	
"student20mode3"	"Tanvi_6"	"Feb 14, 2017 10:21:40 AM"	Unknown	133.98601	01/14/0117 10:23.58	00008039	14.378	Inter618t1-0	1.404	1	2	230.071	24.444	-17.1	0.083	0.000	D	F	1574.6	230.153	0.191	-1.623	781.863	1248.195	0.198	-	-1.023	-0.093	-	-	-	31	7.747	111.391	-	FREEWAY_SMOOTH	Urban	F	1011101000011101	0000000000000000	-	car	272.586	22.344	0.000	0.000	180.000	696.000	987.000	-0.000	Terminate	
"student20mode3"	"Tanvi_6"	"Feb 14, 2017 10:21:40 AM"	Unknown	134.98604	01/14/0117 10:23.59	00008099	14.286	Inter618t1-0	1.336	1	2	226.615	24.444	-13.2	0.083	0.000	D	F	1568.0	226.467	0.177	-1.652	771.187	1238.636	0.196	-	-0.811	-0.092	-	-	-	31	8.027	114.677	-	FREEWAY_SMOOTH	Urban	F	1011101000011101	0000000000000000	-	car	260.269	21.001	0.000	0.000	180.000	696.000	987.000	-0.000	Terminate	
"student20mode3"	"Tanvi_6"	"Feb 14, 2017 10:21:40 AM"	Unknown	135.98605	01/14/0117 10:24.00	00008159	14.199	Inter618t1-0	1.318	1	2	223.151	24.444	-12.9	0.088	0.000	D	F	1563.5	223.512	0.197	-1.657	761.137	1228.545	0.196	-	-0.748	-0.081	-	-	-	31	8.314	118.051	-	FREEWAY_SMOOTH	Urban	F	1011101000011101	0000000000000000	-	car	247.815	19.844	0.000	0.000	180.000	696.000	987.000	-0.000	Terminate	
"student20mode3"	"Tanvi_6"	"Feb 14, 2017 10:21:40 AM"	Unknown	136.98607	01/14/0117 10:24.01	00008219	14.319	Inter618t1-0	1.407	1	2	219.683	24.444	-16.7	0.145	0.000	D	F	1707.5	220.299	0.214	-1.634	751.643	1217.947	0.197	-	-0.914	0.209	-	-	-	31	8.497	121.672	-	FREEWAY_SMOOTH	Urban	F	1011101000011101	0000000000000000	-	car	235.196	18.394	0.000	0.000	180.000	696.000	987.000	-0.000	Terminate	
"student20mode3"	"Tanvi_6"	"Feb 14, 2017 10:21:40 AM"	Unknown	137.98610	01/14/0117 10:24.02	00008279	14.620	Inter618t1-0	1.480	1	2	216.170	24.444	-17.0	0.168	0.000	D	F	1785.1	216.449	0.201	-1.627	742.681	1206.597	0.199	-	-0.992	0.317	-	-	-	31	8.557	125.104	-	FREEWAY_SMOOTH	Urban	F	1011101000011101	0000000000000000	-	car	222.144	16.691	0.000	0.000	180.000	696.000	987.000	-0.000	Terminate	
"student20mode3"	"Tanvi_6"	"Feb 14, 2017 10:21:40 AM"	Unknown	138.98611	01/14/0117 10:24.03	00008339	14.947	Inter618t1-0	1.465	1	2	212.562	24.444	-17.7	0.189	0.000	D	F	1851.3	212.427	0.194	-1.619	734.330	1194.400	0.198	-	-1.064	0.372	-	-	-	31	8.559	127.933	-	FREEWAY_SMOOTH	Urban	F	1011101000011101	0000000000000000	-	car	208.553	15.044	0.000	0.000	180.000	696.000	987.000	-0.000	Terminate	
"student20mode3"	"Tanvi_6"	"Feb 14, 2017 10:21:40 AM"	Unknown	139.98613	01/14/0117 10:24.04	00008399	15.439	Inter618t1-0	1.338	1	2	208.885	24.444	-17.2	0.159	0.000	D	F	1802.8	208.280	0.169	-1.612	726.658	1181.288	0.194	-	-1.109	0.303	-	-	-	31	8.469	130.745	-	FREEWAY_SMOOTH	Urban	F	1011101000011101	0000000000000000	-	car	194.332	13.338	0.000	0.000	180.000	696.000	987.000	-0.000	Terminate	
"student20mode3"	"Tanvi_6"	"Feb 14, 2017 10:21:40 AM"	Unknown	140.98616	01/14/0117 10:24.05	00008459	15.546	Inter618t1-0	1.215	1	2	205.121	24.444	-10.0	0.123	0.000	D	F	1747.2	205.361	0.199	-1.673	719.710	1167.427	0.192	-	-0.647	0.070	-	-	-	31	8.579	133.361	-	FREEWAY_SMOOTH	Urban	F	1011101000011101	0000000000000000	-	car	179.619	12.140	0.000	0.000	180.000	696.000	987.000	-0.000	Terminate	
"student20mode3"	"Tanvi_6"	"Feb 14, 2017 10:21:40 AM"	Unknown	141.98618	01/14/0117 10:24.06	00008519	15.600	Inter618t1-0	1.361	1	2	201.311	24.444	-16.5	0.122	0.000	D	F	1745.5	202.126	0.211	-1.617	713.416	1153.182	0.196	-	-1.056	0.046	-	-	-	31	8.716	135.965	-	FREEWAY_SMOOTH	Urban	F	1011101000011101	0000000000000000	-	car	164.732	10.993	0.000	0.000	180.000	696.000	987.000	-0.000	Terminate	
"student20mode3"	"Tanvi_6"	"Feb 14, 2017 10:21:40 AM"	Unknown	142.98619	01/14/0117 10:24.07	00008579	15.636	Inter618t1-0	1.486	1	2	197.533	24.444	-20.9	0.118	0.000	D	F	1736.8	197.540	0.188	-1.575	708.084	1138.502	0.200	-	-1.396	0.024	-	-	-	-	-	-	-	FREEWAY_SMOOTH	Urban	F	1011101000011101	0000000000000000	-	car	149.624	9.820	0.000	0.000	180.000	696.000	987.000	-0.000	Terminate	
"student20mode3"	"Tanvi_6"	"Feb 14, 2017 10:21:40 AM"	Unknown	143.98621	01/14/0117 10:24.08	00008639	15.648	Inter618t1-0	1.268	1	2	193.763	24.444	-21.5	0.113	0.000	D	F	1726.5	192.067	0.067	-1.456	704.058	1123.390	0.185	-	-1.508	-0.002	-	-	-	-	-	-	-	FREEWAY_SMOOTH	Urban	F	1011101000011101	0000000000000000	-	car	134.268	8.680	0.000	0.000	180.000	696.000	987.000	-0.000	Terminate	
"student20mode3"	"Tanvi_6"	"Feb 14, 2017 10:21:40 AM"	Unknown	144.98624	01/14/0117 10:24.09	00008699	15.602	Inter618t1-0	0.647	1	2	190.432	24.444	-13.1	0.056	0.000	D	F	1624.4	187.879	0.044	-1.318	701.381	1107.982	0.150	-	-0.937	-0.253	-	-	-	-	-	-	-	FREEWAY_SMOOTH	Urban	F	1011101000011101	0000000000000000	-	car	118.742	7.644	0.000	0.000	180.000	696.000	987.000	-0.000	Terminate	
"student20mode3"	"Tanvi_6"	"Feb 14, 2017 10:21:40 AM"	Unknown	145.98625	01/14/0117 10:24.10	00008759	15.377	Inter618t1-0	-0.089	1	2	187.545	24.444	-13.2	0.074	0.000	D	F	1642.9	184.670	0.071	-1.109	699.686	1092.595	0.116	-	-0.870	-0.183	-	-	-	-	-	-	-	FREEWAY_SMOOTH	Urban	F	1011101000011101	0000000000000000	-	car	103.300	6.725	0.000	0.000	180.000	696.000	987.000	-0.000	Terminate	
"student20mode3"	"Tanvi_6"	"Feb 14, 2017 10:21:40 AM"	Unknown	146.98627	01/14/0117 10:24.11	00008819	15.302	Inter618t1-0	-0.957	1	2	185.161	24.444	3.4	0.136	0.000	D	F	1749.9	181.789	0.087	-0.997	698.855	1077.311	0.084	-	-0.230	0.117	-	-	-	-	-	-	-	FREEWAY_SMOOTH	Urban	F	1011101000011101	0000000000000000	-	car	87.997	5.751	0.000	0.000	180.000	696.000	987.000	-0.000	Terminate	
"student20mode3"	"Tanvi_6"	"Feb 14, 2017 10:21:40 AM"	Unknown	147.98630	01/14/0117 10:24.12	00008879	15.251	Inter618t1-0	-1.435	1	2	183.213	24.444	10.6	0.065	0.000	D	F	1616.6	183.554	0.153	-0.886	698.216	1062.013	0.067	-	0.637	-0.216	-	-	-	-	-	-	-	FREEWAY_SMOOTH	Urban	F	1011101000011101	0000000000000000	-	car	72.686	4.769	0.000	0.000	180.000	696.000	987.000	-0.000	Terminate	
"student20mode3"	"Tanvi_6"	"Feb 14, 2017 10:21:40 AM"	Unknown	148.98631	01/14/0117 10:24.13	00008939	14.945	Inter618t1-0	-0.985	1	2	181.732	24.444	-9.2	0.000	0.000	D	F	1467.6	184.265	0.160	-0.531	697.116	1046.927	0.062	-	-0.405	-0.591	-	-	-	-	-	-	-	FREEWAY_SMOOTH	Urban	F	1011101000011101	0000000000000000	-	car	57.578	3.859	0.000	0.000	180.000	696.000	987.000	-0.000	Terminate	
"student20mode3"	"Tanvi_6"	"Feb 14, 2017 10:21:40 AM"	Unknown	149.98633	01/14/0117 10:24.14	00008999	14.218	Inter618t1-0	-0.517	1	2	180.738	24.444	-10.0	0.000	0.125	D	F	1374.3	181.777	0.096	-0.319	696.337	1032.305	0.055	-	-0.538	-1.910	-	-	-	-	-	-	-	FREEWAY_SMOOTH	Urban	F	1011101000011101	0000000000000000	-	car	42.947	3.021	0.000	0.000	180.000	696.000	987.000	-0.000	Terminate	
"student20mode3"	"Tanvi_6"	"Feb 14, 2017 10:21:40 AM"	Unknown	150.98636	01/14/0117 10:24.15	00009059	11.197	Inter618t1-0	-0.426	1	2	180.208	24.444	-5.8	0.000	0.203	D	F	1070.4	179.958	0.097	-0.171	696.145	1019.561	0.048	-	-0.271	-3.076	-	-	-	-	-	-	-	FREEWAY_SMOOTH	Urban	F	1111101000011101	0000000000000000	-	car	30.552	3.056	1.200	2.000	178.663	696.010	986.650	-0.000	Terminate	
"student20mode3"	"Tanvi_6"	"Feb 14, 2017 10:21:40 AM"	Unknown	151.98637	01/14/0117 10:24.16	00009119	8.144	Inter618t1-0	-0.534	1	2	180.014	24.444	-2.5	0.000	0.203	D	F	778.8	179.080	0.104	-0.059	696.236	1009.895	0.039	-	-0.067	-3.010	-	-	-	-	-	-	-	FREEWAY_SMOOTH	Urban	F	1011101000011101	0000000000000000	-	car	23.065	4.661	3.200	2.000	176.551	696.144	984.471	-0.000	Terminate	
"student20mode3"	"Tanvi_6"	"Feb 14, 2017 10:21:40 AM"	Unknown	152.98639	01/14/0117 10:24.17	00009179	5.312	Inter618t1-0	-0.641	1	2	180.000	24.444	5.1	0.000	0.179	D	F	509.5	179.250	0.162	-0.007	696.341	1003.190	0.033	-	0.051	-2.723	-	-	-	-	-	-	-	FREEWAY_SMOOTH	Urban	F	1011101000011101	0000000000000000	-	car	20.539	179.332	5.200	2.000	177.951	696.323	980.291	-0.000	Terminate	
"student20mode3"	"Tanvi_6"	"Feb 14, 2017 10:21:40 AM"	Unknown	153.98642	01/14/0117 10:24.18	00009239	3.394	Inter686t1-0	0.017	1	1	180.000	11.111	0.3	0.000	0.024	D	F	503.5	179.476	0.210	0.001	696.379	999.022	0.030	-	0.002	-0.696	-	-	-	-	-	-	-	PAVEMENT_GENERAL	Urban	F	1011101000011101	0000000000000000	-	car	22.555	-5.925	7.200	2.000	179.746	696.397	974.108	-0.000	Terminate	
