ZoneName	Time	SystemTime	Frame	Velocity	LaneName	LanePos	LaneIndex	LaneCount	LaneHeading	SpeedLimit	Steer	Accel	Brake	Gear	Horn	SubjectEngineRPM	SubjectHeading	SubjectPitch	SubjectRoll	SubjectX	SubjectY	SubjectZ	Signal	LatAccel	LongAccel	Collision	CollisionAngle	CollisionVelocity	VehAhead	HeadwayTime	HeadwayDist	TTC	TerrainType	CultureType	Slip	DigitalInputs	DigitalInputs2	ActiveTrigger	EntityName	DistToEntity	TimeToEntity	EntityVelocity	EntityAccel	EntityHeading	EntityX	EntityY	EntityZ	GrabData	
Unknown	0.98335	11/01/0116 06:34.59	00000059	0.002	Inter625t13-0	-0.088	1	2	0.000	11.111	-21.3	0.000	0.000	D	F	0.0	0.000	0.153	0.003	1503.500	523.206	0.019	-	-0.000	0.000	-	-	-	-	-	-	-	PAVEMENT_GENERAL	Urban	F	1011101000010101	0000000000010000	-	-	-	-	-	-	-	-	-	-	Terminate	
Unknown	1.98337	11/01/0116 06:35.00	00000119	0.000	Inter625t13-0	-0.088	1	2	0.000	11.111	-3.9	0.000	0.000	D	F	0.0	0.000	0.197	-0.000	1503.500	523.208	0.026	-	-0.000	-0.001	-	-	-	-	-	-	-	PAVEMENT_GENERAL	Urban	F	1011101000010101	0000000000010000	-	-	-	-	-	-	-	-	-	-	Terminate	
Unknown	2.98339	11/01/0116 06:35.01	00000179	-0.000	Inter625t13-0	-0.088	1	2	0.000	11.111	-3.9	0.000	0.000	D	F	0.0	0.000	0.207	0.000	1503.500	523.208	0.028	-	0.000	-0.000	-	-	-	-	-	-	-	PAVEMENT_GENERAL	Urban	F	1011101000010101	0000000000010000	-	-	-	-	-	-	-	-	-	-	Terminate	
Unknown	3.98341	11/01/0116 06:35.02	00000239	-0.000	Inter625t13-0	-0.088	1	2	0.000	11.111	-3.9	0.000	0.000	D	F	0.0	0.000	0.210	0.000	1503.500	523.208	0.028	-	-0.000	-0.000	-	-	-	-	-	-	-	PAVEMENT_GENERAL	Urban	F	1011101000010101	0000000000010000	-	-	-	-	-	-	-	-	-	-	Terminate	
Unknown	4.98343	11/01/0116 06:35.03	00000299	-0.000	Inter625t13-0	-0.088	1	2	0.000	11.111	-3.9	0.125	0.000	D	F	0.0	0.000	0.210	0.000	1503.500	523.208	0.028	-	-0.000	0.000	-	-	-	-	-	-	-	PAVEMENT_GENERAL	Urban	F	1011101000010101	0000000000010000	-	-	-	-	-	-	-	-	-	-	Terminate	
Unknown	5.98345	11/01/0116 06:35.04	00000359	-0.000	Inter625t13-0	-0.088	1	2	0.000	11.111	-3.9	0.000	0.000	D	F	0.0	0.000	0.209	0.000	1503.500	523.208	0.028	-	-0.000	0.000	-	-	-	-	-	-	-	PAVEMENT_GENERAL	Urban	F	1011101000010101	0000000000010000	-	-	-	-	-	-	-	-	-	-	Terminate	
Unknown	6.98347	11/01/0116 06:35.05	00000419	0.000	Inter625t13-0	-0.088	1	2	0.000	11.111	-3.9	0.000	0.000	D	F	211.1	0.000	0.209	0.000	1503.500	523.208	0.028	-	-0.000	0.000	-	-	-	-	-	-	-	PAVEMENT_GENERAL	Urban	F	1011101000010111	0000000000010000	-	-	-	-	-	-	-	-	-	-	Terminate	
Unknown	7.98349	11/01/0116 06:35.06	00000479	0.181	Inter625t13-0	-0.088	1	2	0.000	11.111	-3.9	0.125	0.000	D	F	1206.1	0.000	0.202	-0.001	1503.500	523.227	0.017	-	-0.001	1.359	-	-	-	-	-	-	-	PAVEMENT_GENERAL	Urban	F	1111101000010101	0000000000010000	-	-	-	-	-	-	-	-	-	-	Terminate	
Unknown	8.98351	11/01/0116 06:35.07	00000539	4.126	Inter625t13-0	-0.096	1	2	0.000	11.111	-3.9	0.459	0.000	D	F	1941.7	359.819	0.229	0.004	1503.492	525.260	0.007	-	-0.029	4.007	-	-	-	-	-	-	-	PAVEMENT_GENERAL	Urban	F	1011101000010101	0000000000010000	-	-	-	-	-	-	-	-	-	-	Terminate	
Unknown	9.98353	11/01/0116 06:35.08	00000599	7.542	Inter625t13-0	-0.143	1	2	0.000	11.111	7.0	0.586	0.000	D	F	2531.2	359.529	0.228	-0.022	1503.445	531.168	0.012	-	0.137	3.079	-	-	-	-	-	-	-	PAVEMENT_GENERAL	Urban	F	1011101000010101	0000000000010000	-	-	-	-	-	-	-	-	-	-	Terminate	
Unknown	10.98355	11/01/0116 06:35.09	00000659	10.595	Inter625t49-0	-0.154	1	1	0.006	11.111	-4.3	0.638	0.000	D	F	3335.3	359.886	0.228	0.018	1503.435	540.239	0.012	-	-0.122	3.030	-	-	-	-	-	-	-	PAVEMENT_GENERAL	Urban	F	1111101000010101	0000000000010000	-	-	-	-	-	-	-	-	-	-	Terminate	
Unknown	11.98357	11/01/0116 06:35.10	00000719	13.537	Inter625t49-0	-0.203	1	1	0.008	11.111	-1.6	0.658	0.000	D	F	2837.8	359.799	0.194	0.005	1503.387	552.334	0.013	-	-0.034	2.230	-	-	-	-	-	-	-	PAVEMENT_GENERAL	Urban	F	1011101000010101	0000000000010000	-	-	-	-	-	-	-	-	-	-	Terminate	
Unknown	12.98359	11/01/0116 06:35.11	00000779	15.181	Inter625t49-0	-0.249	1	1	0.005	11.111	2.3	0.580	0.000	D	F	2688.2	0.078	0.209	-0.018	1503.343	566.735	0.019	-	0.147	1.510	-	-	-	-	-	-	-	PAVEMENT_GENERAL	Urban	F	1011101000010101	0000000000010000	-	-	-	-	-	-	-	-	-	-	Terminate	
Unknown	13.98361	11/01/0116 06:35.12	00000839	16.676	Inter625t49-0	-0.191	1	1	0.005	11.111	-1.6	0.658	0.000	D	F	2901.7	0.245	0.208	0.008	1503.402	582.664	0.020	-	-0.055	1.526	-	-	-	-	-	-	-	PAVEMENT_GENERAL	Urban	F	1011101000010101	0000000000010000	-	-	-	-	-	-	-	-	-	-	Terminate	
Unknown	14.98363	11/01/0116 06:35.13	00000899	18.204	Inter614t1-0	-0.165	1	2	0.000	11.111	-2.1	0.677	0.000	D	F	3129.2	359.847	0.205	0.021	1503.428	600.106	0.020	-	-0.151	1.516	-	-	-	-	-	-	-	PAVEMENT_GENERAL	Urban	F	1011101000010101	0000000000010000	-	-	-	-	-	-	-	-	-	-	Terminate	
Unknown	15.98365	11/01/0116 06:35.14	00000959	19.705	Inter614t1-0	-0.206	1	2	0.000	11.111	-0.6	0.677	0.000	D	F	3346.3	359.949	0.203	0.001	1503.388	619.064	0.020	-	0.011	1.486	-	-	-	-	-	-	-	PAVEMENT_GENERAL	Urban	F	1011101000010101	0000000000010000	-	-	-	-	-	-	-	-	-	-	Terminate	
Unknown	16.98367	11/01/0116 06:35.15	00001019	21.172	Inter614t1-0	-0.183	1	2	0.000	11.111	-1.1	0.679	0.000	D	F	3552.7	0.338	0.200	-0.006	1503.411	639.506	0.020	-	0.071	1.450	-	-	-	-	-	-	-	PAVEMENT_GENERAL	Urban	F	1011101000010101	0000000000010000	-	-	-	-	-	-	-	-	-	-	Terminate	
Unknown	17.98369	11/01/0116 06:35.16	00001079	22.587	Inter614t1-0	-0.095	1	2	0.000	11.111	-0.8	0.543	0.000	D	F	3721.3	0.260	0.193	-0.002	1503.499	661.394	0.020	-	0.028	1.293	-	-	-	-	-	-	-	PAVEMENT_GENERAL	Urban	F	1011101000010101	0000000000010000	-	-	-	-	-	-	-	-	-	-	Terminate	
Unknown	18.98371	11/01/0116 06:35.17	00001139	23.596	Inter614t1-0	-0.044	1	2	0.000	11.111	-0.8	0.377	0.000	D	F	2689.4	359.906	0.185	0.018	1503.550	684.562	0.024	-	-0.128	0.649	-	-	-	-	-	-	-	PAVEMENT_GENERAL	Urban	F	1111101000010101	0000000000010000	-	-	-	-	-	-	-	-	-	-	Terminate	
Unknown	19.98373	11/01/0116 06:35.18	00001199	24.223	Inter614t1-0	-0.016	1	2	0.000	11.111	-0.8	0.400	0.000	D	F	2700.0	0.294	0.185	-0.002	1503.577	708.472	0.024	-	0.062	0.616	-	-	-	-	-	-	-	PAVEMENT_GENERAL	Urban	F	1011101000010101	0000000000010000	-	-	-	-	-	-	-	-	-	-	Terminate	
Unknown	20.98375	11/01/0116 06:35.19	00001259	24.823	Inter614t1-0	0.044	1	2	0.000	11.111	-2.3	0.305	0.000	D	F	2728.8	359.869	0.183	0.027	1503.638	732.998	0.024	-	-0.204	0.557	-	-	-	-	-	-	-	PAVEMENT_GENERAL	Urban	F	1011101000010101	0000000000010000	-	-	-	-	-	-	-	-	-	-	Terminate	
Unknown	21.98377	11/01/0116 06:35.20	00001319	24.394	Inter614t1-0	0.008	1	2	0.000	11.111	3.7	0.150	0.000	D	F	1898.5	0.162	0.174	-0.041	1503.601	757.689	0.030	-	0.293	-0.501	-	-	-	-	-	-	-	PAVEMENT_GENERAL	Urban	F	1011101000010101	0000000000010000	-	-	-	-	-	-	-	-	-	-	Terminate	
Unknown	22.98379	11/01/0116 06:35.21	00001379	24.460	Inter614t1-0	0.094	1	2	0.000	11.111	-3.4	0.259	0.000	D	F	2067.9	359.929	0.179	0.040	1503.687	782.086	0.026	-	-0.305	0.146	-	-	-	-	-	-	-	PAVEMENT_GENERAL	Urban	F	1011101000010101	0000000000010000	-	-	-	-	-	-	-	-	-	-	Terminate	
Unknown	23.98381	11/01/0116 06:35.22	00001439	24.543	Inter612t1-0	-0.035	1	2	0.000	11.111	0.5	0.243	0.000	D	F	2055.9	359.275	0.181	0.019	1503.558	806.596	0.027	-	-0.158	0.109	-	-	-	-	-	-	-	PAVEMENT_GENERAL	Urban	F	1011101000010101	0000000000010000	-	-	-	-	-	-	-	-	-	-	Terminate	
Unknown	24.98383	11/01/0116 06:35.23	00001499	24.365	Inter612t1-0	-0.346	1	2	0.000	11.111	-3.2	0.000	0.000	D	F	1660.7	358.922	0.167	0.048	1503.247	831.137	0.030	-	-0.345	-0.676	-	-	-	12	0.328	7.983	1.231	PAVEMENT_GENERAL	Urban	F	1011101000010101	0000000000010000	-	-	-	-	-	-	-	-	-	-	Terminate	
Unknown	25.98385	11/01/0116 06:35.24	00001559	23.692	Inter612t1-0	-0.922	1	2	0.000	11.111	8.3	0.000	0.000	D	F	1615.3	358.338	0.174	-0.047	1502.671	855.157	0.030	-	0.230	-0.670	-	-	-	12	0.111	2.628	0.678	PAVEMENT_GENERAL	Urban	F	1011101000010101	0000000000010000	-	-	-	-	-	-	-	-	-	-	Terminate	
Unknown	26.98387	11/01/0116 06:35.25	00001619	19.677	Inter612t1-0	-1.135	1	2	0.000	11.111	11.0	0.000	0.591	D	F	1230.4	1.673	-0.105	-0.185	1502.459	877.427	0.042	-	1.144	-6.859	-	-	-	12	0.046	0.899	-	PAVEMENT_GENERAL	Urban	F	1011101000010101	0000000000010000	-	-	-	-	-	-	-	-	-	-	Terminate	
Unknown	27.98389	11/01/0116 06:35.26	00001679	17.227	Inter612t1-0	-0.542	1	2	0.000	11.111	-3.8	0.000	0.000	D	F	1174.6	2.032	0.188	0.040	1503.051	895.250	0.029	-	-0.281	-0.562	-	-	-	12	0.263	4.534	-	PAVEMENT_GENERAL	Urban	F	1011101000010101	0000000000010000	-	-	-	-	-	-	-	-	-	-	Terminate	
Unknown	28.98391	11/01/0116 06:35.27	00001739	16.678	Inter612t1-0	-0.028	1	2	0.000	11.111	-0.1	0.078	0.000	D	F	1361.4	1.440	0.189	0.010	1503.565	912.189	0.029	-	-0.078	-0.415	-	-	-	12	0.574	9.572	-	PAVEMENT_GENERAL	Urban	F	1011101000010101	0000000000010000	-	-	-	-	-	-	-	-	-	-	Terminate	
Unknown	29.98393	11/01/0116 06:35.28	00001799	16.732	Inter612t1-0	0.339	1	2	0.000	11.111	-13.5	0.187	0.000	D	F	1706.1	0.568	0.197	0.098	1503.932	928.863	0.026	-	-0.700	0.257	-	-	-	12	0.911	15.236	-	PAVEMENT_GENERAL	Urban	F	1011101000010101	0000000000010000	-	-	-	-	-	-	-	-	-	-	Terminate	
Unknown	30.98395	11/01/0116 06:35.29	00001859	17.056	Inter612t1-0	0.232	1	2	0.000	11.111	2.1	0.233	0.000	D	F	1972.8	359.223	0.196	-0.012	1503.826	945.734	0.024	-	0.063	0.472	-	-	-	12	1.215	20.719	-	PAVEMENT_GENERAL	Urban	F	1011101000010101	0000000000010000	-	-	-	-	-	-	-	-	-	-	Terminate	
Unknown	31.98397	11/01/0116 06:35.30	00001919	17.503	Inter612t1-0	-0.036	1	2	0.000	11.111	-0.4	0.249	0.000	D	F	2086.1	358.704	0.196	0.017	1503.557	963.006	0.024	-	-0.155	0.520	-	-	-	12	1.474	25.800	-	PAVEMENT_GENERAL	Urban	F	1011101000010101	0000000000010000	-	-	-	-	-	-	-	-	-	-	Terminate	
Unknown	32.98399	11/01/0116 06:35.31	00001979	17.559	Inter612t1-0	-0.345	1	2	0.000	11.111	0.4	0.000	0.000	D	F	1327.2	359.498	0.183	-0.020	1503.248	980.656	0.029	-	0.174	-0.546	-	-	-	12	1.737	30.504	-	PAVEMENT_GENERAL	Urban	F	1011101000010101	0000000000010000	-	-	-	-	-	-	-	-	-	-	Terminate	
Unknown	33.98401	11/01/0116 06:35.32	00002039	17.265	Inter612t1-0	-0.495	1	2	0.000	11.111	-2.2	0.194	0.000	D	F	1730.3	359.457	0.194	0.016	1503.098	997.986	0.025	-	-0.101	0.243	-	-	-	12	1.921	33.160	-	PAVEMENT_GENERAL	Urban	F	1011101000010101	0000000000010000	-	-	-	-	-	-	-	-	-	-	Terminate	
Unknown	34.98403	11/01/0116 06:35.33	00002099	17.666	Inter613t1-0	-0.702	1	2	0.000	11.111	5.8	0.261	0.000	D	F	2045.1	359.434	0.198	-0.039	1502.891	1015.432	0.024	-	0.270	0.510	-	-	-	12	2.289	40.435	-	PAVEMENT_GENERAL	Urban	F	1011101000010101	0000000000010000	-	-	-	-	-	-	-	-	-	-	Terminate	
Unknown	35.98405	11/01/0116 06:35.34	00002159	18.154	Inter613t1-0	-0.753	1	2	0.000	11.111	4.5	0.238	0.000	D	F	2121.0	0.177	0.198	-0.032	1502.840	1033.354	0.025	-	0.218	0.449	-	-	-	12	2.471	44.866	-	PAVEMENT_GENERAL	Urban	F	1011101000010101	0000000000010000	-	-	-	-	-	-	-	-	-	-	Terminate	
Unknown	36.98407	11/01/0116 06:35.35	00002219	18.561	Inter613t1-0	-0.585	1	2	0.000	11.111	-4.7	0.220	0.000	D	F	2133.0	0.734	0.196	0.020	1503.008	1051.729	0.025	-	-0.119	0.357	-	-	-	12	2.631	48.844	-	PAVEMENT_GENERAL	Urban	F	1011101000010101	0000000000010000	-	-	-	-	-	-	-	-	-	-	Terminate	
Unknown	37.98409	11/01/0116 06:35.36	00002279	18.890	Inter613t1-0	-0.456	1	2	0.000	11.111	1.3	0.228	0.000	D	F	2167.9	0.319	0.190	-0.012	1503.138	1070.447	0.024	-	0.076	0.415	-	-	-	12	2.778	52.481	-	PAVEMENT_GENERAL	Urban	F	1011101000010101	0000000000010000	-	-	-	-	-	-	-	-	-	-	Terminate	
Unknown	38.98411	11/01/0116 06:35.37	00002339	19.306	Inter613t1-0	-0.321	1	2	0.000	11.111	-1.6	0.250	0.000	D	F	2218.5	0.457	0.193	0.007	1503.272	1089.540	0.025	-	-0.036	0.446	-	-	-	12	2.887	55.741	-	PAVEMENT_GENERAL	Urban	F	1011101000010101	0000000000010000	-	-	-	-	-	-	-	-	-	-	Terminate	
Unknown	39.98413	11/01/0116 06:35.38	00002399	19.705	Inter613t1-0	-0.216	1	2	0.000	11.111	-1.2	0.194	0.000	D	F	2174.6	0.252	0.190	0.004	1503.377	1109.062	0.025	-	-0.013	0.254	-	-	-	12	2.972	58.572	-	PAVEMENT_GENERAL	Urban	F	1011101000010101	0000000000010000	-	-	-	-	-	-	-	-	-	-	Terminate	
Unknown	40.98415	11/01/0116 06:35.39	00002459	19.903	Inter613t1-0	-0.176	1	2	0.000	11.111	-2.0	0.180	0.000	D	F	2177.8	359.889	0.189	0.018	1503.417	1128.869	0.026	-	-0.141	0.180	-	-	-	12	3.071	61.118	-	PAVEMENT_GENERAL	Urban	F	1011101000010101	0000000000010000	-	-	-	-	-	-	-	-	-	-	Terminate	
Unknown	41.98417	11/01/0116 06:35.40	00002519	19.967	Inter613t1-0	-0.269	1	2	0.000	11.111	-0.5	0.164	0.000	D	F	2162.1	359.528	0.189	0.009	1503.324	1148.808	0.026	-	-0.079	0.071	-	-	-	12	3.182	63.533	-	PAVEMENT_GENERAL	Urban	F	1011101000010101	0000000000010000	-	-	-	-	-	-	-	-	-	-	Terminate	
Unknown	42.98419	11/01/0116 06:35.41	00002579	20.047	Inter613t1-0	-0.377	1	2	0.000	11.111	3.7	0.166	0.000	D	F	2173.3	0.114	0.188	-0.043	1503.217	1168.812	0.026	-	0.307	0.093	-	-	-	12	3.286	65.883	-	PAVEMENT_GENERAL	Urban	F	1011101000010101	0000000000010000	-	-	-	-	-	-	-	-	-	-	Terminate	
Unknown	43.98421	11/01/0116 06:35.42	00002639	19.741	Inter613t1-0	-0.306	1	2	0.000	11.111	2.2	0.000	0.000	D	F	1365.4	0.186	0.180	-0.002	1503.287	1188.783	0.029	-	0.029	-0.597	-	-	-	12	3.458	68.265	-	PAVEMENT_GENERAL	Urban	F	1011101000010101	0000000000010000	-	-	-	-	-	-	-	-	-	-	Terminate	
Unknown	44.98423	11/01/0116 06:35.43	00002699	19.147	Inter746t1-0	-0.200	1	2	0.000	11.111	-0.4	0.000	0.000	D	F	1306.0	0.396	0.183	0.002	1503.393	1208.226	0.029	-	0.005	-0.591	-	-	-	12	3.717	71.175	-	PAVEMENT_GENERAL	Urban	F	1011101000010101	0000000000010000	-	-	-	-	-	-	-	-	-	-	Terminate	
Unknown	45.98425	11/01/0116 06:35.44	00002759	17.481	Inter746t1-0	-0.092	1	2	0.000	11.111	-0.6	0.000	0.146	D	F	1167.3	0.238	0.149	0.006	1503.501	1226.816	0.034	-	-0.050	-2.620	-	-	-	12	4.287	74.939	-	PAVEMENT_GENERAL	Urban	F	1011101000010101	0000000000010000	-	-	-	-	-	-	-	-	-	-	Terminate	
Unknown	46.98427	11/01/0116 06:35.45	00002819	15.567	Inter746t1-0	-0.038	1	2	0.000	11.111	-0.5	0.000	0.000	D	F	1061.8	0.105	0.188	0.005	1503.555	1243.213	0.030	-	-0.038	-0.751	-	-	-	12	5.197	80.896	-	PAVEMENT_GENERAL	Urban	F	1011101000010101	0000000000010000	-	-	-	-	-	-	-	-	-	-	Terminate	
Unknown	47.98429	11/01/0116 06:35.46	00002879	15.031	Inter746t1-0	-0.010	1	2	0.000	11.111	0.5	0.000	0.000	D	F	1025.1	0.154	0.189	-0.004	1503.583	1258.511	0.029	-	0.034	-0.533	-	-	-	12	5.851	87.951	-	PAVEMENT_GENERAL	Urban	F	1011101000010101	0000000000010000	-	-	-	-	-	-	-	-	-	-	Terminate	
Unknown	48.98431	11/01/0116 06:35.47	00002939	15.122	Inter746t1-0	0.043	1	2	0.000	11.111	0.5	0.206	0.000	D	F	1878.2	0.256	0.202	-0.003	1503.636	1273.493	0.024	-	0.025	0.508	-	-	-	12	6.304	95.323	-	PAVEMENT_GENERAL	Urban	F	1011101000010101	0000000000010000	-	-	-	-	-	-	-	-	-	-	Terminate	
Unknown	49.98433	11/01/0116 06:35.48	00002999	15.880	Inter746t1-0	0.105	1	2	0.000	11.111	-9.0	0.372	0.000	D	F	2110.8	359.938	0.203	0.054	1503.698	1288.956	0.022	-	-0.381	0.880	-	-	-	12	6.437	102.213	-	PAVEMENT_GENERAL	Urban	F	1011101000010101	0000000000010000	-	-	-	-	-	-	-	-	-	-	Terminate	
Unknown	50.98435	11/01/0116 06:35.49	00003059	17.028	Inter746t1-0	-0.040	1	2	0.000	11.111	-0.8	0.411	0.000	D	F	2905.0	359.378	0.205	0.001	1503.553	1305.361	0.020	-	-0.010	1.313	-	-	-	12	6.293	107.155	-	PAVEMENT_GENERAL	Urban	F	1011101000010101	0000000000010000	-	-	-	-	-	-	-	-	-	-	Terminate	
Unknown	51.98437	11/01/0116 06:35.50	00003119	18.268	Inter746t1-0	-0.238	1	2	0.000	11.111	2.9	0.277	0.000	D	F	2622.7	359.438	0.202	-0.025	1503.356	1323.027	0.021	-	0.135	1.037	-	-	-	12	5.858	107.006	38.451	PAVEMENT_GENERAL	Urban	F	1011101000010101	0000000000010000	-	-	-	-	-	-	-	-	-	-	Terminate	
Unknown	52.98439	11/01/0116 06:35.51	00003179	18.703	Inter746t1-0	-0.344	1	2	0.000	11.111	3.1	0.201	0.000	D	F	2114.7	0.001	0.193	-0.027	1503.249	1341.562	0.025	-	0.203	0.301	-	-	-	12	5.457	102.060	15.306	PAVEMENT_GENERAL	Urban	F	1011101000010101	0000000000010000	-	-	-	-	-	-	-	-	-	-	Terminate	
Unknown	53.98441	11/01/0116 06:35.52	00003239	18.511	Inter746t1-0	-0.257	1	2	0.000	11.111	-1.4	0.000	0.000	D	F	1317.6	0.653	0.181	-0.019	1503.336	1360.268	0.029	-	0.109	-0.574	-	-	-	12	5.127	94.912	12.882	PAVEMENT_GENERAL	Urban	F	1011101000010101	0000000000010000	-	-	-	-	-	-	-	-	-	-	Terminate	
Unknown	54.98443	11/01/0116 06:35.53	00003299	17.934	Inter746t1-0	-0.240	1	2	0.000	11.111	-10.2	0.000	0.000	D	F	1223.9	358.858	0.182	0.104	1503.353	1378.491	0.029	L	-0.797	-0.574	-	-	-	-	-	-	-	PAVEMENT_GENERAL	Urban	F	1011101000110101	0000000000010000	-	-	-	-	-	-	-	-	-	-	Terminate	
Unknown	55.98445	11/01/0116 06:35.54	00003359	17.360	Inter746t1-0	-0.957	1	2	0.000	11.111	-0.1	0.000	0.000	D	F	1183.7	356.350	0.183	0.033	1502.636	1396.121	0.029	L	-0.346	-0.564	-	-	-	-	-	-	-	PAVEMENT_GENERAL	Urban	F	1111101000110101	0000000000010000	-	-	-	-	-	-	-	-	-	-	Terminate	
Unknown	56.98447	11/01/0116 06:35.55	00003419	16.800	-	-	CL	0	-	-	4.4	0.000	0.000	D	F	1145.6	357.412	0.186	-0.046	1501.659	1413.172	0.029	L	0.391	-0.556	-	-	-	-	-	-	-	PAVEMENT_GENERAL	Urban	F	1011101000110101	0000000000010000	-	-	-	-	-	-	-	-	-	-	Terminate	
Unknown	57.98449	11/01/0116 06:35.56	00003479	16.076	-	-	SH-	1	-	-	2.4	0.000	0.155	D	F	1073.3	358.293	0.131	-0.017	1501.034	1429.673	0.030	L	0.163	-2.267	-	-	-	-	-	-	-	PAVEMENT_GENERAL	Urban	F	1011101000110101	0000000000010000	-	-	-	-	-	-	-	-	-	-	Terminate	
Unknown	58.98451	11/01/0116 06:35.57	00003539	12.323	Inter749t31-0	-1.003	1	1	355.895	11.111	3.4	0.000	0.346	D	F	1028.7	358.357	0.095	-0.022	1500.626	1444.087	0.039	L	0.045	-4.663	-	-	-	12	2.435	30.000	2.435	PAVEMENT_GENERAL	Urban	F	1011101000110101	0000000000010000	-	-	-	-	-	-	-	-	-	-	Terminate	
Unknown	59.98453	11/01/0116 06:35.58	00003599	7.770	Inter749t31-0	-0.406	1	1	356.903	11.111	0.6	0.000	0.334	D	F	727.8	358.751	0.113	-0.002	1500.381	1454.126	0.039	L	0.018	-4.478	-	-	-	12	2.574	20.002	2.574	PAVEMENT_GENERAL	Urban	F	1011101000110101	0000000000010000	-	-	-	-	-	-	-	-	-	-	Terminate	
Unknown	60.98455	11/01/0116 06:35.59	00003659	5.786	Inter749t31-0	-0.176	1	1	356.903	11.111	2.6	0.000	0.131	D	F	558.6	358.991	0.166	-0.004	1500.250	1460.815	0.032	L	0.031	-2.084	-	-	-	12	2.301	13.316	2.301	PAVEMENT_GENERAL	Urban	F	1011101000110101	0000000000010000	-	-	-	-	-	-	-	-	-	-	Terminate	
Unknown	61.98457	11/01/0116 06:36.00	00003719	5.063	Inter749t31-0	0.036	1	1	356.903	11.111	2.5	0.000	0.000	D	F	497.6	359.266	0.198	-0.003	1500.175	1466.132	0.028	L	0.023	-0.459	-	-	-	12	1.112	5.629	1.112	PAVEMENT_GENERAL	Urban	F	1011101000110101	0000000000010000	-	-	-	-	-	-	-	-	-	-	Terminate	
Unknown	62.98459	11/01/0116 06:36.01	00003779	2.235	Inter749t11-0	0.072	LT1	2	0.000	11.111	2.5	0.000	0.418	D	F	477.5	359.479	0.109	0.000	1500.134	1470.271	0.039	L	-0.002	-5.085	-	-	-	12	1.727	3.859	1.727	PAVEMENT_GENERAL	Urban	F	1011101000110101	0000000000010000	-	-	-	-	-	-	-	-	-	-	Terminate	
Unknown	63.98461	11/01/0116 06:36.02	00003839	-0.002	Inter749t11-0	0.068	LT1	2	0.000	11.111	2.5	0.000	0.403	D	F	477.5	359.503	0.252	-0.000	1500.131	1470.758	0.035	L	0.000	0.015	-	-	-	12	-	3.372	-	PAVEMENT_GENERAL	Urban	F	1011101000110101	0000000000010000	-	-	-	-	-	-	-	-	-	-	Terminate	
Unknown	64.98463	11/01/0116 06:36.03	00003899	-0.001	Inter749t11-0	0.068	LT1	2	0.000	11.111	2.4	0.000	0.370	D	F	477.5	359.503	0.222	-0.000	1500.131	1470.757	0.030	L	-0.000	0.001	-	-	-	12	-	3.373	-	PAVEMENT_GENERAL	Urban	F	1011101000110101	0000000000010000	-	-	-	-	-	-	-	-	-	-	Terminate	
Unknown	65.98465	11/01/0116 06:36.04	00003959	-0.000	Inter749t11-0	0.068	LT1	2	0.000	11.111	2.4	0.000	0.364	D	F	477.5	359.503	0.213	-0.000	1500.131	1470.756	0.029	L	0.000	0.000	-	-	-	12	-	3.374	-	PAVEMENT_GENERAL	Urban	F	1011101000110101	0000000000010000	-	-	-	-	-	-	-	-	-	-	Terminate	
Unknown	66.98467	11/01/0116 06:36.05	00004019	-0.000	Inter749t11-0	0.068	LT1	2	0.000	11.111	0.9	0.000	0.352	D	F	477.5	359.503	0.210	-0.000	1500.131	1470.756	0.028	L	0.000	0.000	-	-	-	12	-	3.374	-	PAVEMENT_GENERAL	Urban	F	1011101000110101	0000000000010000	-	-	-	-	-	-	-	-	-	-	Terminate	
Unknown	67.98470	11/01/0116 06:36.06	00004079	-0.000	Inter749t11-0	0.068	LT1	2	0.000	11.111	1.8	0.000	0.284	D	F	477.5	359.503	0.209	-0.000	1500.131	1470.756	0.028	L	-0.000	0.000	-	-	-	12	-	3.374	-	PAVEMENT_GENERAL	Urban	F	1011101000110101	0000000000010000	-	-	-	-	-	-	-	-	-	-	Terminate	
Unknown	68.98471	11/01/0116 06:36.07	00004139	-0.000	Inter749t11-0	0.068	LT1	2	0.000	11.111	1.7	0.000	0.266	D	F	477.5	359.503	0.209	-0.000	1500.131	1470.756	0.028	L	-0.000	0.000	-	-	-	12	-	3.374	-	PAVEMENT_GENERAL	Urban	F	1011101000110101	0000000000010000	-	-	-	-	-	-	-	-	-	-	Terminate	
Unknown	69.98473	11/01/0116 06:36.08	00004199	-0.000	Inter749t11-0	0.068	LT1	2	0.000	11.111	1.7	0.000	0.257	D	F	477.5	359.503	0.209	-0.000	1500.131	1470.756	0.028	L	0.000	0.000	-	-	-	12	-	3.374	-	PAVEMENT_GENERAL	Urban	F	1011101000110101	0000000000010000	-	-	-	-	-	-	-	-	-	-	Terminate	
Unknown	70.98476	11/01/0116 06:36.09	00004259	-0.000	Inter749t11-0	0.068	LT1	2	0.000	11.111	1.6	0.000	0.000	D	F	477.5	359.503	0.209	-0.000	1500.131	1470.756	0.028	L	0.000	0.000	-	-	-	12	-	3.808	-	PAVEMENT_GENERAL	Urban	F	1111101000110101	0000000000010000	-	-	-	-	-	-	-	-	-	-	Terminate	
Unknown	71.98477	11/01/0116 06:36.10	00004319	0.358	Inter749t11-0	0.068	LT1	2	0.000	11.111	1.5	0.180	0.000	D	F	1365.5	359.506	0.215	0.001	1500.130	1470.797	0.010	L	0.001	2.801	-	-	-	12	16.976	6.080	-	PAVEMENT_GENERAL	Urban	F	1011101000110101	0000000000010000	-	-	-	-	-	-	-	-	-	-	Terminate	
Unknown	72.98479	11/01/0116 06:36.11	00004379	3.860	Inter749t11-0	0.053	LT1	2	0.000	11.111	1.5	0.210	0.000	D	F	1748.2	359.576	0.231	-0.001	1500.115	1472.951	0.011	L	0.009	3.158	-	-	-	12	2.142	8.270	-	PAVEMENT_GENERAL	Urban	F	1011101000110101	0000000000010000	-	-	-	-	-	-	-	-	-	-	Terminate	
Unknown	73.98481	11/01/0116 06:36.12	00004439	6.429	Inter749t11-0	0.025	LT1	2	0.000	11.111	2.8	0.236	0.000	D	F	2132.1	359.749	0.217	-0.004	1500.088	1478.204	0.016	L	0.042	2.102	-	-	-	12	1.453	9.340	-	PAVEMENT_GENERAL	Urban	F	1011101000110101	0000000000010000	-	-	-	-	-	-	-	-	-	-	Terminate	
Unknown	74.98483	11/01/0116 06:36.13	00004499	8.579	Inter749t65-0	0.338	1	1	346.290	11.111	-67.3	0.199	0.000	D	F	1971.0	357.209	0.190	0.221	1499.924	1485.764	0.018	L	-1.543	1.345	-	-	-	12	1.165	9.996	-	PAVEMENT_GENERAL	Urban	F	1011101000110101	0000000000010000	-	-	-	-	-	-	-	-	-	-	Terminate	
Unknown	75.98486	11/01/0116 06:36.14	00004559	9.457	-Inter749t59-0	1.797	-1	1	89.733	11.111	-181.8	0.143	0.000	D	F	1717.8	338.522	0.189	0.633	1497.972	1494.610	0.027	L	-4.694	0.224	-	-	-	12	1.346	12.732	-	PAVEMENT_GENERAL	Urban	F	1011101000110101	0000000000010000	-	-	-	-	-	-	-	-	-	-	Terminate	
Unknown	76.98487	11/01/0116 06:36.15	00004619	10.048	Inter749t75-0	-1.590	1	1	269.734	11.111	-194.5	0.208	0.000	D	F	1939.8	306.017	0.179	0.727	1491.863	1501.988	0.031	L	-5.651	0.607	-	-	-	12	1.315	13.216	-	PAVEMENT_GENERAL	Urban	F	1011101000110101	0000000000010000	-	-	-	-	-	-	-	-	-	-	Terminate	
Unknown	77.98489	11/01/0116 06:36.16	00004679	10.481	Inter749t65-0	1.729	1	1	271.787	11.111	-122.5	0.152	0.000	D	F	1629.4	274.674	0.109	0.613	1482.201	1505.242	0.032	L	-4.688	0.211	-	-	-	12	1.258	13.187	-	PAVEMENT_GENERAL	Urban	F	1011101000110101	0000000000010000	-	-	-	-	-	-	-	-	-	-	Terminate	
Unknown	78.98492	11/01/0116 06:36.17	00004739	11.002	Inter749t3-3	1.263	1	2	270.000	11.111	28.1	0.198	0.000	D	F	1711.7	265.860	0.207	-0.154	1471.501	1504.794	0.023	-	0.768	0.708	-	-	-	12	1.722	18.945	-	PAVEMENT_GENERAL	Urban	F	1011101000010101	0000000000010000	-	-	-	-	-	-	-	-	-	-	Terminate	
Unknown	79.98493	11/01/0116 06:36.18	00004799	11.876	Inter749t19-0	0.843	1	1	270.084	11.111	-6.4	0.268	0.000	D	F	2027.8	268.599	0.210	0.021	1460.093	1504.381	0.022	-	-0.149	1.018	-	-	-	12	1.985	23.577	-	PAVEMENT_GENERAL	Urban	F	1011101000010101	0000000000010000	-	-	-	-	-	-	-	-	-	-	Terminate	
Unknown	80.98495	11/01/0116 06:36.19	00004859	13.006	Inter749t19-0	0.446	1	1	270.104	11.111	12.5	0.279	0.000	D	F	2311.6	268.507	0.209	-0.063	1447.664	1504.000	0.021	-	0.453	1.132	-	-	-	12	2.244	29.191	-	PAVEMENT_GENERAL	Urban	F	1011101000010101	0000000000010000	-	-	-	-	-	-	-	-	-	-	Terminate	
Unknown	81.98497	11/01/0116 06:36.20	00004919	14.120	Inter749t19-0	0.274	1	1	270.062	11.111	-2.5	0.284	0.000	D	F	2451.2	269.626	0.208	0.010	1434.101	1503.855	0.021	-	-0.094	1.111	-	-	-	12	2.523	35.619	-	PAVEMENT_GENERAL	Urban	F	1011101000010101	0000000000010000	-	-	-	-	-	-	-	-	-	-	Terminate	
Unknown	82.98499	11/01/0116 06:36.21	00004979	15.220	Inter749t19-0	0.137	1	1	270.061	11.111	1.7	0.291	0.000	D	F	2615.2	269.767	0.205	-0.022	1419.429	1503.734	0.021	-	0.159	1.092	-	-	-	12	2.767	42.120	-	PAVEMENT_GENERAL	Urban	F	1011101000010101	0000000000010000	-	-	-	-	-	-	-	-	-	-	Terminate	
Unknown	83.98502	11/01/0116 06:36.22	00005039	15.967	Inter749t1-2	0.078	1	2	270.000	11.111	3.3	0.245	0.000	D	F	2033.4	269.923	0.200	-0.021	1403.784	1503.678	0.024	-	0.155	0.622	-	-	-	12	3.022	48.255	-	PAVEMENT_GENERAL	Urban	F	1011101000010101	0000000000010000	-	-	-	-	-	-	-	-	-	-	Terminate	
Unknown	84.98503	11/01/0116 06:36.23	00005099	16.565	Inter747t1-2	0.120	1	2	270.000	11.111	-1.1	0.245	0.000	D	F	2040.6	270.253	0.199	0.006	1387.515	1503.727	0.024	-	-0.046	0.577	-	-	-	12	3.274	54.228	-	PAVEMENT_GENERAL	Urban	F	1011101000010101	0000000000010000	-	-	-	-	-	-	-	-	-	-	Terminate	
Unknown	85.98505	11/01/0116 06:36.24	00005159	17.123	Inter747t1-2	0.183	1	2	270.000	11.111	2.8	0.247	0.000	D	F	2069.7	270.385	0.197	-0.023	1370.668	1503.790	0.024	-	0.165	0.544	-	-	-	12	3.489	59.735	-	PAVEMENT_GENERAL	Urban	F	1011101000010101	0000000000010000	-	-	-	-	-	-	-	-	-	-	Terminate	
Unknown	86.98507	11/01/0116 06:36.25	00005219	17.656	Inter747t1-2	0.308	1	2	270.000	11.111	-4.9	0.252	0.000	D	F	2098.9	270.154	0.196	0.041	1353.277	1503.914	0.024	-	-0.275	0.518	-	-	-	12	3.664	64.697	-	PAVEMENT_GENERAL	Urban	F	1011101000010101	0000000000010000	-	-	-	-	-	-	-	-	-	-	Terminate	
Unknown	87.98509	11/01/0116 06:36.26	00005279	18.160	Inter747t1-2	0.280	1	2	270.000	11.111	0.1	0.252	0.000	D	F	2132.6	269.645	0.196	0.006	1335.365	1503.887	0.024	-	-0.074	0.493	-	-	-	12	3.807	69.139	-	PAVEMENT_GENERAL	Urban	F	1011101000010101	0000000000010000	-	-	-	-	-	-	-	-	-	-	Terminate	
Unknown	88.98512	11/01/0116 06:36.27	00005339	18.655	Inter747t1-2	0.169	1	2	270.000	11.111	1.0	0.256	0.000	D	F	2173.2	269.670	0.194	-0.003	1316.957	1503.776	0.024	-	0.035	0.487	-	-	-	12	3.918	73.084	-	PAVEMENT_GENERAL	Urban	F	1011101000010101	0000000000010000	-	-	-	-	-	-	-	-	-	-	Terminate	
Unknown	89.98513	11/01/0116 06:36.28	00005399	19.132	Inter747t1-2	0.083	1	2	270.000	11.111	-0.5	0.256	0.000	D	F	2209.8	269.735	0.194	0.005	1298.062	1503.689	0.024	-	-0.030	0.470	-	-	-	12	4.001	76.542	-	PAVEMENT_GENERAL	Urban	F	1011101000010101	0000000000010000	-	-	-	-	-	-	-	-	-	-	Terminate	
Unknown	90.98515	11/01/0116 06:36.29	00005459	19.593	Inter747t1-2	-0.040	1	2	270.000	11.111	-0.7	0.249	0.000	D	F	2238.5	269.468	0.192	0.011	1278.698	1503.567	0.025	-	-0.080	0.444	-	-	-	12	4.059	79.532	-	PAVEMENT_GENERAL	Urban	F	1011101000010101	0000000000010000	-	-	-	-	-	-	-	-	-	-	Terminate	
Unknown	91.98518	11/01/0116 06:36.30	00005519	20.026	Inter747t1-2	-0.197	1	2	270.000	11.111	-0.0	0.249	0.000	D	F	2271.9	269.727	0.191	-0.010	1258.888	1503.410	0.025	-	0.078	0.427	-	-	-	12	4.098	82.075	-	PAVEMENT_GENERAL	Urban	F	1011101000010101	0000000000010000	-	-	-	-	-	-	-	-	-	-	Terminate	
Unknown	92.98519	11/01/0116 06:36.31	00005579	20.454	Inter747t1-2	-0.305	1	2	270.000	11.111	0.2	0.254	0.000	D	F	2308.3	269.685	0.191	-0.000	1238.648	1503.302	0.025	-	0.002	0.425	-	-	-	12	4.116	84.189	-	PAVEMENT_GENERAL	Urban	F	1011101000010101	0000000000010000	-	-	-	-	-	-	-	-	-	-	Terminate	
Unknown	93.98521	11/01/0116 06:36.32	00005639	20.783	Inter747t1-2	-0.393	1	2	270.000	11.111	0.6	0.213	0.000	D	F	2297.0	269.848	0.188	-0.006	1218.017	1503.214	0.025	-	0.048	0.302	-	-	-	12	4.134	85.911	-	PAVEMENT_GENERAL	Urban	F	1011101000010101	0000000000010000	-	-	-	-	-	-	-	-	-	-	Terminate	
Unknown	94.98523	11/01/0116 06:36.33	00005699	21.070	Inter748t1-2	-0.431	1	2	270.000	11.111	0.6	0.215	0.000	D	F	2322.4	269.975	0.188	-0.006	1197.089	1503.176	0.025	-	0.046	0.283	-	-	-	12	4.145	87.338	-	PAVEMENT_GENERAL	Urban	F	1011101000010101	0000000000010000	-	-	-	-	-	-	-	-	-	-	Terminate	
Unknown	95.98525	11/01/0116 06:36.34	00005759	21.350	Inter748t1-2	-0.424	1	2	270.000	11.111	-0.3	0.215	0.000	D	F	2348.4	270.071	0.188	0.001	1175.879	1503.182	0.025	-	0.003	0.279	-	-	-	12	4.144	88.481	-	PAVEMENT_GENERAL	Urban	F	1011101000010101	0000000000010000	-	-	-	-	-	-	-	-	-	-	Terminate	
Unknown	96.98528	11/01/0116 06:36.35	00005819	21.622	Inter748t1-2	-0.399	1	2	270.000	11.111	1.1	0.212	0.000	D	F	2372.3	270.155	0.187	-0.014	1154.392	1503.208	0.026	-	0.091	0.265	-	-	-	12	4.132	89.347	-	PAVEMENT_GENERAL	Urban	F	1011101000010101	0000000000010000	-	-	-	-	-	-	-	-	-	-	Terminate	
Unknown	97.98529	11/01/0116 06:36.36	00005879	21.891	Inter748t1-2	-0.312	1	2	270.000	11.111	-1.0	0.261	0.000	D	F	2429.2	270.317	0.188	0.001	1132.638	1503.294	0.026	-	0.000	0.346	-	-	-	12	4.109	89.947	-	PAVEMENT_GENERAL	Urban	F	1011101000010101	0000000000010000	-	-	-	-	-	-	-	-	-	-	Terminate	
Unknown	98.98531	11/01/0116 06:36.37	00005939	22.321	Inter748t1-2	-0.226	1	2	270.000	11.111	-0.3	0.434	0.000	D	F	2551.6	270.136	0.195	0.005	1110.554	1503.381	0.024	-	-0.034	0.666	-	-	-	12	4.042	90.216	-	PAVEMENT_GENERAL	Urban	F	1011101000010101	0000000000010000	-	-	-	-	-	-	-	-	-	-	Terminate	
Unknown	99.98534	11/01/0116 06:36.38	00005999	23.243	Inter748t1-2	-0.178	1	2	270.000	11.111	-0.2	0.647	0.000	D	F	3751.6	270.079	0.194	0.003	1087.839	1503.428	0.021	-	-0.023	1.284	-	-	-	-	-	-	-	PAVEMENT_GENERAL	Urban	F	1011101000010101	0000000000010000	-	-	-	-	-	-	-	-	-	-	Terminate	
Unknown	100.98535	11/01/0116 06:36.39	00006059	24.483	Inter748t1-2	-0.104	1	2	270.000	11.111	18.5	0.485	0.000	D	F	2946.3	271.015	0.181	-0.156	1063.941	1503.503	0.022	-	1.155	0.852	-	-	-	-	-	-	-	PAVEMENT_GENERAL	Urban	F	1011101000010101	0000000000010000	-	-	-	-	-	-	-	-	-	-	Terminate	
Unknown	101.98537	11/01/0116 06:36.40	00006119	25.173	Inter748t1-2	0.985	1	2	270.000	11.111	10.2	0.617	0.000	D	F	2808.6	274.790	0.181	-0.164	1039.133	1504.592	0.024	-	1.276	0.689	-	-	-	-	-	-	-	PAVEMENT_GENERAL	Urban	F	1011101000010101	0000000000010000	-	-	-	-	-	-	-	-	-	-	Terminate	
Unknown	102.98539	11/01/0116 06:36.41	00006179	25.882	Inter748t1-3	-0.457	2	2	270.000	11.111	-15.6	0.730	0.000	D	F	2883.5	274.304	0.182	0.136	1013.702	1506.750	0.024	-	-0.990	0.739	-	-	-	-	-	-	-	PAVEMENT_GENERAL	Urban	F	1011101000010101	0000000000010000	-	-	-	-	-	-	-	-	-	-	Terminate	
Unknown	103.98541	11/01/0116 06:36.42	00006239	26.593	Inter752t1-3	0.106	2	2	269.954	24.444	-19.8	0.804	0.000	D	F	2956.4	269.817	-0.116	-0.059	987.505	1507.997	0.080	-	-1.906	0.883	-	-	-	-	-	-	-	FREEWAY_SMOOTH	Urban	F	1011101000010101	0000000000010000	-	-	-	-	-	-	-	-	-	-	Terminate	
Unknown	104.98544	11/01/0116 06:36.43	00006299	27.340	Inter752t1-3	-0.352	2	2	268.745	24.444	-5.3	0.873	0.000	D	F	3027.9	266.107	0.319	-0.802	960.551	1507.263	0.142	-	-1.198	0.770	-	-	-	-	-	-	-	FREEWAY_SMOOTH	Urban	F	1011101000010101	0000000000010000	-	-	-	-	-	-	-	-	-	-	Terminate	
Unknown	105.98545	11/01/0116 06:36.44	00006359	28.112	Inter752t1-3	-1.130	2	2	266.214	24.444	-10.9	0.885	0.000	D	F	3103.3	265.223	0.316	-1.501	932.895	1505.297	0.209	-	-0.860	0.772	-	-	-	-	-	-	-	FREEWAY_SMOOTH	Urban	F	1011101000010101	0000000000010000	-	-	-	-	-	-	-	-	-	-	Terminate	
Unknown	106.98547	11/01/0116 06:36.45	00006419	28.857	Inter752t1-3	-1.231	2	2	262.211	24.444	-20.9	0.905	0.000	D	F	3166.9	261.870	0.330	-2.049	904.562	1502.343	0.286	-	-2.084	0.747	-	-	-	-	-	-	-	FREEWAY_SMOOTH	Urban	F	1011101000010101	0000000000010000	-	-	-	-	-	-	-	-	-	-	Terminate	
Unknown	107.98550	11/01/0116 06:36.46	00006479	29.547	Inter752t1-3	-1.013	2	2	256.678	24.444	-27.8	0.924	0.000	D	F	3229.4	256.096	0.300	-2.626	875.817	1497.212	0.380	-	-3.175	0.725	-	-	-	-	-	-	-	FREEWAY_SMOOTH	Urban	F	1011101000010101	0000000000010000	-	-	-	-	-	-	-	-	-	-	Terminate	
Unknown	108.98551	11/01/0116 06:36.47	00006539	30.154	Inter752t1-3	-0.784	2	2	249.632	24.444	-30.3	0.937	0.000	D	F	3287.1	248.364	0.073	-2.963	847.195	1488.749	0.453	-	-4.052	0.668	-	-	-	-	-	-	-	FREEWAY_SMOOTH	Urban	F	1011101000010101	0000000000010000	-	-	-	-	-	-	-	-	-	-	Terminate	
Unknown	109.98553	11/01/0116 06:36.48	00006599	30.703	Inter752t1-3	-0.631	2	2	242.126	24.444	-32.0	0.947	0.000	D	F	3339.0	240.753	0.080	-2.973	819.405	1476.374	0.463	-	-4.112	0.658	-	-	-	-	-	-	-	FREEWAY_SMOOTH	Urban	F	1011101000010101	0000000000010000	-	-	-	-	-	-	-	-	-	-	Terminate	
Unknown	110.98555	11/01/0116 06:36.49	00006659	31.241	Inter752t1-3	-0.522	2	2	234.451	24.444	-32.0	0.982	0.000	D	F	3391.6	232.994	0.068	-2.968	793.052	1460.119	0.470	-	-4.155	0.657	-	-	-	-	-	-	-	FREEWAY_SMOOTH	Urban	F	1011101000010101	0000000000010000	-	-	-	-	-	-	-	-	-	-	Terminate	
Unknown	111.98557	11/01/0116 06:36.50	00006719	31.765	Inter752t1-3	-0.404	2	2	226.700	24.444	-32.8	0.981	0.000	D	F	3439.4	225.213	0.071	-2.951	768.699	1440.144	0.477	-	-4.285	0.644	-	-	-	-	-	-	-	FREEWAY_SMOOTH	Urban	F	1011101000010101	0000000000010000	-	-	-	-	-	-	-	-	-	-	Terminate	
Unknown	112.98560	11/01/0116 06:36.51	00006779	32.269	Inter752t1-3	-0.231	2	2	218.843	24.444	-31.5	0.979	0.000	D	F	3485.5	217.473	0.073	-2.956	746.908	1416.698	0.487	-	-4.256	0.632	-	-	-	-	-	-	-	FREEWAY_SMOOTH	Urban	F	1011101000010101	0000000000010000	-	-	-	-	-	-	-	-	-	-	Terminate	
Unknown	113.98561	11/01/0116 06:36.52	00006839	32.761	Inter752t1-3	0.141	2	2	210.845	24.444	-33.3	0.968	0.000	D	F	3528.9	209.975	0.103	-2.947	728.121	1390.165	0.510	-	-4.298	0.607	-	-	-	-	-	-	-	FREEWAY_SMOOTH	Urban	F	1011101000010101	0000000000010000	-	-	-	-	-	-	-	-	-	-	Terminate	
Unknown	114.98563	11/01/0116 06:36.53	00006899	33.193	Inter752t1-3	0.723	2	2	202.702	24.444	-39.8	0.958	0.000	D	F	3568.7	201.498	0.082	-2.857	712.842	1360.942	0.546	-	-4.981	0.589	-	-	-	-	-	-	-	FREEWAY_SMOOTH	Urban	F	1011101000010101	0000000000010000	-	-	-	-	-	-	-	-	-	-	Terminate	
Unknown	115.98566	11/01/0116 06:36.54	00006959	33.517	Inter752t1-3	1.037	2	2	194.680	24.444	-43.2	0.917	0.000	D	F	3598.4	191.986	-0.230	-2.407	701.976	1329.404	0.518	-	-5.537	0.515	-	-	-	-	-	-	-	FREEWAY_GENERAL	Urban	F	1111101000010101	0000000000010000	-	-	-	-	-	-	-	-	-	-	Terminate	
Unknown	116.98567	11/01/0116 06:36.55	00007019	33.830	Inter752t1-3	0.348	2	2	188.090	24.444	-36.6	0.935	0.000	D	F	3627.3	183.483	-0.245	-1.705	696.175	1296.245	0.366	-	-4.840	0.540	-	-	-	-	-	-	-	FREEWAY_SMOOTH	Urban	F	1011101000010101	0000000000010000	-	-	-	-	-	-	-	-	-	-	Terminate	
Unknown	117.98569	11/01/0116 06:36.56	00007079	34.275	Inter752t1-3	-1.700	2	2	183.364	24.444	-4.0	0.938	0.000	D	F	3667.0	178.410	-0.134	-1.280	694.970	1262.231	0.190	-	-1.859	0.538	-	-	-	-	-	-	-	FREEWAY_SMOOTH	Urban	F	1011101000010101	0000000000010000	-	-	-	-	-	-	-	-	-	-	Terminate	
Unknown	118.98571	11/01/0116 06:36.57	00007139	34.807	Inter752t1-2	0.222	1	2	180.640	24.444	-0.5	0.938	0.000	D	F	3724.2	179.306	0.032	-0.661	695.571	1227.693	0.079	-	0.070	0.524	-	-	-	-	-	-	-	FREEWAY_SMOOTH	Urban	F	1011101000010101	0000000000010000	-	-	-	-	-	-	-	-	-	-	Terminate	
Unknown	119.98573	11/01/0116 06:36.58	00007199	35.301	Inter754t3-2	0.348	1	2	180.000	11.111	-0.0	0.249	0.000	D	F	3225.4	179.559	0.185	-0.025	696.045	1192.631	0.023	-	0.214	0.383	-	-	-	Ambient327	0.022	0.762	0.033	PAVEMENT_GENERAL	Urban	F	1011101000010101	0000000000010000	-	-	-	-	-	-	-	-	-	-	Terminate	
Unknown	120.98576	11/01/0116 06:36.59	00007259	34.520	Inter754t3-2	0.031	1	2	180.000	11.111	0.5	0.000	0.009	D	F	2363.6	179.828	0.144	-0.049	696.362	1157.671	0.032	-	0.350	-0.895	-	-	-	Ambient331	3.615	124.789	5.503	PAVEMENT_GENERAL	Urban	F	1011101000010101	0000000000010000	-	-	-	-	-	-	-	-	-	-	Terminate	
Unknown	121.98577	11/01/0116 06:37.00	00007319	31.842	Inter754t3-2	-0.160	1	2	180.000	11.111	2.8	0.000	0.331	D	F	2068.9	179.376	0.064	0.014	696.553	1124.168	0.040	-	-0.130	-4.735	-	-	-	Ambient331	3.239	103.131	5.157	PAVEMENT_GENERAL	Urban	F	1011101000010101	0000000000010000	-	-	-	-	-	-	-	-	-	-	Terminate	
Unknown	122.98579	11/01/0116 06:37.01	00007379	28.198	Inter754t9-0	-0.395	1	1	179.994	11.111	0.6	0.000	0.000	D	F	1923.0	179.522	0.182	0.002	696.788	1094.501	0.031	-	-0.013	-0.783	-	-	-	Ambient331	3.025	85.311	5.217	PAVEMENT_GENERAL	Urban	F	1011101000010101	0000000000010000	-	-	-	-	-	-	-	-	-	-	Terminate	
Unknown	123.98581	11/01/0116 06:37.02	00007439	27.025	Inter754t9-0	-0.596	1	1	179.989	11.111	3.2	0.000	0.099	D	F	1817.8	179.786	0.136	-0.034	696.993	1066.765	0.033	-	0.226	-1.925	-	-	-	Ambient331	2.569	69.422	4.573	PAVEMENT_GENERAL	Urban	F	1011101000010101	0000000000010000	-	-	-	-	-	-	-	-	-	-	Terminate	
Unknown	124.98583	11/01/0116 06:37.03	00007499	24.997	Inter754t9-0	-0.591	1	1	179.994	11.111	-3.1	0.000	0.015	D	F	1701.8	180.264	0.187	0.005	696.993	1040.804	0.032	-	-0.029	-0.921	-	-	-	Ambient331	2.210	55.251	4.201	PAVEMENT_GENERAL	Urban	F	1011101000010101	0000000000010000	-	-	-	-	-	-	-	-	-	-	Terminate	
Unknown	125.98586	11/01/0116 06:37.04	00007559	24.305	Inter754t1-1	-0.616	1	1	180.000	11.111	2.3	0.000	0.000	D	F	1657.1	179.779	0.172	-0.016	697.020	1016.158	0.030	-	0.099	-0.675	-	-	-	Ambient331	1.749	42.509	3.412	PAVEMENT_GENERAL	Urban	F	1011101000010101	0000000000010000	-	-	-	-	-	-	-	-	-	-	Terminate	
Unknown	126.98587	11/01/0116 06:37.05	00007619	22.040	Inter686t1-0	-0.642	1	1	180.000	11.111	-0.1	0.000	0.236	D	F	1454.1	180.092	0.118	-0.002	697.038	992.687	0.036	-	0.022	-3.596	-	-	-	Ambient331	1.401	30.885	3.029	PAVEMENT_GENERAL	Urban	F	1011101000010101	0000000000010000	-	-	-	-	-	-	-	-	-	-	Terminate	
Unknown	127.98589	11/01/0116 06:37.06	00007679	18.581	Inter686t1-0	-0.619	1	1	180.000	11.111	-1.0	0.000	0.182	D	F	1235.9	180.025	0.154	0.007	697.016	972.429	0.035	-	-0.043	-2.871	-	-	-	Ambient331	1.210	22.474	3.336	PAVEMENT_GENERAL	Urban	F	1011101000010101	0000000000010000	-	-	-	-	-	-	-	-	-	-	Terminate	
Unknown	128.98592	11/01/0116 06:37.07	00007739	17.175	Inter686t1-0	-0.620	1	1	180.000	11.111	2.0	0.000	0.116	D	F	1152.1	180.026	0.148	-0.009	697.016	954.574	0.032	-	0.068	-2.013	-	-	-	Ambient331	0.959	16.466	3.089	PAVEMENT_GENERAL	Urban	F	1011101000010101	0000000000010000	-	-	-	-	-	-	-	-	-	-	Terminate	
Unknown	129.98593	11/01/0116 06:37.08	00007799	15.110	Inter686t1-0	-0.566	1	1	180.000	11.111	-2.2	0.000	0.033	D	F	1027.5	180.257	0.210	0.010	696.962	938.481	0.031	-	-0.076	-0.870	-	-	-	Ambient331	0.809	12.219	3.742	PAVEMENT_GENERAL	Urban	F	1011101000010101	0000000000010000	-	-	-	-	-	-	-	-	-	-	Terminate	
Unknown	130.98595	11/01/0116 06:37.09	00007859	13.698	Inter686t1-0	-0.514	1	1	180.000	11.111	1.0	0.000	0.057	D	F	927.0	180.336	0.178	-0.009	696.911	924.007	0.031	-	0.076	-1.329	-	-	-	Ambient331	0.700	9.593	5.176	PAVEMENT_GENERAL	Urban	F	1011101000010101	0000000000010000	-	-	-	-	-	-	-	-	-	-	Terminate	
Unknown	131.98598	11/01/0116 06:37.10	00007919	13.137	Inter686t1-0	-0.416	1	1	180.000	11.111	-1.2	0.000	0.000	D	F	896.1	180.477	0.192	0.005	696.812	910.613	0.029	-	-0.029	-0.509	-	-	-	Ambient331	0.612	8.045	6.226	PAVEMENT_GENERAL	Urban	F	1011101000010101	0000000000010000	-	-	-	-	-	-	-	-	-	-	Terminate	
Unknown	132.98599	11/01/0116 06:37.11	00007979	12.597	Inter686t1-0	-0.352	1	1	180.000	11.111	-1.6	0.000	0.000	D	F	1210.0	180.063	0.192	0.012	696.748	897.740	0.029	-	-0.089	-0.542	-	-	-	Ambient331	0.557	7.019	9.330	PAVEMENT_GENERAL	Urban	F	1011101000010101	0000000000010000	-	-	-	-	-	-	-	-	-	-	Terminate	
Unknown	133.98601	11/01/0116 06:37.12	00008039	12.063	Inter686t1-0	-0.374	1	1	180.000	11.111	1.1	0.000	0.000	D	F	1184.5	179.758	0.193	-0.001	696.770	885.411	0.029	-	0.009	-0.530	-	-	-	Ambient331	0.542	6.537	29.941	PAVEMENT_GENERAL	Urban	F	1111101000010101	0000000000010000	-	-	-	-	-	-	-	-	-	-	Terminate	
Unknown	134.98604	11/01/0116 06:37.13	00008099	11.538	Inter686t1-0	-0.377	1	1	180.000	11.111	0.4	0.000	0.000	D	F	1133.5	180.215	0.193	-0.004	696.773	873.611	0.029	-	0.039	-0.521	-	-	-	Ambient331	0.571	6.584	-	PAVEMENT_GENERAL	Urban	F	1011101000010101	0000000000010000	-	-	-	-	-	-	-	-	-	-	Terminate	
Unknown	135.98605	11/01/0116 06:37.14	00008159	11.021	Inter686t1-0	-0.368	1	1	180.000	11.111	2.2	0.000	0.000	D	F	1082.8	179.767	0.194	-0.015	696.764	862.332	0.029	-	0.033	-0.514	-	-	-	Ambient331	0.649	7.152	-	PAVEMENT_GENERAL	Urban	F	1011101000010101	0000000000010000	-	-	-	-	-	-	-	-	-	-	Terminate	
Unknown	136.98607	11/01/0116 06:37.15	00008219	10.510	Inter686t1-0	-0.387	1	1	180.000	11.111	0.2	0.000	0.000	D	F	1032.7	179.952	0.194	-0.001	696.783	851.567	0.029	-	0.008	-0.507	-	-	-	Ambient331	0.783	8.234	-	PAVEMENT_GENERAL	Urban	F	1011101000010101	0000000000010000	-	-	-	-	-	-	-	-	-	-	Terminate	
Unknown	137.98610	11/01/0116 06:37.16	00008279	10.007	Inter686t1-0	-0.392	1	1	180.000	11.111	2.6	0.000	0.000	D	F	983.3	180.000	0.195	-0.011	696.788	841.309	0.029	-	0.077	-0.500	-	-	-	Ambient331	0.982	9.823	-	PAVEMENT_GENERAL	Urban	F	1011101000010101	0000000000010000	-	-	-	-	-	-	-	-	-	-	Terminate	
Unknown	138.98611	11/01/0116 06:37.17	00008339	9.981	Inter686t1-0	-0.372	1	1	180.000	11.111	-2.0	0.118	0.000	D	F	1448.6	180.068	0.204	0.006	696.768	831.404	0.025	-	-0.058	0.336	-	-	-	Ambient331	1.179	11.765	-	PAVEMENT_GENERAL	Urban	F	1011101000010101	0000000000010000	-	-	-	-	-	-	-	-	-	-	Terminate	
Unknown	139.98613	11/01/0116 06:37.18	00008399	10.384	Inter686t1-0	-0.355	1	1	180.000	11.111	-1.0	0.134	0.000	D	F	1508.1	180.253	0.204	0.003	696.751	821.226	0.024	-	-0.005	0.409	-	-	-	Ambient331	1.294	13.434	-	PAVEMENT_GENERAL	Urban	F	1011101000010101	0000000000010000	-	-	-	-	-	-	-	-	-	-	Terminate	
Unknown	140.98616	11/01/0116 06:37.19	00008459	10.777	Inter686t1-0	-0.317	1	1	180.000	11.111	-1.0	0.131	0.000	D	F	1518.4	180.214	0.203	0.004	696.713	810.650	0.024	-	-0.016	0.407	-	-	-	Ambient331	1.364	14.705	-	PAVEMENT_GENERAL	Urban	F	1011101000010101	0000000000010000	-	-	-	-	-	-	-	-	-	-	Terminate	
Unknown	141.98618	11/01/0116 06:37.20	00008519	10.505	Inter682t1-1	-0.298	1	1	180.000	11.111	0.2	0.000	0.000	D	F	1032.2	180.005	0.193	-0.001	696.702	799.929	0.029	-	0.004	-0.506	-	-	-	Ambient331	1.507	15.830	-	PAVEMENT_GENERAL	Urban	F	1011101000010101	0000000000010000	-	-	-	-	-	-	-	-	-	-	Terminate	
Unknown	142.98619	11/01/0116 06:37.21	00008579	10.002	Inter682t1-1	-0.291	1	1	180.000	11.111	0.2	0.000	0.000	D	F	982.8	180.072	0.195	-0.001	696.695	789.676	0.029	-	0.010	-0.500	-	-	-	Ambient331	1.742	17.424	-	PAVEMENT_GENERAL	Urban	F	1011101000010101	0000000000010000	-	-	-	-	-	-	-	-	-	-	Terminate	
Unknown	143.98621	11/01/0116 06:37.22	00008639	9.976	Inter682t1-1	-0.286	1	1	180.000	11.111	-0.7	0.120	0.000	D	F	1456.3	179.980	0.204	0.002	696.689	779.786	0.025	-	-0.019	0.370	-	-	-	Ambient331	1.943	19.381	-	PAVEMENT_GENERAL	Urban	F	1011101000010101	0000000000010000	-	-	-	-	-	-	-	-	-	-	Terminate	
Unknown	144.98624	11/01/0116 06:37.23	00008699	10.374	Inter682t1-1	-0.296	1	1	180.000	11.111	0.9	0.141	0.000	D	F	1531.1	179.959	0.204	-0.004	696.700	769.621	0.024	-	0.026	0.444	-	-	-	Ambient331	2.030	21.064	-	PAVEMENT_GENERAL	Urban	F	1011101000010101	0000000000010000	-	-	-	-	-	-	-	-	-	-	Terminate	
Unknown	145.98625	11/01/0116 06:37.24	00008759	10.815	Inter682t1-1	-0.291	1	1	180.000	11.111	-1.1	0.120	0.000	D	F	1504.8	180.052	0.201	0.005	696.695	759.019	0.024	-	-0.026	0.364	-	-	-	Ambient331	2.063	22.309	-	PAVEMENT_GENERAL	Urban	F	1011101000010101	0000000000010000	-	-	-	-	-	-	-	-	-	-	Terminate	
Unknown	146.98627	11/01/0116 06:37.25	00008819	10.391	Inter682t1-1	-0.289	1	1	180.000	11.111	0.9	0.000	0.000	D	F	1021.0	180.016	0.194	-0.007	696.693	748.379	0.029	-	0.029	-0.505	-	-	-	Ambient331	2.263	23.515	-	PAVEMENT_GENERAL	Urban	F	1011101000010101	0000000000010000	-	-	-	-	-	-	-	-	-	-	Terminate	
Unknown	147.98630	11/01/0116 06:37.26	00008879	10.133	Inter682t1-1	-0.273	1	1	180.000	11.111	0.3	0.125	0.000	D	F	1470.4	180.134	0.202	-0.001	696.677	738.200	0.025	-	0.009	0.343	-	-	-	Ambient331	2.485	25.184	-	PAVEMENT_GENERAL	Urban	F	1011101000010101	0000000000010000	-	-	-	-	-	-	-	-	-	-	Terminate	
Unknown	148.98631	11/01/0116 06:37.27	00008939	10.466	Inter682t1-1	-0.245	1	1	180.000	11.111	2.4	0.053	0.000	D	F	1215.1	180.214	0.193	-0.016	696.649	727.878	0.025	-	0.074	-0.024	-	-	-	Ambient331	2.552	26.708	-	PAVEMENT_GENERAL	Urban	F	1011101000010101	0000000000010000	-	-	-	-	-	-	-	-	-	-	Terminate	
Unknown	149.98633	11/01/0116 06:37.28	00008999	10.339	Inter682t1-1	-0.181	1	1	180.000	11.111	-2.2	0.035	0.000	D	F	1157.7	180.384	0.197	0.009	696.585	717.469	0.027	-	-0.053	-0.198	-	-	-	Ambient331	2.722	28.146	-	PAVEMENT_GENERAL	Urban	F	1011101000010101	0000000000010000	-	-	-	-	-	-	-	-	-	-	Terminate	
Unknown	150.98636	11/01/0116 06:37.29	00009059	9.876	Inter682t1-1	-0.160	1	1	180.000	11.111	-4.3	0.030	0.000	D	F	1029.5	179.862	0.197	0.021	696.564	707.351	0.029	-	-0.131	-0.412	-	-	-	Ambient331	3.025	29.875	-	PAVEMENT_GENERAL	Urban	F	1011101000010101	0000000000010000	-	-	-	-	-	-	-	-	-	-	Terminate	
Unknown	151.98637	11/01/0116 06:37.30	00009119	10.053	Inter682t1-1	-0.217	1	1	180.000	11.111	3.2	0.079	0.000	D	F	1310.0	179.709	0.195	-0.015	696.621	697.403	0.026	-	0.087	0.050	-	-	-	Ambient331	3.161	31.774	-	PAVEMENT_GENERAL	Urban	F	1011101000010101	0000000000010000	-	-	-	-	-	-	-	-	-	-	Terminate	
Unknown	152.98639	11/01/0116 06:37.31	00009179	9.768	Inter682t1-1	-0.232	1	1	180.000	11.111	-3.0	0.000	0.000	D	F	959.9	179.930	0.194	0.015	696.636	687.424	0.029	-	-0.087	-0.496	-	-	-	Ambient331	3.444	33.642	-	PAVEMENT_GENERAL	Urban	F	1011101000010101	0000000000010000	-	-	-	-	-	-	-	-	-	-	Terminate	
Unknown	153.98642	11/01/0116 06:37.32	00009239	9.400	Inter682t1-1	-0.248	1	1	180.000	11.111	-0.9	0.069	0.000	D	F	1244.9	179.995	0.202	0.007	696.652	677.884	0.027	-	-0.018	0.021	-	-	-	Ambient331	3.824	35.949	-	PAVEMENT_GENERAL	Urban	F	1011101000010101	0000000000010000	-	-	-	-	-	-	-	-	-	-	Terminate	
Unknown	154.98643	11/01/0116 06:37.33	00009299	9.497	Inter682t1-1	-0.258	1	1	180.000	11.111	1.8	0.079	0.000	D	F	1285.9	179.974	0.201	-0.006	696.662	668.441	0.026	-	0.046	0.096	-	-	-	Ambient331	4.038	38.353	-	PAVEMENT_GENERAL	Urban	F	1011101000010101	0000000000010000	-	-	-	-	-	-	-	-	-	-	Terminate	
Unknown	155.98645	11/01/0116 06:37.34	00009359	9.601	Inter682t1-1	-0.252	1	1	180.000	11.111	-0.1	0.078	0.000	D	F	1297.4	179.998	0.201	0.003	696.656	658.894	0.026	-	-0.009	0.100	-	-	-	Ambient331	4.234	40.653	-	PAVEMENT_GENERAL	Urban	F	1011101000010101	0000000000010000	-	-	-	-	-	-	-	-	-	-	Terminate	
Unknown	156.98647	11/01/0116 06:37.35	00009419	9.726	Inter682t1-1	-0.247	1	1	180.000	11.111	-0.2	0.086	0.000	D	F	1347.3	180.042	0.202	0.001	696.651	649.240	0.026	-	-0.004	0.185	-	-	-	Ambient331	4.405	42.845	-	PAVEMENT_GENERAL	Urban	F	1011101000010101	0000000000010000	-	-	-	-	-	-	-	-	-	-	Terminate	
Unknown	157.98650	11/01/0116 06:37.36	00009479	9.909	Inter682t1-1	-0.237	1	1	180.000	11.111	0.8	0.093	0.000	D	F	1366.4	180.091	0.202	-0.003	696.641	639.424	0.025	L	0.023	0.187	-	-	-	Ambient331	4.529	44.876	-	PAVEMENT_GENERAL	Urban	F	1011101000110101	0000000000010000	-	-	-	-	-	-	-	-	-	-	Terminate	
Unknown	158.98651	11/01/0116 06:37.37	00009539	10.490	Inter682t1-1	-0.228	1	1	180.000	11.111	-5.0	0.217	0.000	D	F	1744.0	179.879	0.211	0.024	696.632	629.296	0.022	L	-0.148	0.936	-	-	-	Ambient331	4.442	46.596	-	PAVEMENT_GENERAL	Urban	F	1011101000110101	0000000000010000	-	-	-	-	-	-	-	-	-	-	Terminate	
Unknown	159.98653	11/01/0116 06:37.38	00009599	11.519	Inter682t1-1	-0.348	1	1	180.000	11.111	-5.9	0.238	0.000	D	F	2082.2	178.925	0.209	0.028	696.752	618.308	0.021	L	-0.210	1.076	-	-	-	Ambient331	4.119	47.452	-	PAVEMENT_GENERAL	Urban	F	1011101000110101	0000000000010000	-	-	-	-	-	-	-	-	-	-	Terminate	
Unknown	160.98656	11/01/0116 06:37.39	00009659	12.199	Inter682t1-1	-0.625	1	1	180.000	11.111	-5.7	0.162	0.000	D	F	1688.8	178.576	0.201	0.023	697.029	606.394	0.024	L	-0.152	0.458	-	-	-	Ambient331	3.809	46.460	19.732	PAVEMENT_GENERAL	Urban	F	1011101000110101	0000000000010000	-	-	-	-	-	-	-	-	-	-	Terminate	
Unknown	161.98657	11/01/0116 06:37.40	00009719	12.671	Inter688t25-1	-1.118	1	1	180.000	11.111	-11.8	0.178	0.000	D	F	1725.3	176.828	0.202	0.063	697.514	593.969	0.024	L	-0.485	0.487	-	-	-	Ambient331	3.429	43.445	12.656	PAVEMENT_GENERAL	Urban	F	1011101000110101	0000000000010000	-	-	-	-	-	-	-	-	-	-	Terminate	
Unknown	162.98659	11/01/0116 06:37.41	00009779	13.094	-	-	SH-	1	-	-	3.3	0.026	0.000	D	F	1348.6	175.398	0.188	-0.010	698.437	581.085	0.025	L	0.036	-0.032	-	-	-	-	-	-	-	PAVEMENT_GENERAL	Urban	F	1011101000110101	0000000000010000	-	-	-	-	-	-	-	-	-	-	Terminate	
Unknown	163.98662	11/01/0116 06:37.42	00009839	13.072	Inter688t33-0	-1.757	1	1	173.190	11.111	14.1	0.155	0.000	D	F	1678.7	177.346	0.201	-0.081	699.297	568.128	0.025	L	0.620	0.348	-	-	-	-	-	-	-	PAVEMENT_GENERAL	Urban	F	1111101000110101	0000000000010000	-	-	-	-	-	-	-	-	-	-	Terminate	
Unknown	164.98663	11/01/0116 06:37.43	00009899	12.829	Inter688t33-0	-0.477	1	1	176.027	11.111	10.2	0.000	0.000	D	F	1260.3	179.963	0.190	-0.067	699.592	555.081	0.029	L	0.524	-0.542	-	-	-	-	-	-	-	PAVEMENT_GENERAL	Urban	F	1011101000110101	0000000000010000	-	-	-	-	-	-	-	-	-	-	Terminate	
Unknown	165.98665	11/01/0116 06:37.44	00009959	12.533	Inter688t27-1	0.507	LT1	1	179.909	11.111	-2.3	0.026	0.000	D	F	1271.5	180.821	0.186	0.013	699.446	542.446	0.027	L	-0.083	-0.366	-	-	-	-	-	-	-	PAVEMENT_GENERAL	Urban	F	1011101000110101	0000000000010000	-	-	-	-	-	-	-	-	-	-	Terminate	
Unknown	166.98668	11/01/0116 06:37.45	00010019	11.713	Inter688t27-1	0.638	LT1	1	179.909	11.111	-3.7	0.000	0.194	D	F	1120.5	180.170	0.122	0.017	699.334	530.193	0.031	L	-0.144	-2.655	-	-	-	-	-	-	-	PAVEMENT_GENERAL	Urban	F	1011101000110101	0000000000010000	-	-	-	-	-	-	-	-	-	-	Terminate	
Unknown	167.98669	11/01/0116 06:37.46	00010079	7.345	Inter688t27-1	0.628	LT1	1	179.909	11.111	-4.8	0.000	0.367	D	F	686.4	179.528	0.104	0.014	699.359	520.571	0.039	L	-0.092	-4.672	-	-	-	-	-	-	-	PAVEMENT_GENERAL	Urban	F	1011101000110101	0000000000010000	-	-	-	-	-	-	-	-	-	-	Terminate	
Unknown	168.98671	11/01/0116 06:37.47	00010139	2.250	Inter688t59-0	0.758	1	1	170.483	11.111	-11.9	0.000	0.391	D	F	477.5	178.797	0.061	-0.003	699.439	515.760	0.039	L	-0.000	-4.933	-	-	-	-	-	-	-	PAVEMENT_GENERAL	Urban	F	1011101000110101	0000000000010000	-	-	-	-	-	-	-	-	-	-	Terminate	
Unknown	169.98674	11/01/0116 06:37.48	00010199	0.731	Inter688t59-0	0.903	1	1	167.691	11.111	-14.1	0.000	0.000	D	F	477.5	178.516	0.222	-0.001	699.471	514.725	0.030	L	-0.002	-0.029	-	-	-	44	37.896	27.701	-	PAVEMENT_GENERAL	Urban	F	1011101000110101	0000000000010000	-	-	-	-	-	-	-	-	-	-	Terminate	
Unknown	170.98676	11/01/0116 06:37.49	00010259	0.707	Inter688t59-0	1.030	1	1	165.922	11.111	-14.2	0.000	0.000	D	F	477.5	178.302	0.200	0.000	699.497	514.007	0.027	L	-0.003	-0.020	-	-	-	44	55.023	38.875	-	PAVEMENT_GENERAL	Urban	F	1011101000110101	0000000000010000	-	-	-	-	-	-	-	-	-	-	Terminate	
Unknown	171.98677	11/01/0116 06:37.50	00010319	0.689	Inter688t59-0	1.171	1	1	164.281	11.111	-15.2	0.000	0.000	D	F	477.5	178.082	0.202	0.000	699.525	513.310	0.026	L	-0.003	-0.015	-	-	-	44	75.289	51.904	-	PAVEMENT_GENERAL	Urban	F	1011101000110101	0000000000010000	-	-	-	-	-	-	-	-	-	-	Terminate	
Unknown	172.98679	11/01/0116 06:37.51	00010379	0.676	Inter688t59-0	1.322	1	1	162.755	11.111	-37.4	0.000	0.000	D	F	477.5	177.781	0.204	0.003	699.557	512.629	0.026	L	-0.024	-0.012	-	-	-	Ambient361	43.831	29.639	-	PAVEMENT_GENERAL	Urban	F	1011101000110101	0000000000010000	-	-	-	-	-	-	-	-	-	-	Terminate	
Unknown	173.98682	11/01/0116 06:37.52	00010439	3.352	Inter688t59-0	1.678	1	1	159.168	11.111	-93.0	0.240	0.000	D	F	1736.5	175.015	0.195	0.077	699.733	510.954	0.009	L	-0.541	3.654	-	-	-	Ambient361	11.428	38.301	-	PAVEMENT_GENERAL	Urban	F	1011101000110101	0000000000010000	-	-	-	-	-	-	-	-	-	-	Terminate	
Unknown	174.98683	11/01/0116 06:37.53	00010499	6.295	-	-	INT	0	-	-	-175.4	0.256	0.000	D	F	2136.0	161.394	0.221	0.330	700.998	506.204	0.015	L	-2.420	2.299	-	-	-	-	-	-	-	PAVEMENT_GENERAL	Urban	F	1011101000110101	0000000000010000	-	-	-	-	-	-	-	-	-	-	Terminate	
Unknown	175.98685	11/01/0116 06:37.54	00010559	8.131	-Inter688t49-0	1.432	-1	1	359.794	11.111	-173.4	0.125	0.000	D	F	1678.1	137.911	0.181	0.478	705.088	500.179	0.022	L	-3.665	0.611	-	-	-	42	17.660	143.587	-	PAVEMENT_GENERAL	Urban	F	1011101000110101	0000000000010000	-	-	-	-	-	-	-	-	-	-	Terminate	
Unknown	176.98688	11/01/0116 06:37.55	00010619	8.386	Inter688t43-0	0.462	1	1	89.747	11.111	-186.0	0.129	0.000	D	F	1445.0	109.157	0.147	0.551	712.127	496.016	0.028	L	-4.257	0.177	-	-	-	Ambient398	2.337	19.599	-	PAVEMENT_GENERAL	Urban	F	1011101000110101	0000000000010000	-	-	-	-	-	-	-	-	-	-	Terminate	
Unknown	177.98689	11/01/0116 06:37.57	00010679	8.887	Inter688t5-0	1.086	1	1	90.156	11.111	-20.7	0.231	0.000	D	F	1740.9	87.831	0.206	0.042	720.658	495.413	0.023	L	-0.579	1.026	-	-	-	Ambient398	2.422	21.522	-	PAVEMENT_GENERAL	Urban	F	1011101000110101	0000000000010000	-	-	-	-	-	-	-	-	-	-	Terminate	
Unknown	178.98691	11/01/0116 06:37.58	00010739	10.299	Inter688t5-0	0.618	1	1	90.156	11.111	3.2	0.295	0.000	D	F	2059.8	87.786	0.214	-0.013	730.221	495.855	0.020	-	0.134	1.435	-	-	-	Ambient398	2.177	22.419	-	PAVEMENT_GENERAL	Urban	F	1011101000010101	0000000000010000	-	-	-	-	-	-	-	-	-	-	Terminate	
Unknown	179.98694	11/01/0116 06:37.59	00010799	11.573	Inter688t5-0	0.194	1	1	90.156	11.111	6.8	0.249	0.000	D	F	2117.2	88.149	0.210	-0.033	741.186	496.250	0.021	-	0.220	1.097	-	-	-	Ambient398	1.687	19.530	17.535	PAVEMENT_GENERAL	Urban	F	1011101000010101	0000000000010000	-	-	-	-	-	-	-	-	-	-	Terminate	
Unknown	180.98695	11/01/0116 06:38.00	00010859	11.558	Inter688t19-0	-0.084	1	1	90.055	11.111	-3.5	0.000	0.000	D	F	1158.3	89.120	0.191	0.015	752.914	496.503	0.029	-	-0.075	-0.518	-	-	-	Ambient398	1.786	20.646	18.794	PAVEMENT_GENERAL	Urban	F	1011101000010101	0000000000010000	-	-	-	-	-	-	-	-	-	-	Terminate	
Unknown	181.98697	11/01/0116 06:38.01	00010919	11.041	Inter688t19-0	-0.335	1	1	90.016	11.111	8.2	0.000	0.000	D	F	1085.2	88.627	0.194	-0.040	764.211	496.743	0.029	-	0.226	-0.514	-	-	-	Ambient398	1.794	19.809	34.056	PAVEMENT_GENERAL	Urban	F	1011101000010101	0000000000010000	-	-	-	-	-	-	-	-	-	-	Terminate	
Unknown	182.98700	11/01/0116 06:38.02	00010979	10.530	Inter688t19-0	-0.414	1	1	90.003	11.111	-2.6	0.000	0.000	D	F	1034.6	90.155	0.194	0.006	774.995	496.818	0.029	-	-0.041	-0.508	-	-	-	Ambient398	1.850	19.483	277.006	PAVEMENT_GENERAL	Urban	F	1011101000010101	0000000000010000	-	-	-	-	-	-	-	-	-	-	Terminate	
Unknown	183.98701	11/01/0116 06:38.03	00011039	10.027	Inter688t7-0	-0.411	1	1	90.000	11.111	3.3	0.000	0.000	D	F	985.2	90.045	0.195	-0.015	785.272	496.815	0.029	-	0.093	-0.500	-	-	-	Ambient398	1.961	19.664	-	PAVEMENT_GENERAL	Urban	F	1011101000010101	0000000000010000	-	-	-	-	-	-	-	-	-	-	Terminate	
Unknown	184.98703	11/01/0116 06:38.04	00011099	9.874	Inter688t7-0	-0.370	1	1	90.000	11.111	-5.6	0.122	0.000	D	F	1461.7	90.056	0.208	0.025	795.129	496.774	0.025	-	-0.161	0.404	-	-	-	Ambient398	2.053	20.267	-	PAVEMENT_GENERAL	Urban	F	1011101000010101	0000000000010000	-	-	-	-	-	-	-	-	-	-	Terminate	
Unknown	185.98706	11/01/0116 06:38.05	00011159	10.284	Inter683t1-0	-0.390	1	1	90.000	11.111	-2.4	0.145	0.000	D	F	1527.0	89.994	0.205	0.009	805.199	496.786	0.024	-	-0.047	0.454	-	-	-	Ambient398	2.009	20.656	-	PAVEMENT_GENERAL	Urban	F	1011101000010101	0000000000010000	-	-	-	-	-	-	-	-	-	-	Terminate	
Unknown	186.98708	11/01/0116 06:38.06	00011219	10.410	Inter683t1-0	-0.411	1	1	90.000	11.111	0.2	0.067	0.000	D	F	1283.0	89.848	0.199	-0.003	815.601	496.807	0.026	-	0.002	-0.018	-	-	-	Ambient398	1.990	20.713	-	PAVEMENT_GENERAL	Urban	F	1011101000010101	0000000000010000	-	-	-	-	-	-	-	-	-	-	Terminate	
Unknown	187.98709	11/01/0116 06:38.07	00011279	10.297	Inter683t1-0	-0.442	1	1	90.000	11.111	-1.5	0.069	0.000	D	F	1292.4	89.750	0.201	0.006	825.955	496.838	0.027	-	-0.048	-0.010	-	-	-	Ambient398	2.022	20.818	-	PAVEMENT_GENERAL	Urban	F	1011101000010101	0000000000010000	-	-	-	-	-	-	-	-	-	-	Terminate	
Unknown	188.98711	11/01/0116 06:38.08	00011339	10.300	Inter683t1-0	-0.515	1	1	90.000	11.111	-1.8	0.072	0.000	D	F	1297.0	89.479	0.200	0.007	836.250	496.911	0.026	-	-0.053	0.015	-	-	-	Ambient398	2.037	20.982	-	PAVEMENT_GENERAL	Urban	F	1011101000010101	0000000000010000	-	-	-	-	-	-	-	-	-	-	Terminate	
Unknown	189.98714	11/01/0116 06:38.09	00011399	10.243	Inter683t1-0	-0.606	1	1	90.000	11.111	4.5	0.058	0.000	D	F	1227.1	89.769	0.200	-0.020	846.537	497.002	0.027	-	0.148	-0.095	-	-	-	Ambient398	2.065	21.154	-	PAVEMENT_GENERAL	Urban	F	1011101000010101	0000000000010000	-	-	-	-	-	-	-	-	-	-	Terminate	
Unknown	190.98715	11/01/0116 06:38.10	00011459	10.194	Inter683t1-0	-0.605	1	1	90.000	11.111	-2.9	0.069	0.000	D	F	1289.6	90.059	0.200	0.010	856.746	497.001	0.026	-	-0.069	0.007	-	-	-	Ambient398	2.100	21.404	-	PAVEMENT_GENERAL	Urban	F	1011101000010101	0000000000010000	-	-	-	-	-	-	-	-	-	-	Terminate	
Unknown	191.98717	11/01/0116 06:38.11	00011519	10.230	Inter683t1-0	-0.643	1	1	90.000	11.111	3.8	0.078	0.000	D	F	1319.1	89.795	0.201	-0.013	866.953	497.039	0.026	-	0.105	0.053	-	-	-	Ambient398	2.117	21.655	-	PAVEMENT_GENERAL	Urban	F	1011101000010101	0000000000010000	-	-	-	-	-	-	-	-	-	-	Terminate	
Unknown	192.98720	11/01/0116 06:38.12	00011579	10.296	Inter683t1-0	-0.643	1	1	90.000	11.111	-0.2	0.079	0.000	D	F	1335.3	90.048	0.201	0.001	877.214	497.039	0.026	-	-0.004	0.078	-	-	-	Ambient398	2.123	21.854	-	PAVEMENT_GENERAL	Urban	F	1011101000010101	0000000000010000	-	-	-	-	-	-	-	-	-	-	Terminate	
Unknown	193.98721	11/01/0116 06:38.13	00011639	10.349	Inter683t1-0	-0.642	1	1	90.000	11.111	-1.0	0.076	0.000	D	F	1321.8	89.955	0.200	0.004	887.539	497.038	0.026	-	-0.028	0.044	-	-	-	Ambient398	2.125	21.988	-	PAVEMENT_GENERAL	Urban	F	1011101000010101	0000000000010000	-	-	-	-	-	-	-	-	-	-	Terminate	
Unknown	194.98723	11/01/0116 06:38.14	00011699	10.401	Inter683t1-0	-0.649	1	1	90.000	11.111	4.2	0.078	0.000	D	F	1326.5	90.157	0.200	-0.017	897.915	497.045	0.026	-	0.131	0.047	-	-	-	Ambient398	2.122	22.071	-	PAVEMENT_GENERAL	Urban	F	1011101000010101	0000000000010000	-	-	-	-	-	-	-	-	-	-	Terminate	
Unknown	195.98726	11/01/0116 06:38.15	00011759	10.433	Inter683t1-0	-0.590	1	1	90.000	11.111	-1.2	0.074	0.000	D	F	1314.6	90.305	0.200	0.005	908.333	496.986	0.026	-	-0.036	0.027	-	-	-	Ambient398	2.119	22.112	-	PAVEMENT_GENERAL	Urban	F	1011101000010101	0000000000010000	-	-	-	-	-	-	-	-	-	-	Terminate	
Unknown	196.98727	11/01/0116 06:38.16	00011819	10.457	Inter683t1-0	-0.539	1	1	90.000	11.111	-0.3	0.074	0.000	D	F	1318.2	90.381	0.200	-0.001	918.778	496.935	0.026	-	0.014	0.024	-	-	-	Ambient398	2.116	22.126	-	PAVEMENT_GENERAL	Urban	F	1011101000010101	0000000000010000	-	-	-	-	-	-	-	-	-	-	Terminate	
Unknown	197.98729	11/01/0116 06:38.17	00011879	10.483	Inter683t1-0	-0.499	1	1	90.000	11.111	0.2	0.078	0.000	D	F	1321.7	90.094	0.200	-0.006	929.247	496.896	0.026	-	0.002	0.029	-	-	-	Ambient398	2.110	22.115	964.741	PAVEMENT_GENERAL	Urban	F	1011101000010101	0000000000010000	-	-	-	-	-	-	-	-	-	-	Terminate	
Unknown	198.98732	11/01/0116 06:38.18	00011939	10.524	Inter683t1-0	-0.491	1	1	90.000	11.111	-2.5	0.079	0.000	D	F	1338.7	89.939	0.200	0.010	939.749	496.887	0.026	-	-0.074	0.051	-	-	-	Ambient398	2.097	22.073	340.974	PAVEMENT_GENERAL	Urban	F	1011101000010101	0000000000010000	-	-	-	-	-	-	-	-	-	-	Terminate	
Unknown	199.98734	11/01/0116 06:38.19	00011999	10.569	Inter683t1-0	-0.523	1	1	90.000	11.111	2.5	0.076	0.000	D	F	1329.7	89.930	0.200	-0.010	950.298	496.919	0.026	-	0.083	0.032	-	-	-	Ambient398	2.080	21.983	201.123	PAVEMENT_GENERAL	Urban	F	1111101000010101	0000000000010000	-	-	-	-	-	-	-	-	-	-	Terminate	
Unknown	200.98735	11/01/0116 06:38.20	00012059	10.552	Inter683t1-0	-0.507	1	1	90.000	11.111	-0.8	0.002	0.000	D	F	1026.5	90.163	0.186	0.004	960.879	496.903	0.027	-	-0.018	-0.438	-	-	-	Ambient398	2.072	21.861	236.526	PAVEMENT_GENERAL	Urban	F	1011101000010101	0000000000010000	-	-	-	-	-	-	-	-	-	-	Terminate	
Unknown	201.98737	11/01/0116 06:38.21	00012119	10.049	Inter683t1-0	-0.482	1	1	90.000	11.111	2.3	0.007	0.000	D	F	988.9	90.192	0.195	-0.010	971.179	496.878	0.029	-	0.071	-0.491	-	-	-	Ambient398	2.191	22.020	-	PAVEMENT_GENERAL	Urban	F	1011101000010101	0000000000010000	-	-	-	-	-	-	-	-	-	-	Terminate	
Unknown	202.98740	11/01/0116 06:38.22	00012179	10.062	Inter683t1-0	-0.418	1	1	90.000	11.111	-3.0	0.101	0.000	D	F	1398.1	90.408	0.203	0.013	981.178	496.814	0.025	-	-0.072	0.221	-	-	-	Ambient398	2.234	22.480	-	PAVEMENT_GENERAL	Urban	F	1011101000010101	0000000000010000	-	-	-	-	-	-	-	-	-	-	Terminate	
Unknown	203.98741	11/01/0116 06:38.23	00012239	10.315	Inter683t1-0	-0.379	1	1	90.000	11.111	1.1	0.101	0.000	D	F	1419.9	90.196	0.202	-0.006	991.367	496.775	0.025	-	0.032	0.241	-	-	-	Ambient398	2.205	22.750	-	PAVEMENT_GENERAL	Urban	F	1011101000010101	0000000000010000	-	-	-	-	-	-	-	-	-	-	Terminate	
