"Name"	"Project"	"Time"	ZoneName	Time	SystemTime	Frame	Velocity	LaneName	LanePos	LaneIndex	LaneCount	LaneHeading	SpeedLimit	Steer	Accel	Brake	Gear	Horn	SubjectEngineRPM	SubjectHeading	SubjectPitch	SubjectRoll	SubjectX	SubjectY	SubjectZ	Signal	LatAccel	LongAccel	Collision	CollisionAngle	CollisionVelocity	VehAhead	HeadwayTime	HeadwayDist	TTC	TerrainType	CultureType	Slip	DigitalInputs	DigitalInputs2	ActiveTrigger	EntityName	DistToEntity	TimeToEntity	EntityVelocity	EntityAccel	EntityHeading	EntityX	EntityY	EntityZ	GrabData	
"Student10Mode3"	"Tanvi_6"	"Nov 30, 2016 09:00:38 AM"	Unknown	0.98335	10/30/0116 09:00.42	00000059	0.002	Inter625t13-0	-0.088	1	2	0.000	11.111	0.0	0.113	0.000	D	F	0.0	0.000	0.153	0.000	1503.500	523.206	0.019	-	0.000	0.000	-	-	-	-	-	-	-	PAVEMENT_GENERAL	Urban	F	1011101000011101	0000000000000000	-	car	928.855	774720.562	0.000	0.000	180.000	696.000	987.000	-0.000	Terminate	
"Student10Mode3"	"Tanvi_6"	"Nov 30, 2016 09:00:38 AM"	Unknown	1.98337	10/30/0116 09:00.43	00000119	0.000	Inter625t13-0	-0.088	1	2	0.000	11.111	0.4	0.092	0.000	D	F	0.0	0.000	0.197	-0.000	1503.500	523.208	0.026	-	0.000	-0.001	-	-	-	-	-	-	-	PAVEMENT_GENERAL	Urban	F	1011101000011101	0000000000000000	-	car	928.855	4213787.500	0.000	0.000	180.000	696.000	987.000	-0.000	Terminate	
"Student10Mode3"	"Tanvi_6"	"Nov 30, 2016 09:00:38 AM"	Unknown	2.98339	10/30/0116 09:00.44	00000179	-0.000	Inter625t13-0	-0.088	1	2	0.000	11.111	0.3	0.026	0.000	D	F	0.0	0.000	0.207	0.000	1503.500	523.208	0.028	-	0.000	-0.000	-	-	-	-	-	-	-	PAVEMENT_GENERAL	Urban	F	1011101000011101	0000000000000000	-	car	928.854	-115954368.000	0.000	0.000	180.000	696.000	987.000	-0.000	Terminate	
"Student10Mode3"	"Tanvi_6"	"Nov 30, 2016 09:00:38 AM"	Unknown	3.98341	10/30/0116 09:00.45	00000239	-0.000	Inter625t13-0	-0.088	1	2	0.000	11.111	2.0	0.025	0.000	D	F	0.0	0.000	0.210	0.000	1503.500	523.208	0.028	-	-0.000	-0.000	-	-	-	-	-	-	-	PAVEMENT_GENERAL	Urban	F	1011101000011101	0000000000000000	-	car	928.854	-22304704.000	0.000	0.000	180.000	696.000	987.000	-0.000	Terminate	
"Student10Mode3"	"Tanvi_6"	"Nov 30, 2016 09:00:38 AM"	Unknown	4.98343	10/30/0116 09:00.46	00000299	-0.000	Inter625t13-0	-0.088	1	2	0.000	11.111	2.2	0.030	0.000	D	F	0.0	0.000	0.210	-0.000	1503.500	523.208	0.028	-	0.000	0.000	-	-	-	-	-	-	-	PAVEMENT_GENERAL	Urban	F	1011101000011101	0000000000000000	-	car	928.854	-24857692.000	0.000	0.000	180.000	696.000	987.000	-0.000	Terminate	
"Student10Mode3"	"Tanvi_6"	"Nov 30, 2016 09:00:38 AM"	Unknown	5.98345	10/30/0116 09:00.47	00000359	-0.000	Inter625t13-0	-0.088	1	2	0.000	11.111	2.8	0.034	0.000	D	F	0.0	0.000	0.209	-0.000	1503.500	523.208	0.028	-	-0.000	0.000	-	-	-	-	-	-	-	PAVEMENT_GENERAL	Urban	F	1111101000011101	0000000000000000	-	car	928.855	-34382432.000	0.000	0.000	180.000	696.000	987.000	-0.000	Terminate	
"Student10Mode3"	"Tanvi_6"	"Nov 30, 2016 09:00:38 AM"	Unknown	6.98347	10/30/0116 09:00.48	00000419	-0.000	Inter625t13-0	-0.088	1	2	0.000	11.111	-0.4	0.039	0.000	D	F	0.0	0.000	0.209	-0.000	1503.500	523.208	0.028	-	0.000	0.000	-	-	-	-	-	-	-	PAVEMENT_GENERAL	Urban	F	1011101000011101	0000000000000000	-	car	928.855	-48191720.000	0.000	0.000	180.000	696.000	987.000	-0.000	Terminate	
"Student10Mode3"	"Tanvi_6"	"Nov 30, 2016 09:00:38 AM"	Unknown	7.98349	10/30/0116 09:00.49	00000479	-0.000	Inter625t13-0	-0.088	1	2	0.000	11.111	1.0	0.039	0.000	D	F	0.0	0.000	0.209	0.000	1503.500	523.208	0.028	-	-0.000	0.000	-	-	-	-	-	-	-	PAVEMENT_GENERAL	Urban	F	1011101000011101	0000000000000000	-	car	928.855	-64935128.000	0.000	0.000	180.000	696.000	987.000	-0.000	Terminate	
"Student10Mode3"	"Tanvi_6"	"Nov 30, 2016 09:00:38 AM"	Unknown	8.98351	10/30/0116 09:00.50	00000539	-0.000	Inter625t13-0	-0.088	1	2	0.000	11.111	0.6	0.037	0.000	D	F	11.1	0.000	0.209	0.000	1503.500	523.208	0.028	-	0.000	0.000	-	-	-	-	-	-	-	PAVEMENT_GENERAL	Urban	F	1011101000011111	0000000000000000	-	car	928.855	-85729784.000	0.000	0.000	180.000	696.000	987.000	-0.000	Terminate	
"Student10Mode3"	"Tanvi_6"	"Nov 30, 2016 09:00:38 AM"	Unknown	9.98353	10/30/0116 09:00.51	00000599	0.041	Inter625t13-0	-0.088	1	2	0.000	11.111	1.5	0.071	0.000	D	F	344.4	0.000	0.195	0.000	1503.500	523.215	0.023	-	0.000	0.161	-	-	-	-	-	-	-	PAVEMENT_GENERAL	Urban	F	1011101000011101	0000000000000000	-	car	928.851	45073.469	0.000	0.000	180.000	696.000	987.000	-0.000	Terminate	
"Student10Mode3"	"Tanvi_6"	"Nov 30, 2016 09:00:38 AM"	Unknown	10.98355	10/30/0116 09:00.52	00000659	2.374	Inter625t13-0	-0.084	1	2	0.000	11.111	7.0	0.118	0.000	D	F	1344.0	0.126	0.215	-0.004	1503.504	524.278	0.014	-	0.026	2.397	-	-	-	-	-	-	-	PAVEMENT_GENERAL	Urban	F	1011101000011101	0000000000000000	-	car	928.326	789.569	0.000	0.000	180.000	696.000	987.000	-0.000	Terminate	
"Student10Mode3"	"Tanvi_6"	"Nov 30, 2016 09:00:38 AM"	Unknown	11.98357	10/30/0116 09:00.53	00000719	4.459	Inter625t13-0	-0.052	1	2	0.000	11.111	0.2	0.153	0.000	D	F	1660.3	0.511	0.218	0.005	1503.536	527.732	0.017	-	-0.020	1.884	-	-	-	-	-	-	-	PAVEMENT_GENERAL	Urban	F	1011101000011101	0000000000000000	-	car	926.640	427.036	0.000	0.000	180.000	696.000	987.000	-0.000	Terminate	
"Student10Mode3"	"Tanvi_6"	"Nov 30, 2016 09:00:38 AM"	Unknown	12.98359	10/30/0116 09:00.54	00000779	6.245	Inter625t49-0	-0.016	1	1	0.005	11.111	0.4	0.178	0.000	D	F	1818.6	0.328	0.224	-0.004	1503.572	533.106	0.018	-	0.017	1.774	-	-	-	-	-	-	-	PAVEMENT_GENERAL	Urban	F	1111101000011101	0000000000000000	-	car	924.027	305.077	0.000	0.000	180.000	696.000	987.000	-0.000	Terminate	
"Student10Mode3"	"Tanvi_6"	"Nov 30, 2016 09:00:38 AM"	Unknown	13.98361	10/30/0116 09:00.55	00000839	7.608	Inter625t49-0	0.037	1	1	0.006	11.111	0.9	0.182	0.000	D	F	1694.5	0.531	0.213	-0.001	1503.625	540.073	0.021	-	0.015	1.193	-	-	-	-	-	-	-	PAVEMENT_GENERAL	Urban	F	1011101000011101	0000000000000000	-	car	920.680	254.216	0.000	0.000	180.000	696.000	987.000	-0.000	Terminate	
"Student10Mode3"	"Tanvi_6"	"Nov 30, 2016 09:00:38 AM"	Unknown	14.98363	10/30/0116 09:00.56	00000899	8.746	Inter625t49-0	0.119	1	1	0.008	11.111	-0.4	0.187	0.000	D	F	1789.9	0.576	0.211	0.002	1503.708	548.259	0.021	-	-0.010	1.076	-	-	-	-	-	-	-	PAVEMENT_GENERAL	Urban	F	1011101000011101	0000000000000000	-	car	916.818	223.775	0.000	0.000	180.000	696.000	987.000	-0.000	Terminate	
"Student10Mode3"	"Tanvi_6"	"Nov 30, 2016 09:00:38 AM"	Unknown	15.98365	10/30/0116 09:00.57	00000959	9.743	Inter625t49-0	0.206	1	1	0.007	11.111	-0.3	0.198	0.000	D	F	1882.5	0.529	0.212	0.001	1503.797	557.510	0.022	-	-0.009	1.006	-	-	-	-	-	-	-	PAVEMENT_GENERAL	Urban	F	1011101000011101	0000000000000000	-	car	912.516	203.040	0.000	0.000	180.000	696.000	987.000	-0.000	Terminate	
"Student10Mode3"	"Tanvi_6"	"Nov 30, 2016 09:00:38 AM"	Unknown	16.98367	10/30/0116 09:00.58	00001019	10.880	Inter625t49-0	0.273	1	1	0.005	11.111	-4.6	0.247	0.000	D	F	2058.7	0.157	0.211	0.020	1503.865	567.802	0.021	-	-0.143	1.182	-	-	-	-	-	-	-	PAVEMENT_GENERAL	Urban	F	1011101000011101	0000000000000000	-	car	907.790	182.113	0.000	0.000	180.000	696.000	987.000	-0.000	Terminate	
"Student10Mode3"	"Tanvi_6"	"Nov 30, 2016 09:00:38 AM"	Unknown	17.98369	10/30/0116 09:00.59	00001079	12.022	Inter625t49-0	0.248	1	1	0.005	11.111	1.5	0.272	0.000	D	F	2189.9	359.846	0.210	-0.007	1503.841	579.258	0.021	-	0.047	1.136	-	-	-	-	-	-	-	PAVEMENT_GENERAL	Urban	F	1011101000011101	0000000000000000	-	car	902.550	165.729	0.000	0.000	180.000	696.000	987.000	-0.000	Terminate	
"Student10Mode3"	"Tanvi_6"	"Nov 30, 2016 09:00:38 AM"	Unknown	18.98371	10/30/0116 09:01.00	00001139	13.225	Inter625t15-0	0.224	1	2	0.000	11.111	-2.0	0.310	0.000	D	F	2373.1	359.819	0.209	0.011	1503.817	591.871	0.021	-	-0.075	1.256	-	-	-	-	-	-	-	PAVEMENT_GENERAL	Urban	F	1011101000011101	0000000000000000	-	car	896.915	153.360	0.000	0.000	180.000	696.000	987.000	-0.000	Terminate	
"Student10Mode3"	"Tanvi_6"	"Nov 30, 2016 09:00:38 AM"	Unknown	19.98373	10/30/0116 09:01.01	00001199	14.463	Inter614t1-0	0.138	1	2	0.000	11.111	-0.3	0.312	0.000	D	F	2521.7	359.519	0.208	0.004	1503.732	605.718	0.021	-	-0.031	1.222	-	-	-	-	-	-	-	PAVEMENT_GENERAL	Urban	F	1011101000011101	0000000000000000	-	car	890.841	141.772	0.000	0.000	180.000	696.000	987.000	-0.000	Terminate	
"Student10Mode3"	"Tanvi_6"	"Nov 30, 2016 09:00:38 AM"	Unknown	20.98375	10/30/0116 09:01.02	00001259	15.653	Inter614t1-0	0.007	1	2	0.000	11.111	0.3	0.310	0.000	D	F	2692.3	359.488	0.206	-0.001	1503.601	620.780	0.021	-	0.007	1.172	-	-	-	-	-	-	-	PAVEMENT_GENERAL	Urban	F	1011101000011101	0000000000000000	-	car	884.396	134.174	0.000	0.000	180.000	696.000	987.000	-0.000	Terminate	
"Student10Mode3"	"Tanvi_6"	"Nov 30, 2016 09:00:38 AM"	Unknown	21.98377	10/30/0116 09:01.03	00001319	16.801	Inter614t1-0	-0.129	1	2	0.000	11.111	0.3	0.307	0.000	D	F	2854.3	359.555	0.203	-0.002	1503.464	637.011	0.021	-	0.019	1.124	-	-	-	-	-	-	-	PAVEMENT_GENERAL	Urban	F	1011101000011101	0000000000000000	-	car	877.692	129.048	0.000	0.000	180.000	696.000	987.000	-0.000	Terminate	
"Student10Mode3"	"Tanvi_6"	"Nov 30, 2016 09:00:38 AM"	Unknown	22.98379	10/30/0116 09:01.04	00001379	17.869	Inter614t1-0	-0.249	1	2	0.000	11.111	3.1	0.291	0.000	D	F	2396.1	359.768	0.191	-0.023	1503.344	654.358	0.022	-	0.161	0.839	-	-	-	-	-	-	-	PAVEMENT_GENERAL	Urban	F	1011101000011101	0000000000000000	-	car	870.828	126.684	0.000	0.000	180.000	696.000	987.000	-0.000	Terminate	
"Student10Mode3"	"Tanvi_6"	"Nov 30, 2016 09:00:38 AM"	Unknown	23.98381	10/30/0116 09:01.05	00001439	18.357	Inter614t1-0	-0.243	1	2	0.000	11.111	-0.9	0.219	0.000	D	F	2119.5	0.172	0.194	0.005	1503.350	672.523	0.025	-	-0.020	0.343	-	-	-	-	-	-	-	PAVEMENT_GENERAL	Urban	F	1011101000011101	0000000000000000	-	car	864.075	130.700	0.000	0.000	180.000	696.000	987.000	-0.000	Terminate	
"Student10Mode3"	"Tanvi_6"	"Nov 30, 2016 09:00:38 AM"	Unknown	24.98383	10/30/0116 09:01.06	00001499	18.826	Inter614t1-0	-0.210	1	2	0.000	11.111	0.1	0.265	0.000	D	F	2192.6	0.090	0.194	-0.001	1503.384	691.105	0.024	-	0.010	0.501	-	-	-	-	-	-	-	PAVEMENT_GENERAL	Urban	F	1011101000011101	0000000000000000	-	car	857.537	132.948	0.000	0.000	180.000	696.000	987.000	-0.000	Terminate	
"Student10Mode3"	"Tanvi_6"	"Nov 30, 2016 09:00:38 AM"	Unknown	25.98385	10/30/0116 09:01.07	00001559	19.161	Inter614t1-0	-0.180	1	2	0.000	11.111	-1.8	0.157	0.000	D	F	2083.1	0.065	0.187	0.010	1503.413	710.127	0.026	-	-0.059	0.130	-	-	-	-	-	-	-	PAVEMENT_GENERAL	Urban	F	1011101000011101	0000000000000000	-	car	851.206	137.408	0.000	0.000	180.000	696.000	987.000	-0.000	Terminate	
"Student10Mode3"	"Tanvi_6"	"Nov 30, 2016 09:00:38 AM"	Unknown	26.98387	10/30/0116 09:01.08	00001619	19.283	Inter614t1-0	-0.232	1	2	0.000	11.111	0.7	0.192	0.000	D	F	2138.6	359.596	0.190	0.002	1503.362	729.334	0.026	-	-0.044	0.179	-	-	-	-	-	-	-	PAVEMENT_GENERAL	Urban	F	1011101000011101	0000000000000000	-	car	845.122	141.040	0.000	0.000	180.000	696.000	987.000	-0.000	Terminate	
"Student10Mode3"	"Tanvi_6"	"Nov 30, 2016 09:00:38 AM"	Unknown	27.98389	10/30/0116 09:01.09	00001679	19.362	Inter614t1-0	-0.341	1	2	0.000	11.111	2.9	0.145	0.000	D	F	2086.6	359.777	0.188	-0.022	1503.253	748.683	0.027	-	0.130	-0.005	-	-	-	-	-	-	-	PAVEMENT_GENERAL	Urban	F	1011101000011101	0000000000000000	-	car	839.336	151.113	0.000	0.000	180.000	696.000	987.000	-0.000	Terminate	
"Student10Mode3"	"Tanvi_6"	"Nov 30, 2016 09:00:38 AM"	Unknown	28.98391	10/30/0116 09:01.10	00001739	19.351	Inter614t1-0	-0.359	1	2	0.000	11.111	1.7	0.136	0.000	D	F	2068.2	0.078	0.188	-0.011	1503.234	768.044	0.027	-	0.077	-0.039	-	-	-	-	-	-	-	PAVEMENT_GENERAL	Urban	F	1011101000011101	0000000000000000	-	car	834.042	165.478	0.000	0.000	180.000	696.000	987.000	-0.000	Terminate	
"Student10Mode3"	"Tanvi_6"	"Nov 30, 2016 09:00:38 AM"	Unknown	29.98393	10/30/0116 09:01.11	00001799	19.268	Inter614t1-0	-0.249	1	2	0.000	11.111	2.2	0.092	0.000	D	F	1616.7	0.778	0.184	-0.030	1503.344	787.357	0.027	-	0.236	-0.168	-	-	-	-	-	-	-	PAVEMENT_GENERAL	Urban	F	1011101000011101	0000000000000000	-	car	829.303	189.732	0.000	0.000	180.000	696.000	987.000	-0.000	Terminate	
"Student10Mode3"	"Tanvi_6"	"Nov 30, 2016 09:00:38 AM"	Unknown	30.98395	10/30/0116 09:01.12	00001859	19.058	Inter612t1-0	0.044	1	2	0.000	11.111	-1.8	0.093	0.000	D	F	1520.1	0.889	0.187	0.011	1503.637	806.518	0.028	-	-0.086	-0.207	-	-	-	-	-	-	-	PAVEMENT_GENERAL	Urban	F	1011101000011101	0000000000000000	-	car	825.198	213.386	0.000	0.000	180.000	696.000	987.000	-0.000	Terminate	
"Student10Mode3"	"Tanvi_6"	"Nov 30, 2016 09:00:38 AM"	Unknown	31.98397	10/30/0116 09:01.13	00001919	18.932	Inter612t1-0	0.286	1	2	0.000	11.111	1.6	0.150	0.000	D	F	1670.1	0.603	0.189	-0.007	1503.879	825.490	0.027	-	0.026	0.008	-	-	-	-	-	-	-	PAVEMENT_GENERAL	Urban	F	1011101000011101	0000000000000000	-	car	821.506	233.658	0.000	0.000	180.000	696.000	987.000	-0.000	Terminate	
"Student10Mode3"	"Tanvi_6"	"Nov 30, 2016 09:00:38 AM"	Unknown	32.98399	10/30/0116 09:01.14	00001979	18.877	Inter612t1-0	0.530	1	2	0.000	11.111	-1.9	0.081	0.000	D	F	1495.3	0.782	0.185	0.006	1504.123	844.420	0.027	-	-0.060	-0.223	-	-	-	-	-	-	-	PAVEMENT_GENERAL	Urban	F	1011101000011101	0000000000000000	-	car	818.245	270.405	0.000	0.000	180.000	696.000	987.000	-0.000	Terminate	
"Student10Mode3"	"Tanvi_6"	"Nov 30, 2016 09:00:38 AM"	Unknown	33.98401	10/30/0116 09:01.15	00002039	18.668	Inter612t1-0	0.687	1	2	0.000	11.111	-3.8	0.116	0.000	D	F	1566.7	359.925	0.190	0.047	1504.280	863.186	0.027	-	-0.336	-0.117	-	-	-	-	-	-	-	PAVEMENT_GENERAL	Urban	F	1011101000011101	0000000000000000	-	car	815.349	285.994	0.000	0.000	180.000	696.000	987.000	-0.000	Terminate	
"Student10Mode3"	"Tanvi_6"	"Nov 30, 2016 09:00:38 AM"	Unknown	34.98403	10/30/0116 09:01.16	00002099	18.625	Inter612t1-0	0.643	1	2	0.000	11.111	1.0	0.132	0.000	D	F	1606.5	359.917	0.189	-0.009	1504.236	881.830	0.027	-	0.066	-0.047	-	-	-	-	-	-	-	PAVEMENT_GENERAL	Urban	F	1011101000011101	0000000000000000	-	car	812.691	334.426	0.000	0.000	180.000	696.000	987.000	-0.000	Terminate	
"Student10Mode3"	"Tanvi_6"	"Nov 30, 2016 09:00:38 AM"	Unknown	35.98405	10/30/0116 09:01.17	00002159	18.619	Inter612t1-0	0.635	1	2	0.000	11.111	-2.0	0.175	0.000	D	F	1730.0	0.000	0.191	-0.000	1504.228	900.439	0.026	-	-0.055	0.116	-	-	-	-	-	-	-	PAVEMENT_GENERAL	Urban	F	1011101000011101	0000000000000000	-	car	810.490	408.555	0.000	0.000	180.000	696.000	987.000	-0.000	Terminate	
"Student10Mode3"	"Tanvi_6"	"Nov 30, 2016 09:00:38 AM"	Unknown	36.98407	10/30/0116 09:01.18	00002219	18.840	Inter612t1-0	0.520	1	2	0.000	11.111	-0.9	0.206	0.000	D	F	1815.9	359.178	0.192	0.019	1504.113	919.154	0.025	-	-0.171	0.266	-	-	-	-	-	-	-	PAVEMENT_GENERAL	Urban	F	1011101000011101	0000000000000000	-	car	808.596	438.205	0.000	0.000	180.000	696.000	987.000	-0.000	Terminate	
"Student10Mode3"	"Tanvi_6"	"Nov 30, 2016 09:00:38 AM"	Unknown	37.98409	10/30/0116 09:01.19	00002279	19.088	Inter612t1-0	0.249	1	2	0.000	11.111	-0.6	0.205	0.000	D	F	1818.5	359.136	0.192	0.004	1503.842	938.117	0.026	-	-0.033	0.243	-	-	-	-	-	-	-	PAVEMENT_GENERAL	Urban	F	1011101000011101	0000000000000000	-	car	806.960	560.388	0.000	0.000	180.000	696.000	987.000	-0.000	Terminate	
"Student10Mode3"	"Tanvi_6"	"Nov 30, 2016 09:00:38 AM"	Unknown	38.98411	10/30/0116 09:01.20	00002339	19.366	Inter612t1-0	-0.044	1	2	0.000	11.111	0.5	0.224	0.000	D	F	1870.4	359.150	0.191	-0.004	1503.549	957.335	0.025	-	0.026	0.312	-	-	-	-	-	-	-	PAVEMENT_GENERAL	Urban	F	1011101000011101	0000000000000000	-	car	805.734	807.368	0.000	0.000	180.000	696.000	987.000	-0.000	Terminate	
"Student10Mode3"	"Tanvi_6"	"Nov 30, 2016 09:00:38 AM"	Unknown	39.98413	10/30/0116 09:01.21	00002399	19.681	Inter612t1-0	-0.323	1	2	0.000	11.111	0.8	0.238	0.000	D	F	1889.7	359.223	0.191	-0.005	1503.270	976.857	0.025	-	0.036	0.312	-	-	-	-	-	-	-	PAVEMENT_GENERAL	Urban	F	1011101000011101	0000000000000000	-	car	804.974	1566.114	0.000	0.000	180.000	696.000	987.000	-0.000	Terminate	
"Student10Mode3"	"Tanvi_6"	"Nov 30, 2016 09:00:38 AM"	Unknown	40.98415	10/30/0116 09:01.22	00002459	19.988	Inter612t1-0	-0.576	1	2	0.000	11.111	1.4	0.236	0.000	D	F	1901.7	359.369	0.191	-0.011	1503.017	996.691	0.025	-	0.088	0.304	-	-	-	-	-	-	-	PAVEMENT_GENERAL	Urban	F	1011101000011101	0000000000000000	-	car	804.716	-40650.371	0.000	0.000	180.000	696.000	987.000	-0.000	Terminate	
"Student10Mode3"	"Tanvi_6"	"Nov 30, 2016 09:00:38 AM"	Unknown	41.98417	10/30/0116 09:01.23	00002519	20.281	Inter613t1-0	-0.773	1	2	0.000	11.111	-0.2	0.206	0.000	D	F	1866.0	359.439	0.189	0.003	1502.821	1016.828	0.025	-	-0.031	0.254	-	-	-	-	-	-	-	PAVEMENT_GENERAL	Urban	F	1011101000011101	0000000000000000	-	car	805.012	-1461.311	0.000	0.000	180.000	696.000	987.000	-0.000	Terminate	
"Student10Mode3"	"Tanvi_6"	"Nov 30, 2016 09:00:38 AM"	Unknown	42.98419	10/30/0116 09:01.24	00002579	20.381	Inter613t1-0	-0.972	1	2	0.000	11.111	1.2	0.194	0.000	D	F	1829.9	359.472	0.190	-0.008	1502.622	1037.169	0.026	-	0.053	0.138	-	-	-	-	-	-	-	PAVEMENT_GENERAL	Urban	F	1011101000011101	0000000000000000	-	car	805.821	-747.681	0.000	0.000	180.000	696.000	987.000	-0.000	Terminate	
"Student10Mode3"	"Tanvi_6"	"Nov 30, 2016 09:00:38 AM"	Unknown	43.98421	10/30/0116 09:01.25	00002639	20.516	Inter613t1-0	-1.110	1	2	0.000	11.111	4.2	0.194	0.000	D	F	1833.9	359.919	0.188	-0.034	1502.484	1057.618	0.026	-	0.260	0.134	-	-	-	-	-	-	-	PAVEMENT_GENERAL	Urban	F	1011101000011101	0000000000000000	-	car	807.210	-458.425	0.000	0.000	180.000	696.000	987.000	-0.000	Terminate	
"Student10Mode3"	"Tanvi_6"	"Nov 30, 2016 09:00:38 AM"	Unknown	44.98423	10/30/0116 09:01.26	00002699	20.644	Inter613t1-0	-1.018	1	2	0.000	11.111	0.2	0.196	0.000	D	F	1847.0	0.634	0.188	-0.009	1502.575	1078.199	0.026	-	0.107	0.141	-	-	-	-	-	-	-	PAVEMENT_GENERAL	Urban	F	1111101000011101	0000000000000000	-	car	809.355	-317.858	0.000	0.000	180.000	696.000	987.000	-0.000	Terminate	
"Student10Mode3"	"Tanvi_6"	"Nov 30, 2016 09:00:38 AM"	Unknown	45.98425	10/30/0116 09:01.27	00002759	20.810	Inter613t1-0	-0.763	1	2	0.000	11.111	-1.1	0.198	0.000	D	F	1856.4	0.873	0.187	-0.001	1502.831	1098.925	0.026	-	0.029	0.155	-	-	-	-	-	-	-	PAVEMENT_GENERAL	Urban	F	1011101000011101	0000000000000000	-	car	812.197	-255.964	0.000	0.000	180.000	696.000	987.000	-0.000	Terminate	
"Student10Mode3"	"Tanvi_6"	"Nov 30, 2016 09:00:38 AM"	Unknown	46.98427	10/30/0116 09:01.28	00002819	20.783	Inter613t1-0	-0.502	1	2	0.000	11.111	-0.5	0.116	0.000	D	F	1651.1	0.508	0.183	0.011	1503.091	1119.744	0.027	-	-0.088	-0.145	-	-	-	-	-	-	-	PAVEMENT_GENERAL	Urban	F	1011101000011101	0000000000000000	-	car	815.575	-229.453	0.000	0.000	180.000	696.000	987.000	-0.000	Terminate	
"Student10Mode3"	"Tanvi_6"	"Nov 30, 2016 09:00:38 AM"	Unknown	47.98429	10/30/0116 09:01.29	00002879	20.544	Inter613t1-0	-0.336	1	2	0.000	11.111	-1.2	0.081	0.000	D	F	1557.4	0.295	0.183	0.014	1503.257	1140.419	0.028	-	-0.107	-0.297	-	-	-	-	-	-	-	PAVEMENT_GENERAL	Urban	F	1011101000011101	0000000000000000	-	car	819.347	-207.991	0.000	0.000	180.000	696.000	987.000	-0.000	Terminate	
"Student10Mode3"	"Tanvi_6"	"Nov 30, 2016 09:00:38 AM"	Unknown	48.98431	10/30/0116 09:01.30	00002939	20.389	Inter613t1-0	-0.261	1	2	0.000	11.111	-1.4	0.139	0.000	D	F	1692.9	0.068	0.186	0.012	1503.333	1160.862	0.027	-	-0.094	-0.050	-	-	-	-	-	-	-	PAVEMENT_GENERAL	Urban	F	1011101000011101	0000000000000000	-	car	823.482	-190.801	0.000	0.000	180.000	696.000	987.000	-0.000	Terminate	
"Student10Mode3"	"Tanvi_6"	"Nov 30, 2016 09:00:38 AM"	Unknown	49.98433	10/30/0116 09:01.31	00002999	20.110	Inter613t1-0	-0.279	1	2	0.000	11.111	-1.2	0.048	0.000	D	F	1468.7	359.764	0.182	0.013	1503.314	1181.140	0.028	-	-0.098	-0.402	-	-	-	-	-	-	-	PAVEMENT_GENERAL	Urban	F	1011101000011101	0000000000000000	-	car	827.970	-179.162	0.000	0.000	180.000	696.000	987.000	-0.000	Terminate	
"Student10Mode3"	"Tanvi_6"	"Nov 30, 2016 09:00:38 AM"	Unknown	50.98435	10/30/0116 09:01.32	00003059	19.683	Inter615t9-0	-0.390	1	2	0.000	11.111	-1.0	0.041	0.000	D	F	1420.2	359.548	0.184	0.011	1503.203	1201.039	0.029	-	-0.076	-0.429	-	-	-	-	-	-	-	PAVEMENT_GENERAL	Urban	F	1011101000011101	0000000000000000	-	car	832.739	-170.137	0.000	0.000	180.000	696.000	987.000	-0.000	Terminate	
"Student10Mode3"	"Tanvi_6"	"Nov 30, 2016 09:00:38 AM"	Unknown	51.98437	10/30/0116 09:01.33	00003119	19.190	Inter615t33-0	-0.544	1	1	0.072	11.111	7.9	0.019	0.000	D	F	1310.3	359.850	0.182	-0.064	1503.053	1220.479	0.029	-	0.450	-0.505	-	-	-	22	2.819	54.099	2.819	PAVEMENT_GENERAL	Urban	F	1011101000011101	0000000000000000	-	car	837.787	-158.532	0.000	0.000	180.000	696.000	987.000	-0.000	Terminate	
"Student10Mode3"	"Tanvi_6"	"Nov 30, 2016 09:00:38 AM"	Unknown	52.98439	10/30/0116 09:01.34	00003179	15.990	Inter615t33-0	-0.375	1	1	0.098	11.111	-0.7	0.000	0.525	D	F	1011.5	1.620	0.021	-0.040	1503.246	1238.584	0.040	-	0.278	-6.083	-	-	-	22	2.256	36.075	2.256	PAVEMENT_GENERAL	Urban	F	1011101000011101	0000000000000000	-	car	843.182	-162.544	0.000	0.000	180.000	696.000	987.000	-0.000	Terminate	
"Student10Mode3"	"Tanvi_6"	"Nov 30, 2016 09:00:38 AM"	Unknown	53.98441	10/30/0116 09:01.35	00003239	7.526	Inter615t33-0	-0.112	1	1	0.061	11.111	-5.9	0.000	0.719	D	F	658.5	1.019	-0.316	0.022	1503.532	1250.472	0.044	-	-0.144	-8.442	-	-	-	22	3.533	26.586	3.533	PAVEMENT_GENERAL	Urban	F	1011101000011101	0000000000000000	-	car	847.067	-344.153	0.000	0.000	180.000	696.000	987.000	-0.000	Terminate	
"Student10Mode3"	"Tanvi_6"	"Nov 30, 2016 09:00:38 AM"	Unknown	54.98443	10/30/0116 09:01.36	00003299	0.534	Inter615t33-0	-0.073	1	1	0.061	11.111	-9.3	0.004	0.364	D	F	477.5	0.535	0.019	-0.002	1503.575	1254.145	0.041	-	0.010	-3.737	-	-	-	-	-	-	-	PAVEMENT_GENERAL	Urban	F	1011101000011101	0000000000000000	-	car	848.254	-4922.401	0.000	0.000	180.000	696.000	987.000	-0.000	Terminate	
"Student10Mode3"	"Tanvi_6"	"Nov 30, 2016 09:00:38 AM"	Unknown	55.98445	10/30/0116 09:01.37	00003359	0.047	Inter615t33-0	-0.073	1	1	0.061	11.111	-12.2	0.086	0.009	D	F	1081.2	0.524	0.230	-0.006	1503.575	1254.207	0.031	-	-0.013	0.342	-	-	-	-	-	-	-	PAVEMENT_GENERAL	Urban	F	1011101000011101	0000000000000000	-	car	848.274	-55810.746	0.000	0.000	180.000	696.000	987.000	-0.000	Terminate	
"Student10Mode3"	"Tanvi_6"	"Nov 30, 2016 09:00:38 AM"	Unknown	56.98447	10/30/0116 09:01.38	00003419	1.973	Inter615t33-0	-0.075	1	1	0.061	11.111	-12.3	0.093	0.000	D	F	1206.4	0.284	0.215	0.004	1503.574	1255.042	0.015	-	-0.028	2.056	-	-	-	-	-	-	-	PAVEMENT_GENERAL	Urban	F	1011101000011101	0000000000000000	-	car	848.536	-1345.363	0.000	0.000	180.000	696.000	987.000	-0.000	Terminate	
"Student10Mode3"	"Tanvi_6"	"Nov 30, 2016 09:00:38 AM"	Unknown	57.98449	10/30/0116 09:01.39	00003479	3.680	Inter615t33-0	-0.098	1	1	0.061	11.111	-2.8	0.090	0.000	D	F	1341.3	359.650	0.202	-0.005	1503.554	1257.960	0.020	-	0.020	1.015	-	-	-	-	-	-	-	PAVEMENT_GENERAL	Urban	F	1011101000011101	0000000000000000	-	car	849.440	-739.104	0.000	0.000	180.000	696.000	987.000	-0.000	Terminate	
"Student10Mode3"	"Tanvi_6"	"Nov 30, 2016 09:00:38 AM"	Unknown	58.98451	10/30/0116 09:01.40	00003539	4.199	Inter615t33-0	-0.117	1	1	0.061	11.111	1.3	0.002	0.000	D	F	723.2	359.865	0.193	0.004	1503.539	1262.075	0.026	-	-0.006	-0.386	-	-	-	-	-	-	-	PAVEMENT_GENERAL	Urban	F	1011101000011101	0000000000000000	-	car	850.744	-632.761	0.000	0.000	180.000	696.000	987.000	-0.000	Terminate	
"Student10Mode3"	"Tanvi_6"	"Nov 30, 2016 09:00:38 AM"	Unknown	59.98453	10/30/0116 09:01.41	00003599	4.244	Inter615t33-0	-0.106	1	1	0.061	11.111	13.2	0.083	0.000	D	F	1213.6	0.383	0.210	-0.015	1503.555	1266.178	0.024	-	0.103	0.698	-	-	-	-	-	-	-	PAVEMENT_GENERAL	Urban	F	1011101000011101	0000000000000000	-	car	852.091	-602.891	0.000	0.000	180.000	696.000	987.000	-0.000	Terminate	
"Student10Mode3"	"Tanvi_6"	"Nov 30, 2016 09:00:38 AM"	Unknown	60.98455	10/30/0116 09:01.42	00003659	4.614	Inter615t11-1	-0.012	2	2	0.000	11.111	-12.3	0.000	0.000	D	F	695.9	1.221	0.186	0.027	1503.650	1270.721	0.026	-	-0.207	-0.483	-	-	-	-	-	-	-	PAVEMENT_GENERAL	Urban	F	1011101000011101	0000000000000000	-	car	853.676	-526.365	0.000	0.000	180.000	696.000	987.000	-0.000	Terminate	
"Student10Mode3"	"Tanvi_6"	"Nov 30, 2016 09:00:38 AM"	Unknown	61.98457	10/30/0116 09:01.43	00003719	4.149	Inter615t11-1	-0.175	2	2	0.000	11.111	-70.3	0.016	0.000	D	F	661.1	356.517	0.198	0.053	1503.487	1275.097	0.028	-	-0.426	-0.434	-	-	-	-	-	-	-	PAVEMENT_GENERAL	Urban	F	1011101000011101	0000000000000000	-	car	854.982	-740.683	0.000	0.000	180.000	696.000	987.000	-0.000	Terminate	
"Student10Mode3"	"Tanvi_6"	"Nov 30, 2016 09:00:38 AM"	Unknown	62.98459	10/30/0116 09:01.44	00003779	4.834	Inter615t11-1	-0.832	2	2	0.000	11.111	-74.0	0.145	0.000	D	F	1439.8	350.203	0.214	0.085	1502.831	1279.394	0.021	-	-0.647	1.266	-	-	-	22	0.769	3.718	-	PAVEMENT_GENERAL	Urban	F	1011101000011101	0000000000000000	-	car	855.819	-1007.199	0.000	0.000	180.000	696.000	987.000	-0.000	Terminate	
"Student10Mode3"	"Tanvi_6"	"Nov 30, 2016 09:00:38 AM"	Unknown	63.98461	10/30/0116 09:01.45	00003839	6.133	Inter615t65-0	1.482	1	1	349.853	11.111	-83.4	0.171	0.000	D	F	1594.6	341.444	0.214	0.139	1501.303	1284.652	0.020	-	-1.069	1.335	-	-	-	22	1.371	8.411	-	PAVEMENT_GENERAL	Urban	F	1011101000011101	0000000000000000	-	car	856.192	-4626.251	0.000	0.000	180.000	696.000	987.000	-0.000	Terminate	
"Student10Mode3"	"Tanvi_6"	"Nov 30, 2016 09:00:38 AM"	Unknown	64.98463	10/30/0116 09:01.46	00003899	7.372	Inter615t65-0	0.455	1	1	334.250	11.111	-91.3	0.171	0.000	D	F	1652.5	330.273	0.207	0.214	1498.333	1290.730	0.021	-	-1.632	1.087	-	-	-	22	1.540	11.352	-	PAVEMENT_GENERAL	Urban	F	1011101000011101	0000000000000000	-	car	855.540	742.410	0.000	0.000	180.000	696.000	987.000	-0.000	Terminate	
"Student10Mode3"	"Tanvi_6"	"Nov 30, 2016 09:00:38 AM"	Unknown	65.98465	10/30/0116 09:01.47	00003959	8.019	Inter615t65-0	-0.440	1	1	318.097	11.111	-131.7	0.095	0.000	D	F	1471.0	313.909	0.182	0.367	1493.415	1296.696	0.025	-	-2.803	0.196	-	-	-	22	1.853	14.858	-	PAVEMENT_GENERAL	Urban	F	1011101000011101	0000000000000000	-	car	853.083	253.004	0.000	0.000	180.000	696.000	987.000	-0.000	Terminate	
"Student10Mode3"	"Tanvi_6"	"Nov 30, 2016 09:00:38 AM"	Unknown	66.98467	10/30/0116 09:01.48	00004019	8.649	Inter615t65-0	-1.353	1	1	293.468	11.111	-107.9	0.185	0.000	D	F	1776.5	294.891	0.197	0.330	1486.417	1301.039	0.023	-	-2.571	0.931	-	-	-	22	1.841	15.925	-	PAVEMENT_GENERAL	Urban	F	1011101000011101	0000000000000000	-	car	848.158	142.609	0.000	0.000	180.000	696.000	987.000	-0.000	Terminate	
"Student10Mode3"	"Tanvi_6"	"Nov 30, 2016 09:00:38 AM"	Unknown	67.98470	10/30/0116 09:01.49	00004079	9.881	Inter615t3-3	-0.077	1	2	270.000	11.111	-71.4	0.228	0.000	D	F	1964.8	279.316	0.201	0.276	1477.507	1303.454	0.021	-	-2.135	1.196	-	-	-	22	2.340	23.124	-	PAVEMENT_GENERAL	Urban	F	1011101000011101	0000000000000000	-	car	840.787	99.651	0.000	0.000	180.000	696.000	987.000	-0.000	Terminate	
"Student10Mode3"	"Tanvi_6"	"Nov 30, 2016 09:00:38 AM"	Unknown	68.98471	10/30/0116 09:01.50	00004139	11.094	Inter615t19-0	0.618	1	1	270.062	11.111	-5.5	0.266	0.000	D	F	2095.4	271.278	0.209	0.029	1467.051	1304.149	0.021	-	-0.320	1.225	-	-	-	22	2.610	28.959	-	PAVEMENT_GENERAL	Urban	F	1011101000011101	0000000000000000	-	car	831.369	81.802	0.000	0.000	180.000	696.000	987.000	-0.000	Terminate	
"Student10Mode3"	"Tanvi_6"	"Nov 30, 2016 09:00:38 AM"	Unknown	69.98473	10/30/0116 09:01.51	00004199	12.348	Inter615t19-0	0.819	1	1	270.098	11.111	-4.5	0.312	0.000	D	F	2263.0	270.930	0.210	0.017	1455.337	1304.363	0.021	-	-0.134	1.275	-	-	-	22	2.865	35.373	-	PAVEMENT_GENERAL	Urban	F	1011101000011101	0000000000000000	-	car	820.630	72.529	0.000	0.000	180.000	696.000	987.000	-0.000	Terminate	
"Student10Mode3"	"Tanvi_6"	"Nov 30, 2016 09:00:38 AM"	Unknown	70.98476	10/30/0116 09:01.52	00004259	13.653	Inter615t19-0	0.918	1	1	270.088	11.111	-1.3	0.325	0.000	D	F	2436.1	270.248	0.209	0.011	1442.343	1304.483	0.020	-	-0.078	1.318	-	-	-	22	3.040	41.507	-	PAVEMENT_GENERAL	Urban	F	1011101000011101	0000000000000000	-	car	808.703	64.490	0.000	0.000	180.000	696.000	987.000	-0.000	Terminate	
"Student10Mode3"	"Tanvi_6"	"Nov 30, 2016 09:00:38 AM"	Unknown	71.98477	10/30/0116 09:01.53	00004319	14.944	Inter615t19-0	0.933	1	1	270.061	11.111	-0.6	0.347	0.000	D	F	2607.3	270.061	0.208	0.004	1428.047	1304.521	0.020	-	-0.035	1.319	-	-	-	22	3.138	46.890	-	PAVEMENT_GENERAL	Urban	F	1011101000011101	0000000000000000	-	car	795.583	58.058	0.000	0.000	180.000	696.000	987.000	-0.000	Terminate	
"Student10Mode3"	"Tanvi_6"	"Nov 30, 2016 09:00:38 AM"	Unknown	72.98479	10/30/0116 09:01.54	00004379	16.245	Inter615t1-2	0.925	1	2	270.000	11.111	-0.5	0.344	0.000	D	F	2798.6	269.974	0.206	0.002	1412.449	1304.525	0.021	-	-0.021	1.286	-	-	-	22	3.162	51.374	-	PAVEMENT_GENERAL	Urban	F	1011101000011101	0000000000000000	-	car	781.299	52.595	0.000	0.000	180.000	696.000	987.000	-0.000	Terminate	
"Student10Mode3"	"Tanvi_6"	"Nov 30, 2016 09:00:38 AM"	Unknown	73.98481	10/30/0116 09:01.55	00004439	17.457	Inter616t1-2	0.883	1	2	270.000	11.111	-0.8	0.326	0.000	D	F	2959.8	269.757	0.203	0.007	1395.587	1304.490	0.021	-	-0.058	1.174	-	-	-	22	3.129	54.625	-	PAVEMENT_GENERAL	Urban	F	1011101000011101	0000000000000000	-	car	765.899	48.088	0.000	0.000	180.000	696.000	987.000	-0.000	Terminate	
"Student10Mode3"	"Tanvi_6"	"Nov 30, 2016 09:00:38 AM"	Unknown	74.98483	10/30/0116 09:01.56	00004499	18.325	Inter616t1-2	0.799	1	2	270.000	11.111	-0.2	0.219	0.000	D	F	2177.4	269.751	0.191	0.001	1377.622	1304.406	0.024	-	0.008	0.471	-	-	-	22	3.099	56.780	-	PAVEMENT_GENERAL	Urban	F	1011101000011101	0000000000000000	-	car	749.541	45.030	0.000	0.000	180.000	696.000	987.000	-0.000	Terminate	
"Student10Mode3"	"Tanvi_6"	"Nov 30, 2016 09:00:38 AM"	Unknown	75.98486	10/30/0116 09:01.57	00004559	18.544	Inter616t1-2	0.722	1	2	270.000	11.111	1.0	0.157	0.000	D	F	2031.8	269.798	0.189	-0.006	1359.162	1304.329	0.026	-	0.042	0.093	-	-	-	22	3.151	58.439	-	PAVEMENT_GENERAL	Urban	F	1011101000011101	0000000000000000	-	car	732.815	43.734	0.000	0.000	180.000	696.000	987.000	-0.000	Terminate	
"Student10Mode3"	"Tanvi_6"	"Nov 30, 2016 09:00:38 AM"	Unknown	76.98487	10/30/0116 09:01.58	00004619	18.589	Inter616t1-2	0.695	1	2	270.000	11.111	-0.1	0.143	0.000	D	F	2019.6	270.073	0.191	-0.004	1340.590	1304.302	0.027	-	0.044	0.039	-	-	-	22	3.226	59.973	-	PAVEMENT_GENERAL	Urban	F	1011101000011101	0000000000000000	-	car	716.094	42.964	0.000	0.000	180.000	696.000	987.000	-0.000	Terminate	
"Student10Mode3"	"Tanvi_6"	"Nov 30, 2016 09:00:38 AM"	Unknown	77.98489	10/30/0116 09:01.59	00004679	18.581	Inter616t1-2	0.690	1	2	270.000	11.111	-0.8	0.122	0.000	D	F	1985.6	269.825	0.189	0.011	1321.995	1304.296	0.027	-	-0.086	-0.064	-	-	-	22	3.287	61.081	-	PAVEMENT_GENERAL	Urban	F	1011101000011101	0000000000000000	-	car	699.458	42.138	0.000	0.000	180.000	696.000	987.000	-0.000	Terminate	
"Student10Mode3"	"Tanvi_6"	"Nov 30, 2016 09:00:38 AM"	Unknown	78.98492	10/30/0116 09:02.00	00004739	18.506	Inter616t1-2	0.612	1	2	270.000	11.111	-0.8	0.113	0.000	D	F	1968.8	269.665	0.187	0.007	1303.452	1304.219	0.027	-	-0.053	-0.108	-	-	-	22	3.318	61.399	680.015	PAVEMENT_GENERAL	Urban	F	1011101000011101	0000000000000000	-	car	682.933	41.507	0.000	0.000	180.000	696.000	987.000	-0.000	Terminate	
"Student10Mode3"	"Tanvi_6"	"Nov 30, 2016 09:00:38 AM"	Unknown	79.98493	10/30/0116 09:02.01	00004799	18.459	Inter616t1-2	0.545	1	2	270.000	11.111	5.7	0.132	0.000	D	F	1995.0	270.228	0.189	-0.047	1284.985	1304.152	0.026	-	0.358	0.014	-	-	-	22	3.304	60.993	78.552	PAVEMENT_GENERAL	Urban	F	1011101000011101	0000000000000000	-	car	666.587	41.104	0.000	0.000	180.000	696.000	987.000	-0.000	Terminate	
"Student10Mode3"	"Tanvi_6"	"Nov 30, 2016 09:00:38 AM"	Unknown	80.98495	10/30/0116 09:02.02	00004859	18.340	Inter616t1-2	0.760	1	2	270.000	11.111	0.7	0.111	0.000	D	F	1949.3	271.124	0.189	-0.016	1266.586	1304.367	0.027	-	0.135	-0.069	-	-	-	22	3.269	59.958	47.046	PAVEMENT_GENERAL	Urban	F	1011101000011101	0000000000000000	-	car	650.549	41.046	0.000	0.000	180.000	696.000	987.000	-0.000	Terminate	
"Student10Mode3"	"Tanvi_6"	"Nov 30, 2016 09:00:38 AM"	Unknown	81.98497	10/30/0116 09:02.03	00004919	18.086	Inter616t1-2	1.072	1	2	270.000	11.111	-8.6	0.065	0.000	D	F	1430.3	270.403	0.188	0.082	1248.358	1304.678	0.028	-	-0.569	-0.288	-	-	-	22	3.233	58.480	35.710	PAVEMENT_GENERAL	Urban	F	1011101000011101	0000000000000000	-	car	634.836	40.657	0.000	0.000	180.000	696.000	987.000	-0.000	Terminate	
"Student10Mode3"	"Tanvi_6"	"Nov 30, 2016 09:00:38 AM"	Unknown	82.98499	10/30/0116 09:02.04	00004979	17.841	Inter616t1-2	0.967	1	2	270.000	11.111	-0.0	0.088	0.000	D	F	1453.8	268.976	0.189	0.016	1230.400	1304.574	0.028	-	-0.161	-0.197	-	-	-	22	3.180	56.725	29.983	PAVEMENT_GENERAL	Urban	F	1011101000011101	0000000000000000	-	car	619.280	39.961	0.000	0.000	180.000	696.000	987.000	-0.000	Terminate	
"Student10Mode3"	"Tanvi_6"	"Nov 30, 2016 09:00:38 AM"	Unknown	83.98502	10/30/0116 09:02.05	00005039	17.739	Inter616t1-2	0.709	1	2	270.000	11.111	0.5	0.141	0.000	D	F	1608.7	269.467	0.191	-0.012	1212.626	1304.315	0.027	-	0.115	0.000	-	-	-	22	3.081	54.655	23.864	PAVEMENT_GENERAL	Urban	F	1011101000011101	0000000000000000	-	car	603.934	39.730	0.000	0.000	180.000	696.000	987.000	-0.000	Terminate	
"Student10Mode3"	"Tanvi_6"	"Nov 30, 2016 09:00:38 AM"	Unknown	84.98503	10/30/0116 09:02.06	00005099	17.824	Inter617t1-2	0.525	1	2	270.000	11.111	0.2	0.123	0.000	D	F	1564.9	269.301	0.185	0.005	1194.835	1304.132	0.027	-	-0.039	-0.069	-	-	-	22	2.923	52.092	18.942	PAVEMENT_GENERAL	Urban	F	1011101000011101	0000000000000000	-	car	588.749	38.843	0.000	0.000	180.000	696.000	987.000	-0.000	Terminate	
"Student10Mode3"	"Tanvi_6"	"Nov 30, 2016 09:00:38 AM"	Unknown	85.98505	10/30/0116 09:02.07	00005159	17.847	Inter617t1-2	0.352	1	2	270.000	11.111	1.7	0.127	0.000	D	F	1573.5	269.671	0.188	-0.015	1177.005	1303.959	0.027	-	0.122	-0.030	-	-	-	22	2.756	49.183	16.046	PAVEMENT_GENERAL	Urban	F	1011101000011101	0000000000000000	-	car	573.686	38.351	0.000	0.000	180.000	696.000	987.000	-0.000	Terminate	
"Student10Mode3"	"Tanvi_6"	"Nov 30, 2016 09:00:38 AM"	Unknown	86.98507	10/30/0116 09:02.08	00005219	17.682	Inter617t1-2	0.234	1	2	270.000	11.111	-2.6	0.044	0.000	D	F	1318.9	269.349	0.186	0.028	1159.213	1303.841	0.028	-	-0.203	-0.343	-	-	-	22	2.605	46.064	14.818	PAVEMENT_GENERAL	Urban	F	1011101000011101	0000000000000000	-	car	558.848	37.998	0.000	0.000	180.000	696.000	987.000	-0.000	Terminate	
"Student10Mode3"	"Tanvi_6"	"Nov 30, 2016 09:00:38 AM"	Unknown	87.98509	10/30/0116 09:02.09	00005279	17.151	Inter617t1-2	0.038	1	2	270.000	11.111	1.1	0.000	0.000	D	F	1169.3	269.603	0.186	-0.020	1141.785	1303.645	0.029	-	0.159	-0.561	-	-	-	22	2.513	43.102	15.475	PAVEMENT_GENERAL	Urban	F	1011101000011101	0000000000000000	-	car	544.439	38.748	0.000	0.000	180.000	696.000	987.000	-0.000	Terminate	
"Student10Mode3"	"Tanvi_6"	"Nov 30, 2016 09:00:38 AM"	Unknown	88.98512	10/30/0116 09:02.10	00005339	16.694	Inter617t1-2	-0.073	1	2	270.000	11.111	-0.9	0.072	0.000	D	F	1360.1	269.519	0.192	0.005	1124.898	1303.533	0.027	-	-0.074	-0.189	-	-	-	22	2.426	40.505	16.233	PAVEMENT_GENERAL	Urban	F	1011101000011101	0000000000000000	-	car	530.695	39.268	0.000	0.000	180.000	696.000	987.000	-0.000	Terminate	
"Student10Mode3"	"Tanvi_6"	"Nov 30, 2016 09:00:38 AM"	Unknown	89.98513	10/30/0116 09:02.11	00005399	16.300	Inter617t1-2	-0.200	1	2	270.000	11.111	5.3	0.072	0.000	D	F	1338.9	269.882	0.194	-0.043	1108.389	1303.407	0.028	-	0.304	-0.268	-	-	-	22	2.340	38.138	17.133	PAVEMENT_GENERAL	Urban	F	1011101000011101	0000000000000000	-	car	517.427	39.949	0.000	0.000	180.000	696.000	987.000	-0.000	Terminate	
"Student10Mode3"	"Tanvi_6"	"Nov 30, 2016 09:00:38 AM"	Unknown	90.98515	10/30/0116 09:02.12	00005459	16.188	Inter617t1-2	-0.135	1	2	270.000	11.111	0.9	0.083	0.000	D	F	1393.3	270.446	0.191	-0.007	1092.159	1303.472	0.027	-	0.057	-0.107	-	-	-	22	2.220	35.929	16.048	PAVEMENT_GENERAL	Urban	F	1011101000011101	0000000000000000	-	car	504.687	40.155	0.000	0.000	180.000	696.000	987.000	-0.000	Terminate	
"Student10Mode3"	"Tanvi_6"	"Nov 30, 2016 09:00:38 AM"	Unknown	91.98518	10/30/0116 09:02.13	00005519	15.768	Inter617t1-2	0.007	1	2	270.000	11.111	-0.7	0.002	0.000	D	F	1075.3	270.527	0.187	0.005	1076.149	1303.614	0.029	-	-0.030	-0.532	-	-	-	22	2.146	33.836	17.786	PAVEMENT_GENERAL	Urban	F	1011101000011101	0000000000000000	-	car	492.370	40.953	0.000	0.000	180.000	696.000	987.000	-0.000	Terminate	
"Student10Mode3"	"Tanvi_6"	"Nov 30, 2016 09:00:38 AM"	Unknown	92.98519	10/30/0116 09:02.14	00005579	15.382	Inter617t1-2	0.149	1	2	270.000	11.111	-1.9	0.090	0.000	D	F	1357.4	270.531	0.193	0.011	1060.607	1303.756	0.028	-	-0.055	-0.189	-	-	-	22	2.122	32.647	326.530	PAVEMENT_GENERAL	Urban	F	1011101000011101	0000000000000000	-	car	480.623	41.728	0.000	0.000	180.000	696.000	987.000	-0.000	Terminate	
"Student10Mode3"	"Tanvi_6"	"Nov 30, 2016 09:00:38 AM"	Unknown	93.98521	10/30/0116 09:02.15	00005639	15.419	Inter617t1-2	0.260	1	2	270.000	11.111	-0.0	0.171	0.000	D	F	1724.5	270.387	0.198	-0.002	1045.242	1303.867	0.025	-	0.012	0.245	-	-	-	22	2.176	33.548	-	PAVEMENT_GENERAL	Urban	F	1011101000011101	0000000000000000	-	car	469.206	41.344	0.000	0.000	180.000	696.000	987.000	-0.000	Terminate	
"Student10Mode3"	"Tanvi_6"	"Nov 30, 2016 09:00:38 AM"	Unknown	94.98523	10/30/0116 09:02.16	00005699	15.766	Inter617t1-2	0.339	1	2	270.000	11.111	-2.7	0.009	0.000	D	F	1518.8	270.040	0.192	0.023	1029.648	1303.946	0.025	-	-0.163	-0.002	-	-	-	-	-	-	-	PAVEMENT_GENERAL	Urban	F	1011101000011101	0000000000000000	-	car	457.831	40.079	0.000	0.000	180.000	696.000	987.000	-0.000	Terminate	
"Student10Mode3"	"Tanvi_6"	"Nov 30, 2016 09:00:38 AM"	Unknown	95.98525	10/30/0116 09:02.17	00005759	15.247	Inter617t1-2	0.219	1	2	270.000	11.111	-7.3	0.000	0.000	D	F	1497.1	268.695	0.187	0.065	1014.133	1303.825	0.029	-	-0.505	-0.581	-	-	-	-	-	-	-	PAVEMENT_GENERAL	Urban	F	1011101000011101	0000000000000000	-	car	446.625	40.436	0.000	0.000	180.000	696.000	987.000	-0.000	Terminate	
"Student10Mode3"	"Tanvi_6"	"Nov 30, 2016 09:00:38 AM"	Unknown	96.98528	10/30/0116 09:02.18	00005819	14.671	Inter618t1-0	-0.998	1	2	270.000	24.444	1.3	0.000	0.000	D	F	1440.7	267.272	0.188	0.019	999.184	1303.302	0.029	-	-0.136	-0.565	-	-	-	-	-	-	-	PAVEMENT_GENERAL	Urban	F	1011101000011101	0000000000000000	-	car	435.782	40.939	0.000	0.000	180.000	696.000	987.000	-0.000	Terminate	
"Student10Mode3"	"Tanvi_6"	"Nov 30, 2016 09:00:38 AM"	Unknown	97.98529	10/30/0116 09:02.19	00005879	14.357	Inter618t1-0	-1.402	1	2	269.888	24.444	16.7	0.076	0.000	D	F	1561.3	270.320	0.232	-0.277	984.725	1302.891	0.034	-	1.027	-0.125	32	55.9	4.759	32	-0.205	-2.938	-0.428	FREEWAY_SMOOTH	Urban	F	1011101000011101	0000000000000000	-	car	425.600	44.209	0.000	0.000	180.000	696.000	987.000	-0.000	Terminate	
"Student10Mode3"	"Tanvi_6"	"Nov 30, 2016 09:00:38 AM"	Unknown	98.98531	10/30/0116 09:02.20	00005939	14.368	Inter618t1-0	-0.916	1	2	269.377	24.444	-2.4	0.145	0.000	D	F	1710.6	272.346	0.264	-0.334	970.401	1303.296	0.045	-	-0.022	0.215	-	-	-	-	-	-	-	FREEWAY_SMOOTH	Urban	F	1011101000011101	0000000000000000	-	car	416.376	46.454	0.000	0.000	180.000	696.000	987.000	-0.000	Terminate	
"Student10Mode3"	"Tanvi_6"	"Nov 30, 2016 09:00:38 AM"	Unknown	99.98534	10/30/0116 09:02.21	00005999	14.645	Inter618t1-0	-0.235	1	2	268.443	24.444	-15.2	0.162	0.000	D	F	1775.0	270.578	0.272	-0.444	955.910	1303.716	0.063	-	-0.767	0.299	-	-	-	-	-	-	-	FREEWAY_SMOOTH	Urban	F	1011101000011101	0000000000000000	-	car	407.350	44.395	0.000	0.000	180.000	696.000	987.000	-0.000	Terminate	
"Student10Mode3"	"Tanvi_6"	"Nov 30, 2016 09:00:38 AM"	Unknown	100.98535	10/30/0116 09:02.22	00006059	14.905	Inter618t1-0	0.032	1	2	267.083	24.444	-15.0	0.155	0.000	D	F	1769.1	267.029	0.256	-0.638	941.129	1303.422	0.081	-	-0.920	0.251	-	-	-	-	-	-	-	FREEWAY_SMOOTH	Urban	F	1011101000011101	0000000000000000	-	car	397.904	40.910	0.000	0.000	180.000	696.000	987.000	-0.000	Terminate	
"Student10Mode3"	"Tanvi_6"	"Nov 30, 2016 09:00:38 AM"	Unknown	101.98537	10/30/0116 09:02.23	00006119	15.079	Inter618t1-0	-0.184	1	2	265.260	24.444	-9.6	0.143	0.000	D	F	1746.2	263.885	0.230	-0.883	926.172	1302.223	0.093	-	-0.667	0.169	-	-	-	-	-	-	-	FREEWAY_SMOOTH	Urban	F	1011101000011101	0000000000000000	-	car	387.954	38.264	0.000	0.000	180.000	696.000	987.000	-0.000	Terminate	
"Student10Mode3"	"Tanvi_6"	"Nov 30, 2016 09:00:38 AM"	Unknown	102.98539	10/30/0116 09:02.24	00006179	15.203	Inter618t1-0	-0.565	1	2	262.971	24.444	-10.3	0.078	0.000	D	F	1638.9	261.593	0.212	-1.089	911.127	1300.310	0.101	-	-0.660	-0.106	-	-	-	-	-	-	-	FREEWAY_SMOOTH	Urban	F	1011101000011101	0000000000000000	-	car	377.697	36.508	0.000	0.000	180.000	696.000	987.000	-0.000	Terminate	
"Student10Mode3"	"Tanvi_6"	"Nov 30, 2016 09:00:38 AM"	Unknown	103.98541	10/30/0116 09:02.25	00006239	15.191	Inter618t1-0	-0.842	1	2	260.237	24.444	-4.4	0.106	0.000	D	F	1688.9	260.048	0.235	-1.347	896.154	1297.844	0.108	-	-0.305	0.055	-	-	-	-	-	-	-	FREEWAY_SMOOTH	Urban	F	1011101000011101	0000000000000000	-	car	367.350	35.637	0.000	0.000	180.000	696.000	987.000	-0.000	Terminate	
"Student10Mode3"	"Tanvi_6"	"Nov 30, 2016 09:00:38 AM"	Unknown	104.98544	10/30/0116 09:02.26	00006299	15.065	Inter618t1-0	-0.700	1	2	257.058	24.444	-10.0	0.062	0.000	D	F	1594.9	258.541	0.276	-1.521	881.276	1295.027	0.125	-	-0.564	-0.200	-	-	-	-	-	-	-	FREEWAY_SMOOTH	Urban	F	1011101000011101	0000000000000000	-	car	357.095	35.094	0.000	0.000	180.000	696.000	987.000	-0.000	Terminate	
"Student10Mode3"	"Tanvi_6"	"Nov 30, 2016 09:00:38 AM"	Unknown	105.98545	10/30/0116 09:02.27	00006359	14.881	Inter618t1-0	-0.304	1	2	253.521	24.444	-17.1	0.078	0.000	D	F	1604.9	255.075	0.221	-1.622	866.702	1291.636	0.148	-	-1.064	-0.161	-	-	-	-	-	-	-	FREEWAY_SMOOTH	Urban	F	1011101000011101	0000000000000000	-	car	346.843	33.438	0.000	0.000	180.000	696.000	987.000	-0.000	Terminate	
"Student10Mode3"	"Tanvi_6"	"Nov 30, 2016 09:00:38 AM"	Unknown	106.98547	10/30/0116 09:02.28	00006419	14.859	Inter618t1-0	-0.014	1	2	249.876	24.444	-18.4	0.131	0.000	D	F	1712.7	250.731	0.217	-1.609	852.519	1287.270	0.155	-	-1.136	0.122	-	-	-	-	-	-	-	FREEWAY_SMOOTH	Urban	F	1011101000011101	0000000000000000	-	car	336.256	31.044	0.000	0.000	180.000	696.000	987.000	-0.000	Terminate	
"Student10Mode3"	"Tanvi_6"	"Nov 30, 2016 09:00:38 AM"	Unknown	107.98550	10/30/0116 09:02.29	00006479	14.983	Inter618t1-0	0.076	1	2	246.250	24.444	-19.4	0.152	0.000	D	F	1761.4	246.234	0.189	-1.601	838.648	1281.800	0.157	-	-1.197	0.225	-	-	-	-	-	-	-	FREEWAY_SMOOTH	Urban	F	1011101000011101	0000000000000000	-	car	325.139	28.500	0.000	0.000	180.000	696.000	987.000	-0.000	Terminate	
"Student10Mode3"	"Tanvi_6"	"Nov 30, 2016 09:00:38 AM"	Unknown	108.98551	10/30/0116 09:02.30	00006539	15.120	Inter618t1-0	-0.071	1	2	242.546	24.444	-16.3	0.111	0.000	D	F	1688.6	241.655	0.161	-1.612	825.119	1275.175	0.153	-	-1.113	0.036	-	-	-	-	-	-	-	FREEWAY_SMOOTH	Urban	F	1011101000011101	0000000000000000	-	car	313.420	26.135	0.000	0.000	180.000	696.000	987.000	-0.000	Terminate	
"Student10Mode3"	"Tanvi_6"	"Nov 30, 2016 09:00:38 AM"	Unknown	109.98553	10/30/0116 09:02.31	00006599	15.029	Inter618t1-0	-0.285	1	2	238.860	24.444	-5.2	0.085	0.000	D	F	1635.0	238.811	0.187	-1.702	812.062	1267.626	0.148	-	-0.434	-0.107	-	-	-	-	-	-	-	FREEWAY_SMOOTH	Urban	F	1011101000011101	0000000000000000	-	car	301.320	24.890	0.000	0.000	180.000	696.000	987.000	-0.000	Terminate	
"Student10Mode3"	"Tanvi_6"	"Nov 30, 2016 09:00:38 AM"	Unknown	110.98555	10/30/0116 09:02.32	00006659	14.873	Inter618t1-0	-0.070	1	2	235.194	24.444	-13.5	0.069	0.000	D	F	1596.3	237.043	0.241	-1.656	799.386	1259.682	0.154	-	-0.721	-0.188	-	-	-	-	-	-	-	FREEWAY_SMOOTH	Urban	F	1011101000011101	0000000000000000	-	car	289.264	24.126	0.000	0.000	180.000	696.000	987.000	-0.000	Terminate	
"Student10Mode3"	"Tanvi_6"	"Nov 30, 2016 09:00:38 AM"	Unknown	111.98557	10/30/0116 09:02.33	00006719	14.679	Inter618t1-0	0.343	1	2	231.570	24.444	-20.3	0.074	0.000	D	F	1582.5	232.905	0.226	-1.591	787.273	1251.222	0.167	-	-1.249	-0.173	-	-	-	-	-	-	-	FREEWAY_SMOOTH	Urban	F	1011101000011101	0000000000000000	-	car	277.183	22.736	0.000	0.000	180.000	696.000	987.000	-0.000	Terminate	
"Student10Mode3"	"Tanvi_6"	"Nov 30, 2016 09:00:38 AM"	Unknown	112.98560	10/30/0116 09:02.34	00006779	14.510	Inter618t1-0	0.473	1	2	228.024	24.444	-20.5	0.074	0.000	D	F	1567.5	227.919	0.183	-1.592	776.034	1241.921	0.171	-	-1.275	-0.158	-	-	-	-	-	-	-	FREEWAY_SMOOTH	Urban	F	1011101000011101	0000000000000000	-	car	264.829	21.180	0.000	0.000	180.000	696.000	987.000	-0.000	Terminate	
"Student10Mode3"	"Tanvi_6"	"Nov 30, 2016 09:00:38 AM"	Unknown	113.98561	10/30/0116 09:02.35	00006839	14.337	Inter618t1-0	0.232	1	2	224.507	24.444	-10.1	0.078	0.000	D	F	1557.7	223.052	0.144	-1.653	765.770	1231.793	0.164	-	-0.865	-0.146	-	-	-	-	-	-	-	FREEWAY_SMOOTH	Urban	F	1011101000011101	0000000000000000	-	car	252.182	19.767	0.000	0.000	180.000	696.000	987.000	-0.000	Terminate	
"Student10Mode3"	"Tanvi_6"	"Nov 30, 2016 09:00:38 AM"	Unknown	114.98563	10/30/0116 09:02.36	00006899	14.368	Inter618t1-0	0.037	1	2	221.006	24.444	-6.6	0.097	0.000	D	F	1612.9	221.403	0.199	-1.704	756.173	1221.153	0.156	-	-0.395	0.034	-	-	-	-	-	-	-	FREEWAY_SMOOTH	Urban	F	1011101000011101	0000000000000000	-	car	239.401	18.698	0.000	0.000	180.000	696.000	987.000	-0.000	Terminate	
"Student10Mode3"	"Tanvi_6"	"Nov 30, 2016 09:00:38 AM"	Unknown	115.98566	10/30/0116 09:02.37	00006959	14.238	Inter618t1-0	0.245	1	2	217.508	24.444	-13.0	0.069	0.000	D	F	1547.2	218.858	0.230	-1.656	746.943	1210.215	0.164	-	-0.769	-0.150	-	-	-	-	-	-	-	FREEWAY_SMOOTH	Urban	F	1011101000011101	0000000000000000	-	car	226.595	17.706	0.000	0.000	180.000	696.000	987.000	-0.000	Terminate	
"Student10Mode3"	"Tanvi_6"	"Nov 30, 2016 09:00:38 AM"	Unknown	116.98567	10/30/0116 09:02.38	00007019	14.146	Inter618t1-0	0.565	1	2	214.044	24.444	-17.3	0.116	0.000	D	F	1631.9	215.504	0.243	-1.631	738.385	1198.917	0.173	-	-0.950	0.078	-	-	-	-	-	-	-	FREEWAY_SMOOTH	Urban	F	1011101000011101	0000000000000000	-	car	213.755	16.565	0.000	0.000	180.000	696.000	987.000	-0.000	Terminate	
"Student10Mode3"	"Tanvi_6"	"Nov 30, 2016 09:00:38 AM"	Unknown	117.98569	10/30/0116 09:02.39	00007079	14.219	Inter618t1-0	0.804	1	2	210.572	24.444	-16.8	0.115	0.000	D	F	1637.9	211.353	0.212	-1.627	730.588	1187.073	0.180	-	-1.002	0.068	-	-	-	-	-	-	-	FREEWAY_SMOOTH	Urban	F	1011101000011101	0000000000000000	-	car	200.681	15.173	0.000	0.000	180.000	696.000	987.000	-0.000	Terminate	
"Student10Mode3"	"Tanvi_6"	"Nov 30, 2016 09:00:38 AM"	Unknown	118.98571	10/30/0116 09:02.40	00007139	14.339	Inter618t1-0	0.933	1	2	207.117	24.444	-15.7	0.150	0.000	D	F	1722.6	207.819	0.217	-1.645	723.578	1174.652	0.183	-	-0.864	0.236	-	-	-	-	-	-	-	FREEWAY_SMOOTH	Urban	F	1011101000011101	0000000000000000	-	car	187.308	13.854	0.000	0.000	180.000	696.000	987.000	-0.000	Terminate	
"Student10Mode3"	"Tanvi_6"	"Nov 30, 2016 09:00:38 AM"	Unknown	119.98573	10/30/0116 09:02.41	00007199	14.608	Inter618t1-0	1.005	1	2	203.572	24.444	-19.6	0.171	0.000	D	F	1785.3	203.584	0.192	-1.606	717.304	1161.621	0.185	-	-1.149	0.326	-	-	-	-	-	-	-	FREEWAY_SMOOTH	Urban	F	1011101000011101	0000000000000000	-	car	173.557	12.399	0.000	0.000	180.000	696.000	987.000	-0.000	Terminate	
"Student10Mode3"	"Tanvi_6"	"Nov 30, 2016 09:00:38 AM"	Unknown	120.98576	10/30/0116 09:02.42	00007259	15.003	Inter618t1-0	0.834	1	2	199.995	24.444	-20.5	0.215	0.000	D	F	1927.5	198.853	0.162	-1.598	711.958	1147.841	0.179	-	-1.233	0.557	-	-	-	-	-	-	-	FREEWAY_SMOOTH	Urban	F	1011101000011101	0000000000000000	-	car	159.271	10.903	0.000	0.000	180.000	696.000	987.000	-0.000	Terminate	
"Student10Mode3"	"Tanvi_6"	"Nov 30, 2016 09:00:38 AM"	Unknown	121.98577	10/30/0116 09:02.43	00007319	15.607	Inter618t1-0	0.397	1	2	196.254	24.444	-13.1	0.226	0.000	D	F	1975.7	194.507	0.142	-1.640	707.596	1133.173	0.165	-	-0.937	0.600	-	-	-	-	-	-	-	FREEWAY_SMOOTH	Urban	F	1011101000011101	0000000000000000	-	car	144.273	9.386	0.000	0.000	180.000	696.000	987.000	-0.000	Terminate	
"Student10Mode3"	"Tanvi_6"	"Nov 30, 2016 09:00:38 AM"	Unknown	122.98579	10/30/0116 09:02.44	00007379	16.173	Inter618t1-0	0.018	1	2	192.546	24.444	-11.7	0.222	0.000	D	F	1997.0	191.763	0.117	-1.481	704.003	1117.690	0.141	-	-0.749	0.540	-	-	-	-	-	-	-	FREEWAY_SMOOTH	Urban	F	1111101000011101	0000000000000000	-	car	128.575	8.033	0.000	0.000	180.000	696.000	987.000	-0.000	Terminate	
"Student10Mode3"	"Tanvi_6"	"Nov 30, 2016 09:00:38 AM"	Unknown	123.98581	10/30/0116 09:02.45	00007439	16.459	Inter618t1-0	-0.170	1	2	189.186	24.444	-12.5	0.143	0.000	D	F	1846.3	188.578	0.116	-1.239	701.102	1101.611	0.122	-	-0.895	0.170	-	-	-	-	-	-	-	FREEWAY_SMOOTH	Urban	F	1011101000011101	0000000000000000	-	car	112.365	6.865	0.000	0.000	180.000	696.000	987.000	-0.000	Terminate	
"Student10Mode3"	"Tanvi_6"	"Nov 30, 2016 09:00:38 AM"	Unknown	124.98583	10/30/0116 09:02.46	00007499	16.578	Inter618t1-0	-0.349	1	2	186.350	24.444	-10.5	0.175	0.000	D	F	1911.6	185.686	0.127	-1.026	699.047	1085.240	0.102	-	-0.759	0.270	-	-	-	-	-	-	-	FREEWAY_SMOOTH	Urban	F	1011101000011101	0000000000000000	-	car	95.928	5.800	0.000	0.000	180.000	696.000	987.000	-0.000	Terminate	
"Student10Mode3"	"Tanvi_6"	"Nov 30, 2016 09:00:38 AM"	Unknown	125.98586	10/30/0116 09:02.47	00007559	16.794	Inter618t1-0	-0.493	1	2	183.991	24.444	-7.0	0.194	0.000	D	F	1969.9	183.746	0.137	-0.831	697.690	1068.631	0.083	-	-0.479	0.371	-	-	-	-	-	-	-	FREEWAY_SMOOTH	Urban	F	1011101000011101	0000000000000000	-	car	79.289	4.726	0.000	0.000	180.000	696.000	987.000	-0.000	Terminate	
"Student10Mode3"	"Tanvi_6"	"Nov 30, 2016 09:00:38 AM"	Unknown	126.98587	10/30/0116 09:02.48	00007619	16.888	Inter618t1-0	-0.510	1	2	182.153	24.444	-9.6	0.044	0.000	D	F	1682.8	182.186	0.128	-0.576	696.807	1051.759	0.070	-	-0.585	-0.297	-	-	-	-	-	-	-	FREEWAY_SMOOTH	Urban	F	1011101000011101	0000000000000000	-	car	62.405	3.696	0.000	0.000	180.000	696.000	987.000	-0.000	Terminate	
"Student10Mode3"	"Tanvi_6"	"Nov 30, 2016 09:00:38 AM"	Unknown	127.98589	10/30/0116 09:02.49	00007679	16.351	Inter618t1-0	-0.586	1	2	180.895	24.444	-1.0	0.000	0.000	D	F	1605.6	180.464	0.132	-0.403	696.447	1035.122	0.057	-	-0.212	-0.607	-	-	-	-	-	-	-	FREEWAY_SMOOTH	Urban	F	1011101000011101	0000000000000000	-	car	45.765	2.799	0.000	0.000	180.000	696.000	987.000	-0.000	Terminate	
"Student10Mode3"	"Tanvi_6"	"Nov 30, 2016 09:00:38 AM"	Unknown	128.98592	10/30/0116 09:02.50	00007739	15.747	Inter618t1-0	-0.677	1	2	180.197	24.444	-8.4	0.000	0.000	D	F	1546.4	179.590	0.135	-0.131	696.394	1019.074	0.042	-	-0.496	-0.597	-	-	-	-	-	-	-	FREEWAY_SMOOTH	Urban	F	1011101000011101	0000000000000000	-	car	29.942	2.026	0.967	2.000	179.255	696.004	986.774	-0.000	Terminate	
"Student10Mode3"	"Tanvi_6"	"Nov 30, 2016 09:00:38 AM"	Unknown	129.98593	10/30/0116 09:02.51	00007799	15.156	Inter618t1-0	-1.011	1	2	180.000	24.444	-8.2	0.000	0.000	D	F	1488.9	178.195	0.165	0.058	696.711	1003.627	0.029	-	-0.372	-0.579	-	-	-	-	-	-	-	FREEWAY_SMOOTH	Urban	F	1011101000011101	0000000000000000	-	car	16.449	1.351	2.967	2.000	176.542	696.123	984.828	-0.000	Terminate	
"Student10Mode3"	"Tanvi_6"	"Nov 30, 2016 09:00:38 AM"	Unknown	130.98595	10/30/0116 09:02.52	00007859	14.660	Inter686t1-0	-1.136	1	1	180.000	11.111	-4.9	0.076	0.000	D	F	1590.6	175.235	0.192	0.064	697.532	988.772	0.028	-	-0.501	-0.220	-	-	-	car	0.216	3.171	0.327	PAVEMENT_GENERAL	Urban	F	1111101000011101	0000000000000000	-	car	5.625	0.600	4.967	2.000	177.703	696.306	980.882	-0.000	Terminate	
"Student10Mode3"	"Tanvi_6"	"Nov 30, 2016 09:00:38 AM"	Unknown	131.98598	10/30/0116 09:02.53	00007919	14.791	-	-	CL	0	-	-	15.8	0.171	0.000	D	F	1805.4	176.619	0.197	-0.108	698.681	974.130	0.025	-	0.821	0.323	-	-	-	-	-	-	-	PAVEMENT_GENERAL	Urban	F	1011101000011101	0000000000000000	-	car	0.275	-0.047	4.467	-4.000	179.536	696.391	975.432	-0.000	Terminate	
"Student10Mode3"	"Tanvi_6"	"Nov 30, 2016 09:00:38 AM"	Unknown	132.98599	10/30/0116 09:02.54	00007979	15.157	-	-	CL	0	-	-	12.5	0.180	0.000	D	F	1847.0	179.703	0.197	-0.094	699.162	959.167	0.025	-	0.705	0.373	-	-	-	-	-	-	-	PAVEMENT_GENERAL	Urban	F	1011101000011101	0000000000000000	-	car	11.063	-0.950	3.267	2.000	179.916	696.398	972.302	-0.000	Terminate	
"Student10Mode3"	"Tanvi_6"	"Nov 30, 2016 09:00:38 AM"	Unknown	133.98601	10/30/0116 09:02.55	00008039	15.572	-	-	CL	0	-	-	-6.1	0.212	0.000	D	F	1939.5	181.062	0.198	0.029	699.004	943.819	0.024	-	-0.136	0.509	-	-	-	-	-	-	-	PAVEMENT_GENERAL	Urban	F	1011101000011101	0000000000000000	-	car	22.013	-2.155	5.267	2.000	180.009	696.398	968.052	-0.000	Terminate	
"Student10Mode3"	"Tanvi_6"	"Nov 30, 2016 09:00:38 AM"	Unknown	134.98604	10/30/0116 09:02.56	00008099	16.138	-	-	CL	0	-	-	-4.1	0.240	0.000	D	F	2010.7	179.579	0.198	0.031	698.911	927.971	0.024	-	-0.290	0.582	-	-	-	-	-	-	-	PAVEMENT_GENERAL	Urban	F	1011101000011101	0000000000000000	-	car	31.564	-3.565	7.267	2.000	180.012	696.397	961.802	-0.000	Terminate	
"Student10Mode3"	"Tanvi_6"	"Nov 30, 2016 09:00:38 AM"	Unknown	135.98605	10/30/0116 09:02.57	00008159	16.703	-	-	CL	0	-	-	-3.1	0.238	0.000	D	F	2039.6	178.831	0.198	0.025	699.130	911.550	0.024	-	-0.195	0.548	-	-	-	-	-	-	-	PAVEMENT_GENERAL	Urban	F	1011101000011101	0000000000000000	-	car	39.731	-5.341	9.267	2.000	180.009	696.397	953.552	-0.000	Terminate	
"Student10Mode3"	"Tanvi_6"	"Nov 30, 2016 09:00:38 AM"	Unknown	136.98607	10/30/0116 09:02.58	00008219	17.228	-	-	CL	0	-	-	3.2	0.231	0.000	D	F	2059.0	178.925	0.196	-0.024	699.493	894.583	0.024	-	0.169	0.498	-	-	-	-	-	-	-	PAVEMENT_GENERAL	Urban	F	1011101000011101	0000000000000000	-	car	46.457	-7.786	11.267	2.000	180.007	696.397	943.301	-0.000	Terminate	
"Student10Mode3"	"Tanvi_6"	"Nov 30, 2016 09:00:38 AM"	Unknown	137.98610	10/30/0116 09:02.59	00008279	17.695	-	-	CL	0	-	-	3.2	0.215	0.000	D	F	2067.2	179.566	0.195	-0.025	699.734	877.117	0.025	-	0.196	0.433	-	-	-	-	-	-	-	PAVEMENT_GENERAL	Urban	F	1011101000011101	0000000000000000	-	car	51.677	-11.672	13.267	2.000	180.006	696.397	931.051	-0.000	Terminate	
"Student10Mode3"	"Tanvi_6"	"Nov 30, 2016 09:00:38 AM"	Unknown	138.98611	10/30/0116 09:03.00	00008339	17.948	-	-	CL	0	-	-	2.1	0.210	0.000	D	F	2072.3	180.110	0.195	-0.012	699.787	859.290	0.025	-	0.120	0.370	-	-	-	-	-	-	-	PAVEMENT_GENERAL	Urban	F	1011101000011101	0000000000000000	-	car	55.251	-20.655	15.267	2.000	180.005	696.397	916.800	-0.000	Terminate	
"Student10Mode3"	"Tanvi_6"	"Nov 30, 2016 09:00:38 AM"	Unknown	139.98613	10/30/0116 09:03.01	00008399	18.331	-	-	CL	0	-	-	2.7	0.213	0.000	D	F	2109.6	180.641	0.194	-0.023	699.685	841.151	0.025	-	0.180	0.381	-	-	-	-	-	-	-	PAVEMENT_GENERAL	Urban	F	1011101000011101	0000000000000000	-	car	57.130	-54.431	17.267	2.000	180.004	696.397	900.550	-0.000	Terminate	
"Student10Mode3"	"Tanvi_6"	"Nov 30, 2016 09:00:38 AM"	Unknown	140.98616	10/30/0116 09:03.02	00008459	18.705	-	-	CL	0	-	-	-1.9	0.220	0.000	D	F	2148.0	180.612	0.194	0.016	699.459	822.635	0.025	-	-0.114	0.382	-	-	-	-	-	-	-	PAVEMENT_GENERAL	Urban	F	1011101000011101	0000000000000000	-	car	57.539	8611.079	18.700	1.000	180.004	696.397	882.455	-0.000	Terminate	
"Student10Mode3"	"Tanvi_6"	"Nov 30, 2016 09:00:38 AM"	Unknown	141.98618	10/30/0116 09:03.03	00008519	19.074	-	-	CL	0	-	-	-1.8	0.219	0.000	D	F	2166.2	180.262	0.193	0.016	699.309	803.743	0.025	-	-0.113	0.360	-	-	-	-	-	-	-	PAVEMENT_GENERAL	Urban	F	1011101000011101	0000000000000000	-	car	57.314	169.282	19.409	0.500	180.004	696.397	863.345	-0.000	Terminate	
"Student10Mode3"	"Tanvi_6"	"Nov 30, 2016 09:00:38 AM"	Unknown	142.98619	10/30/0116 09:03.04	00008579	19.421	-	-	CL	0	-	-	-0.6	0.215	0.000	D	F	2186.8	179.958	0.192	0.009	699.269	784.493	0.025	-	-0.063	0.337	-	-	-	-	-	-	-	PAVEMENT_GENERAL	Urban	F	1011101000011101	0000000000000000	-	car	56.907	117.111	19.909	0.500	180.004	696.397	843.690	-0.000	Terminate	
"Student10Mode3"	"Tanvi_6"	"Nov 30, 2016 09:00:38 AM"	Unknown	143.98621	10/30/0116 09:03.05	00008639	19.740	-	-	CL	0	-	-	0.8	0.212	0.000	D	F	2202.7	180.003	0.191	-0.005	699.280	764.910	0.025	-	0.040	0.305	-	-	-	-	-	-	-	PAVEMENT_GENERAL	Urban	F	1011101000011101	0000000000000000	-	car	56.420	150.255	20.116	0.000	180.004	696.397	823.619	-0.000	Terminate	
"Student10Mode3"	"Tanvi_6"	"Nov 30, 2016 09:00:38 AM"	Unknown	144.98624	10/30/0116 09:03.06	00008699	19.842	-	-	CL	0	-	-	0.9	0.085	0.000	D	F	1626.0	180.150	0.182	-0.007	699.257	745.071	0.027	-	0.053	-0.202	-	-	-	-	-	-	-	PAVEMENT_GENERAL	Urban	F	1011101000011101	0000000000000000	-	car	56.142	202.966	20.116	0.000	179.978	696.400	803.503	-0.000	Terminate	
"Student10Mode3"	"Tanvi_6"	"Nov 30, 2016 09:00:38 AM"	Unknown	145.98625	10/30/0116 09:03.07	00008759	19.362	-	-	CL	0	-	-	1.1	0.007	0.000	D	F	1323.1	180.371	0.182	-0.014	699.178	725.438	0.029	-	0.098	-0.566	-	-	-	-	-	-	-	PAVEMENT_GENERAL	Urban	F	1011101000011101	0000000000000000	-	car	55.656	73.297	20.116	0.000	179.995	696.403	783.387	-0.000	Terminate	
"Student10Mode3"	"Tanvi_6"	"Nov 30, 2016 09:00:38 AM"	Unknown	146.98627	10/30/0116 09:03.08	00008819	18.914	-	-	CL	0	-	-	-5.9	0.093	0.000	D	F	1506.4	180.143	0.189	0.048	699.044	706.331	0.028	-	-0.347	-0.218	-	-	-	-	-	-	-	PAVEMENT_GENERAL	Urban	F	1011101000011101	0000000000000000	-	car	54.642	45.423	20.116	0.000	179.996	696.403	763.271	-0.000	Terminate	
"Student10Mode3"	"Tanvi_6"	"Nov 30, 2016 09:00:38 AM"	Unknown	147.98630	10/30/0116 09:03.09	00008879	18.730	-	-	CL	0	-	-	4.8	0.065	0.000	D	F	1432.4	179.834	0.185	-0.040	699.111	687.503	0.028	-	0.268	-0.271	-	-	-	-	-	-	-	PAVEMENT_GENERAL	Urban	F	1011101000011101	0000000000000000	-	car	53.358	38.619	20.116	0.000	179.996	696.403	743.155	-0.000	Terminate	
"Student10Mode3"	"Tanvi_6"	"Nov 30, 2016 09:00:38 AM"	Unknown	148.98631	10/30/0116 09:03.10	00008939	18.379	-	-	CL	0	-	-	-2.7	0.049	0.000	D	F	1374.9	180.349	0.187	0.016	699.054	668.944	0.028	-	-0.077	-0.355	-	-	-	-	-	-	-	PAVEMENT_GENERAL	Urban	F	1011101000011101	0000000000000000	-	car	51.800	29.755	20.116	0.000	179.996	696.403	723.039	-0.000	Terminate	
"Student10Mode3"	"Tanvi_6"	"Nov 30, 2016 09:00:38 AM"	Unknown	149.98633	10/30/0116 09:03.11	00008999	18.031	-	-	CL	0	-	-	-2.4	0.083	0.000	D	F	1435.7	179.566	0.189	0.033	699.047	650.746	0.028	-	-0.231	-0.269	-	-	-	-	-	-	-	PAVEMENT_GENERAL	Urban	F	1011101000011101	0000000000000000	-	car	49.884	24.027	20.116	0.000	179.996	696.403	702.923	-0.000	Terminate	
"Student10Mode3"	"Tanvi_6"	"Nov 30, 2016 09:00:38 AM"	Unknown	150.98636	10/30/0116 09:03.12	00009059	17.890	-	-	CL	0	-	-	2.9	0.111	0.000	D	F	1533.8	179.991	0.190	-0.032	699.156	632.799	0.027	-	0.233	-0.089	-	-	-	-	-	-	-	PAVEMENT_GENERAL	Urban	F	1011101000011101	0000000000000000	-	car	47.725	21.475	20.116	0.000	179.996	696.403	682.807	-0.000	Terminate	
"Student10Mode3"	"Tanvi_6"	"Nov 30, 2016 09:00:38 AM"	Unknown	151.98637	10/30/0116 09:03.13	00009119	17.686	-	-	CL	0	-	-	1.2	0.058	0.000	D	F	1361.2	180.301	0.187	-0.010	699.112	614.992	0.028	-	0.073	-0.286	-	-	-	-	-	-	-	PAVEMENT_GENERAL	Urban	F	1011101000011101	0000000000000000	-	car	45.416	18.677	20.116	0.000	179.996	696.403	662.691	-0.000	Terminate	
"Student10Mode3"	"Tanvi_6"	"Nov 30, 2016 09:00:38 AM"	Unknown	152.98639	10/30/0116 09:03.14	00009179	17.351	-	-	CL	0	-	-	1.9	0.041	0.000	D	F	1294.9	180.632	0.187	-0.016	698.981	597.469	0.028	-	0.122	-0.372	-	-	-	-	-	-	-	PAVEMENT_GENERAL	Urban	F	1011101000011101	0000000000000000	-	car	42.851	20.531	19.429	-5.744	179.996	696.403	642.606	-0.000	Terminate	
"Student10Mode3"	"Tanvi_6"	"Nov 30, 2016 09:00:38 AM"	Unknown	153.98642	10/30/0116 09:03.15	00009239	16.948	-	-	SH-	1	-	-	2.8	0.034	0.000	D	F	1240.9	181.000	0.188	-0.024	698.743	580.318	0.028	-	0.147	-0.408	-	-	-	-	-	-	-	PAVEMENT_GENERAL	Urban	F	1011101000011101	0000000000000000	-	car	41.165	28.592	18.372	-0.500	179.996	696.403	623.779	-0.000	Terminate	
"Student10Mode3"	"Tanvi_6"	"Nov 30, 2016 09:00:38 AM"	Unknown	154.98643	10/30/0116 09:03.16	00009299	16.509	Inter688t33-0	-0.288	1	1	174.266	11.111	-4.6	0.007	0.000	D	F	1125.9	181.164	0.186	0.028	698.396	563.582	0.029	-	-0.201	-0.524	-	-	-	-	-	-	-	PAVEMENT_GENERAL	Urban	F	1011101000011101	0000000000000000	-	car	39.873	34.267	17.655	-0.500	180.029	696.401	605.768	-0.000	Terminate	
"Student10Mode3"	"Tanvi_6"	"Nov 30, 2016 09:00:38 AM"	Unknown	155.98645	10/30/0116 09:03.17	00009359	13.901	Inter688t33-0	1.345	1	1	176.027	11.111	-7.6	0.000	0.269	D	F	913.9	179.510	0.133	0.061	698.255	548.031	0.037	-	-0.461	-3.786	-	-	-	-	-	-	-	PAVEMENT_GENERAL	Urban	F	1011101000011101	0000000000000000	-	car	38.330	20.509	15.763	-4.469	178.405	696.478	588.682	-0.000	Terminate	
