"Name"	"Project"	"Time"	ZoneName	Time	SystemTime	Frame	Velocity	LaneName	LanePos	LaneIndex	LaneCount	LaneHeading	SpeedLimit	Steer	Accel	Brake	Gear	Horn	SubjectEngineRPM	SubjectHeading	SubjectPitch	SubjectRoll	SubjectX	SubjectY	SubjectZ	Signal	LatAccel	LongAccel	Collision	CollisionAngle	CollisionVelocity	VehAhead	HeadwayTime	HeadwayDist	TTC	TerrainType	CultureType	Slip	DigitalInputs	DigitalInputs2	ActiveTrigger	EntityName	DistToEntity	TimeToEntity	EntityVelocity	EntityAccel	EntityHeading	EntityX	EntityY	EntityZ	GrabData	
"Student10Mode1"	"Seema_Shokoufeh_Track2"	"Nov 30, 2016 08:52:18 AM"	Unknown	0.98335	10/30/0116 08:52.23	00000059	0.002	Inter625t13-0	-0.088	1	2	0.000	11.111	-0.9	0.004	0.000	D	F	0.0	0.000	0.153	0.000	1503.500	523.206	0.019	-	0.000	0.000	-	-	-	-	-	-	-	PAVEMENT_GENERAL	Urban	F	1011101000011101	0000000000000000	-	-	-	-	-	-	-	-	-	-	Terminate	
"Student10Mode1"	"Seema_Shokoufeh_Track2"	"Nov 30, 2016 08:52:18 AM"	Unknown	1.98337	10/30/0116 08:52.24	00000119	0.000	Inter625t13-0	-0.088	1	2	0.000	11.111	-0.9	0.004	0.000	D	F	0.0	0.000	0.197	0.000	1503.500	523.208	0.026	-	-0.000	-0.001	-	-	-	-	-	-	-	PAVEMENT_GENERAL	Urban	F	1011101000011101	0000000000000000	-	-	-	-	-	-	-	-	-	-	Terminate	
"Student10Mode1"	"Seema_Shokoufeh_Track2"	"Nov 30, 2016 08:52:18 AM"	Unknown	2.98339	10/30/0116 08:52.25	00000179	-0.000	Inter625t13-0	-0.088	1	2	0.000	11.111	-0.9	0.002	0.000	D	F	0.0	0.000	0.207	0.000	1503.500	523.208	0.028	-	0.000	-0.000	-	-	-	-	-	-	-	PAVEMENT_GENERAL	Urban	F	1011101000011101	0000000000000000	-	-	-	-	-	-	-	-	-	-	Terminate	
"Student10Mode1"	"Seema_Shokoufeh_Track2"	"Nov 30, 2016 08:52:18 AM"	Unknown	3.98341	10/30/0116 08:52.26	00000239	-0.000	Inter625t13-0	-0.088	1	2	0.000	11.111	2.4	0.005	0.000	D	F	0.0	0.000	0.210	0.000	1503.500	523.208	0.028	-	0.000	-0.000	-	-	-	-	-	-	-	PAVEMENT_GENERAL	Urban	F	1011101000011101	0000000000000000	-	-	-	-	-	-	-	-	-	-	Terminate	
"Student10Mode1"	"Seema_Shokoufeh_Track2"	"Nov 30, 2016 08:52:18 AM"	Unknown	4.98343	10/30/0116 08:52.27	00000299	-0.000	Inter625t13-0	-0.088	1	2	0.000	11.111	2.6	0.004	0.000	D	F	0.0	0.000	0.210	0.000	1503.500	523.208	0.028	-	0.000	0.000	-	-	-	-	-	-	-	PAVEMENT_GENERAL	Urban	F	1011101000011101	0000000000000000	-	-	-	-	-	-	-	-	-	-	Terminate	
"Student10Mode1"	"Seema_Shokoufeh_Track2"	"Nov 30, 2016 08:52:18 AM"	Unknown	5.98345	10/30/0116 08:52.28	00000359	-0.000	Inter625t13-0	-0.088	1	2	0.000	11.111	2.7	0.004	0.000	D	F	0.0	0.000	0.209	0.000	1503.500	523.208	0.028	-	0.000	0.000	-	-	-	-	-	-	-	PAVEMENT_GENERAL	Urban	F	1011101000011101	0000000000000000	-	-	-	-	-	-	-	-	-	-	Terminate	
"Student10Mode1"	"Seema_Shokoufeh_Track2"	"Nov 30, 2016 08:52:18 AM"	Unknown	6.98347	10/30/0116 08:52.29	00000419	0.000	Inter625t13-0	-0.088	1	2	0.000	11.111	2.9	0.005	0.000	D	F	233.3	0.000	0.209	-0.000	1503.500	523.208	0.028	-	0.000	0.000	-	-	-	-	-	-	-	PAVEMENT_GENERAL	Urban	F	1011101000011111	0000000000000000	-	-	-	-	-	-	-	-	-	-	Terminate	
"Student10Mode1"	"Seema_Shokoufeh_Track2"	"Nov 30, 2016 08:52:18 AM"	Unknown	7.98349	10/30/0116 08:52.30	00000479	0.133	Inter625t13-0	-0.088	1	2	0.000	11.111	6.9	0.048	0.000	D	F	935.2	0.003	0.203	0.001	1503.500	523.227	0.020	-	0.004	0.888	-	-	-	-	-	-	-	PAVEMENT_GENERAL	Urban	F	1011101000011101	0000000000000000	-	-	-	-	-	-	-	-	-	-	Terminate	
"Student10Mode1"	"Seema_Shokoufeh_Track2"	"Nov 30, 2016 08:52:18 AM"	Unknown	8.98351	10/30/0116 08:52.31	00000539	1.026	Inter625t13-0	-0.086	1	2	0.000	11.111	9.8	0.085	0.000	D	F	1145.3	0.078	0.245	-0.002	1503.502	523.658	0.019	-	0.019	2.282	-	-	-	-	-	-	-	PAVEMENT_GENERAL	Urban	F	1011101000011101	0000000000000000	-	-	-	-	-	-	-	-	-	-	Terminate	
"Student10Mode1"	"Seema_Shokoufeh_Track2"	"Nov 30, 2016 08:52:18 AM"	Unknown	9.98353	10/30/0116 08:52.32	00000599	2.994	Inter625t13-0	-0.060	1	2	0.000	11.111	11.3	0.086	0.000	D	F	1282.3	0.598	0.212	-0.005	1503.528	525.725	0.018	-	0.040	1.506	-	-	-	-	-	-	-	PAVEMENT_GENERAL	Urban	F	1011101000011101	0000000000000000	-	-	-	-	-	-	-	-	-	-	Terminate	
"Student10Mode1"	"Seema_Shokoufeh_Track2"	"Nov 30, 2016 08:52:18 AM"	Unknown	10.98355	10/30/0116 08:52.33	00000659	4.178	Inter625t13-0	0.023	1	2	0.000	11.111	10.0	0.113	0.000	D	F	1513.0	1.381	0.227	-0.009	1503.611	529.316	0.021	-	0.069	1.414	-	-	-	-	-	-	-	PAVEMENT_GENERAL	Urban	F	1011101000011101	0000000000000000	-	-	-	-	-	-	-	-	-	-	Terminate	
"Student10Mode1"	"Seema_Shokoufeh_Track2"	"Nov 30, 2016 08:52:18 AM"	Unknown	11.98357	10/30/0116 08:52.34	00000719	5.121	Inter625t49-0	0.176	1	1	0.005	11.111	-1.6	0.099	0.000	D	F	1374.8	1.852	0.215	0.004	1503.764	534.006	0.022	-	-0.027	0.923	-	-	-	-	-	-	-	PAVEMENT_GENERAL	Urban	F	1011101000011101	0000000000000000	-	-	-	-	-	-	-	-	-	-	Terminate	
"Student10Mode1"	"Seema_Shokoufeh_Track2"	"Nov 30, 2016 08:52:18 AM"	Unknown	12.98359	10/30/0116 08:52.35	00000779	6.312	Inter625t49-0	0.326	1	1	0.006	11.111	-1.8	0.190	0.000	D	F	1649.9	1.384	0.216	-0.000	1503.915	539.657	0.019	-	-0.013	1.510	-	-	-	-	-	-	-	PAVEMENT_GENERAL	Urban	F	1011101000011101	0000000000000000	-	-	-	-	-	-	-	-	-	-	Terminate	
"Student10Mode1"	"Seema_Shokoufeh_Track2"	"Nov 30, 2016 08:52:18 AM"	Unknown	13.98361	10/30/0116 08:52.36	00000839	7.758	Inter625t49-0	0.490	1	1	0.008	11.111	-1.1	0.203	0.000	D	F	1760.9	1.341	0.214	0.003	1504.079	546.701	0.020	-	-0.021	1.378	-	-	-	-	-	-	-	PAVEMENT_GENERAL	Urban	F	1011101000011101	0000000000000000	-	-	-	-	-	-	-	-	-	-	Terminate	
"Student10Mode1"	"Seema_Shokoufeh_Track2"	"Nov 30, 2016 08:52:18 AM"	Unknown	14.98363	10/30/0116 08:52.37	00000899	9.095	Inter625t49-0	0.643	1	1	0.007	11.111	-7.0	0.236	0.000	D	F	1917.5	0.702	0.215	0.022	1504.233	555.126	0.020	-	-0.175	1.390	-	-	-	-	-	-	-	PAVEMENT_GENERAL	Urban	F	1011101000011101	0000000000000000	-	-	-	-	-	-	-	-	-	-	Terminate	
"Student10Mode1"	"Seema_Shokoufeh_Track2"	"Nov 30, 2016 08:52:18 AM"	Unknown	15.98365	10/30/0116 08:52.38	00000959	10.372	Inter625t49-0	0.702	1	1	0.005	11.111	1.9	0.231	0.000	D	F	2005.5	0.436	0.211	-0.012	1504.294	564.874	0.021	-	0.074	1.199	-	-	-	-	-	-	-	PAVEMENT_GENERAL	Urban	F	1011101000011101	0000000000000000	-	-	-	-	-	-	-	-	-	-	Terminate	
"Student10Mode1"	"Seema_Shokoufeh_Track2"	"Nov 30, 2016 08:52:18 AM"	Unknown	16.98367	10/30/0116 08:52.39	00001019	11.491	Inter625t49-0	0.778	1	1	0.005	11.111	-1.4	0.228	0.000	D	F	2094.7	0.288	0.208	0.007	1504.370	575.819	0.021	-	-0.052	1.045	-	-	-	-	-	-	-	PAVEMENT_GENERAL	Urban	F	1011101000011101	0000000000000000	-	-	-	-	-	-	-	-	-	-	Terminate	
"Student10Mode1"	"Seema_Shokoufeh_Track2"	"Nov 30, 2016 08:52:18 AM"	Unknown	17.98369	10/30/0116 08:52.40	00001079	12.494	Inter625t15-0	0.823	1	2	0.000	11.111	-0.4	0.235	0.000	D	F	2212.6	0.181	0.207	0.003	1504.416	587.817	0.022	-	-0.017	0.979	-	-	-	-	-	-	-	PAVEMENT_GENERAL	Urban	F	1011101000011101	0000000000000000	-	-	-	-	-	-	-	-	-	-	Terminate	
"Student10Mode1"	"Seema_Shokoufeh_Track2"	"Nov 30, 2016 08:52:18 AM"	Unknown	18.98371	10/30/0116 08:52.41	00001139	13.450	Inter614t1-0	0.852	1	2	0.000	11.111	-1.3	0.233	0.000	D	F	2324.1	0.051	0.206	0.008	1504.445	600.793	0.022	-	-0.054	0.929	-	-	-	-	-	-	-	PAVEMENT_GENERAL	Urban	F	1011101000011101	0000000000000000	-	-	-	-	-	-	-	-	-	-	Terminate	
"Student10Mode1"	"Seema_Shokoufeh_Track2"	"Nov 30, 2016 08:52:18 AM"	Unknown	19.98373	10/30/0116 08:52.42	00001199	14.360	Inter614t1-0	0.851	1	2	0.000	11.111	-0.9	0.236	0.000	D	F	2453.6	0.000	0.204	0.005	1504.444	614.702	0.022	-	-0.025	0.889	-	-	-	-	-	-	-	PAVEMENT_GENERAL	Urban	F	1011101000011101	0000000000000000	-	-	-	-	-	-	-	-	-	-	Terminate	
"Student10Mode1"	"Seema_Shokoufeh_Track2"	"Nov 30, 2016 08:52:18 AM"	Unknown	20.98375	10/30/0116 08:52.43	00001259	15.200	Inter614t1-0	0.836	1	2	0.000	11.111	0.2	0.217	0.000	D	F	1997.3	359.940	0.199	-0.002	1504.429	629.503	0.023	-	0.011	0.646	-	-	-	-	-	-	-	PAVEMENT_GENERAL	Urban	F	1011101000011101	0000000000000000	-	-	-	-	-	-	-	-	-	-	Terminate	
"Student10Mode1"	"Seema_Shokoufeh_Track2"	"Nov 30, 2016 08:52:18 AM"	Unknown	21.98377	10/30/0116 08:52.44	00001319	15.625	Inter614t1-0	0.829	1	2	0.000	11.111	0.6	0.226	0.000	D	F	1976.9	0.038	0.198	-0.005	1504.422	644.897	0.024	-	0.037	0.595	-	-	-	-	-	-	-	PAVEMENT_GENERAL	Urban	F	1011101000011101	0000000000000000	-	-	-	-	-	-	-	-	-	-	Terminate	
"Student10Mode1"	"Seema_Shokoufeh_Track2"	"Nov 30, 2016 08:52:18 AM"	Unknown	22.98379	10/30/0116 08:52.45	00001379	16.198	Inter614t1-0	0.840	1	2	0.000	11.111	-0.7	0.222	0.000	D	F	2000.3	0.000	0.198	0.006	1504.433	660.813	0.024	-	-0.044	0.544	-	-	-	-	-	-	-	PAVEMENT_GENERAL	Urban	F	1111101000011101	0000000000000000	-	-	-	-	-	-	-	-	-	-	Terminate	
"Student10Mode1"	"Seema_Shokoufeh_Track2"	"Nov 30, 2016 08:52:18 AM"	Unknown	23.98381	10/30/0116 08:52.46	00001439	16.637	Inter614t1-0	0.824	1	2	0.000	11.111	0.7	0.150	0.000	D	F	1859.9	359.940	0.190	-0.004	1504.417	677.254	0.025	-	0.029	0.171	-	-	-	-	-	-	-	PAVEMENT_GENERAL	Urban	F	1011101000011101	0000000000000000	-	-	-	-	-	-	-	-	-	-	Terminate	
"Student10Mode1"	"Seema_Shokoufeh_Track2"	"Nov 30, 2016 08:52:18 AM"	Unknown	24.98383	10/30/0116 08:52.47	00001499	16.366	Inter614t1-0	0.826	1	2	0.000	11.111	0.5	0.034	0.000	D	F	1612.0	0.093	0.188	-0.005	1504.419	693.819	0.029	-	0.039	-0.449	-	-	-	12	8.878	145.300	-	PAVEMENT_GENERAL	Urban	F	1011101000011101	0000000000000000	-	-	-	-	-	-	-	-	-	-	Terminate	
"Student10Mode1"	"Seema_Shokoufeh_Track2"	"Nov 30, 2016 08:52:18 AM"	Unknown	25.98385	10/30/0116 08:52.48	00001559	16.022	Inter614t1-0	0.855	1	2	0.000	11.111	-1.1	0.063	0.000	D	F	1668.6	0.049	0.191	0.009	1504.448	710.003	0.028	-	-0.057	-0.277	-	-	-	12	9.224	147.782	-	PAVEMENT_GENERAL	Urban	F	1111101000011101	0000000000000000	-	-	-	-	-	-	-	-	-	-	Terminate	
"Student10Mode1"	"Seema_Shokoufeh_Track2"	"Nov 30, 2016 08:52:18 AM"	Unknown	26.98387	10/30/0116 08:52.49	00001619	16.018	Inter614t1-0	0.847	1	2	0.000	11.111	-0.6	0.185	0.000	D	F	1897.2	359.919	0.201	0.004	1504.440	725.981	0.025	-	-0.026	0.352	-	-	-	12	9.511	152.345	-	PAVEMENT_GENERAL	Urban	F	1111101000011101	0000000000000000	-	-	-	-	-	-	-	-	-	-	Terminate	
"Student10Mode1"	"Seema_Shokoufeh_Track2"	"Nov 30, 2016 08:52:18 AM"	Unknown	27.98389	10/30/0116 08:52.50	00001679	16.330	Inter614t1-0	0.824	1	2	0.000	11.111	0.9	0.180	0.000	D	F	1904.5	0.000	0.196	-0.005	1504.417	742.157	0.025	-	0.041	0.301	-	-	-	12	9.652	157.627	-	PAVEMENT_GENERAL	Urban	F	1011101000011101	0000000000000000	-	-	-	-	-	-	-	-	-	-	Terminate	
"Student10Mode1"	"Seema_Shokoufeh_Track2"	"Nov 30, 2016 08:52:18 AM"	Unknown	28.98391	10/30/0116 08:52.51	00001739	16.622	Inter614t1-0	0.836	1	2	0.000	11.111	0.1	0.183	0.000	D	F	1932.4	0.119	0.196	-0.002	1504.429	758.633	0.025	-	0.018	0.298	-	-	-	12	9.814	163.128	-	PAVEMENT_GENERAL	Urban	F	1011101000011101	0000000000000000	-	-	-	-	-	-	-	-	-	-	Terminate	
"Student10Mode1"	"Seema_Shokoufeh_Track2"	"Nov 30, 2016 08:52:18 AM"	Unknown	29.98393	10/30/0116 08:52.52	00001799	17.033	Inter614t1-0	0.869	1	2	0.000	11.111	-0.8	0.222	0.000	D	F	2040.3	0.080	0.197	0.005	1504.463	775.438	0.024	-	-0.039	0.491	-	-	-	12	9.902	168.661	-	PAVEMENT_GENERAL	Urban	F	1011101000011101	0000000000000000	-	-	-	-	-	-	-	-	-	-	Terminate	
"Student10Mode1"	"Seema_Shokoufeh_Track2"	"Nov 30, 2016 08:52:18 AM"	Unknown	30.98395	10/30/0116 08:52.53	00001859	17.232	Inter614t1-0	0.874	1	2	0.000	11.111	0.2	0.079	0.000	D	F	1811.3	0.000	0.188	-0.001	1504.467	792.639	0.027	-	-0.002	-0.142	-	-	-	12	10.087	173.813	-	PAVEMENT_GENERAL	Urban	F	1011101000011101	0000000000000000	-	-	-	-	-	-	-	-	-	-	Terminate	
"Student10Mode1"	"Seema_Shokoufeh_Track2"	"Nov 30, 2016 08:52:18 AM"	Unknown	31.98397	10/30/0116 08:52.54	00001919	16.907	Inter612t1-0	0.868	1	2	0.000	11.111	-0.1	0.039	0.000	D	F	1667.5	0.001	0.188	-0.001	1504.461	809.724	0.028	-	0.006	-0.378	-	-	-	12	10.592	179.082	-	PAVEMENT_GENERAL	Urban	F	1011101000011101	0000000000000000	-	-	-	-	-	-	-	-	-	-	Terminate	
"Student10Mode1"	"Seema_Shokoufeh_Track2"	"Nov 30, 2016 08:52:18 AM"	Unknown	32.98399	10/30/0116 08:52.55	00001979	16.549	Inter612t1-0	0.862	1	2	0.000	11.111	0.1	0.134	0.000	D	F	1829.7	0.000	0.194	0.000	1504.455	826.394	0.026	-	-0.001	0.045	-	-	-	12	11.165	184.766	-	PAVEMENT_GENERAL	Urban	F	1011101000011101	0000000000000000	-	-	-	-	-	-	-	-	-	-	Terminate	
"Student10Mode1"	"Seema_Shokoufeh_Track2"	"Nov 30, 2016 08:52:18 AM"	Unknown	33.98401	10/30/0116 08:52.56	00002039	16.803	Inter612t1-0	0.856	1	2	0.000	11.111	0.6	0.203	0.000	D	F	1983.3	0.025	0.197	-0.005	1504.449	843.044	0.025	-	0.033	0.390	-	-	-	12	11.335	190.469	-	PAVEMENT_GENERAL	Urban	F	1011101000011101	0000000000000000	-	-	-	-	-	-	-	-	-	-	Terminate	
"Student10Mode1"	"Seema_Shokoufeh_Track2"	"Nov 30, 2016 08:52:18 AM"	Unknown	34.98403	10/30/0116 08:52.57	00002099	17.358	Inter612t1-0	0.860	1	2	0.000	11.111	-1.0	0.279	0.000	D	F	2117.2	359.932	0.198	0.009	1504.453	860.106	0.024	-	-0.062	0.610	-	-	-	12	11.278	195.761	-	PAVEMENT_GENERAL	Urban	F	1011101000011101	0000000000000000	-	-	-	-	-	-	-	-	-	-	Terminate	
"Student10Mode1"	"Seema_Shokoufeh_Track2"	"Nov 30, 2016 08:52:18 AM"	Unknown	35.98405	10/30/0116 08:52.58	00002159	17.941	Inter612t1-0	0.843	1	2	0.000	11.111	0.4	0.224	0.000	D	F	2093.6	0.063	0.194	-0.009	1504.436	877.762	0.024	-	0.066	0.478	-	-	-	12	11.173	200.458	-	PAVEMENT_GENERAL	Urban	F	1011101000011101	0000000000000000	-	-	-	-	-	-	-	-	-	-	Terminate	
"Student10Mode1"	"Seema_Shokoufeh_Track2"	"Nov 30, 2016 08:52:18 AM"	Unknown	36.98407	10/30/0116 08:52.59	00002219	18.314	Inter612t1-0	0.865	1	2	0.000	11.111	-1.1	0.250	0.000	D	F	2142.5	0.027	0.195	0.009	1504.458	895.874	0.024	-	-0.061	0.489	-	-	-	12	11.177	204.700	-	PAVEMENT_GENERAL	Urban	F	1011101000011101	0000000000000000	-	-	-	-	-	-	-	-	-	-	Terminate	
"Student10Mode1"	"Seema_Shokoufeh_Track2"	"Nov 30, 2016 08:52:18 AM"	Unknown	37.98409	10/30/0116 08:53.00	00002279	18.806	Inter612t1-0	0.849	1	2	0.000	11.111	-0.1	0.263	0.000	D	F	2190.3	359.886	0.194	0.002	1504.442	914.430	0.024	-	-0.018	0.501	-	-	-	12	11.087	208.497	-	PAVEMENT_GENERAL	Urban	F	1011101000011101	0000000000000000	-	-	-	-	-	-	-	-	-	-	Terminate	
"Student10Mode1"	"Seema_Shokoufeh_Track2"	"Nov 30, 2016 08:52:18 AM"	Unknown	38.98411	10/30/0116 08:53.01	00002339	19.296	Inter612t1-0	0.812	1	2	0.000	11.111	0.2	0.250	0.000	D	F	2218.3	359.903	0.193	-0.002	1504.405	933.483	0.024	-	0.015	0.469	-	-	-	12	10.976	211.798	-	PAVEMENT_GENERAL	Urban	F	1011101000011101	0000000000000000	-	-	-	-	-	-	-	-	-	-	Terminate	
"Student10Mode1"	"Seema_Shokoufeh_Track2"	"Nov 30, 2016 08:52:18 AM"	Unknown	39.98413	10/30/0116 08:53.02	00002399	19.270	Inter612t1-0	0.777	1	2	0.000	11.111	-0.7	0.067	0.000	D	F	1504.0	359.841	0.185	0.007	1504.370	952.833	0.028	-	-0.049	-0.278	-	-	-	12	11.147	214.801	-	PAVEMENT_GENERAL	Urban	F	1011101000011101	0000000000000000	-	-	-	-	-	-	-	-	-	-	Terminate	
"Student10Mode1"	"Seema_Shokoufeh_Track2"	"Nov 30, 2016 08:52:18 AM"	Unknown	40.98415	10/30/0116 08:53.03	00002459	18.827	Inter612t1-0	0.715	1	2	0.000	11.111	-0.1	0.025	0.000	D	F	1295.2	359.807	0.185	-0.001	1504.308	971.901	0.029	-	0.005	-0.485	-	-	-	12	11.584	218.087	-	PAVEMENT_GENERAL	Urban	F	1011101000011101	0000000000000000	-	-	-	-	-	-	-	-	-	-	Terminate	
"Student10Mode1"	"Seema_Shokoufeh_Track2"	"Nov 30, 2016 08:52:18 AM"	Unknown	41.98417	10/30/0116 08:53.04	00002519	18.516	Inter612t1-0	0.650	1	2	0.000	11.111	0.3	0.101	0.000	D	F	1504.9	359.799	0.187	-0.001	1504.243	990.542	0.028	-	0.008	-0.220	-	-	-	12	11.979	221.799	-	PAVEMENT_GENERAL	Urban	F	1011101000011101	0000000000000000	-	-	-	-	-	-	-	-	-	-	Terminate	
"Student10Mode1"	"Seema_Shokoufeh_Track2"	"Nov 30, 2016 08:52:18 AM"	Unknown	42.98419	10/30/0116 08:53.05	00002579	18.597	Inter613t1-0	0.591	1	2	0.000	11.111	-0.4	0.180	0.000	D	F	1739.0	359.821	0.190	0.003	1504.184	1009.070	0.026	-	-0.017	0.141	-	-	-	12	12.132	225.624	-	PAVEMENT_GENERAL	Urban	F	1011101000011101	0000000000000000	-	-	-	-	-	-	-	-	-	-	Terminate	
"Student10Mode1"	"Seema_Shokoufeh_Track2"	"Nov 30, 2016 08:52:18 AM"	Unknown	43.98421	10/30/0116 08:53.06	00002639	18.457	Inter613t1-0	0.524	1	2	0.000	11.111	-0.6	0.049	0.000	D	F	1378.1	359.748	0.185	0.005	1504.117	1027.644	0.028	-	-0.035	-0.351	-	-	-	12	12.429	229.404	-	PAVEMENT_GENERAL	Urban	F	1011101000011101	0000000000000000	-	-	-	-	-	-	-	-	-	-	Terminate	
"Student10Mode1"	"Seema_Shokoufeh_Track2"	"Nov 30, 2016 08:52:18 AM"	Unknown	44.98423	10/30/0116 08:53.07	00002699	17.998	Inter613t1-0	0.416	1	2	0.000	11.111	-1.3	0.012	0.000	D	F	1228.5	359.512	0.184	0.013	1504.010	1045.885	0.029	-	-0.095	-0.523	-	-	-	12	12.975	233.516	-	PAVEMENT_GENERAL	Urban	F	1011101000011101	0000000000000000	-	-	-	-	-	-	-	-	-	-	Terminate	
"Student10Mode1"	"Seema_Shokoufeh_Track2"	"Nov 30, 2016 08:52:18 AM"	Unknown	45.98425	10/30/0116 08:53.08	00002759	17.508	Inter613t1-0	0.218	1	2	0.000	11.111	-1.8	0.035	0.000	D	F	1278.2	359.124	0.185	0.018	1503.811	1063.635	0.029	-	-0.129	-0.419	-	-	-	12	13.600	238.121	-	PAVEMENT_GENERAL	Urban	F	1011101000011101	0000000000000000	-	-	-	-	-	-	-	-	-	-	Terminate	
"Student10Mode1"	"Seema_Shokoufeh_Track2"	"Nov 30, 2016 08:52:18 AM"	Unknown	46.98427	10/30/0116 08:53.09	00002819	16.327	Inter613t1-0	-0.097	1	2	0.000	11.111	-2.0	0.030	0.146	D	F	1189.5	358.668	0.148	0.019	1503.496	1080.754	0.032	-	-0.141	-2.217	-	-	-	12	14.905	243.355	-	PAVEMENT_GENERAL	Urban	F	1011101000011101	0000000000000000	-	-	-	-	-	-	-	-	-	-	Terminate	
"Student10Mode1"	"Seema_Shokoufeh_Track2"	"Nov 30, 2016 08:52:18 AM"	Unknown	47.98429	10/30/0116 08:53.10	00002879	14.539	Inter613t1-0	-0.500	1	2	0.000	11.111	-0.5	0.034	0.075	D	F	1111.7	358.260	0.178	0.008	1503.093	1096.098	0.030	-	-0.068	-1.281	-	-	-	-	-	-	-	PAVEMENT_GENERAL	Urban	F	1011101000011101	0000000000000000	-	-	-	-	-	-	-	-	-	-	Terminate	
"Student10Mode1"	"Seema_Shokoufeh_Track2"	"Nov 30, 2016 08:52:18 AM"	Unknown	48.98431	10/30/0116 08:53.11	00002939	14.057	Inter613t1-0	-0.922	1	2	0.000	11.111	2.0	0.079	0.000	D	F	1290.2	358.401	0.195	-0.011	1502.672	1110.298	0.027	-	0.083	-0.158	-	-	-	-	-	-	-	PAVEMENT_GENERAL	Urban	F	1011101000011101	0000000000000000	-	-	-	-	-	-	-	-	-	-	Terminate	
"Student10Mode1"	"Seema_Shokoufeh_Track2"	"Nov 30, 2016 08:52:18 AM"	Unknown	49.98433	10/30/0116 08:53.12	00002999	14.129	Inter613t1-0	-1.269	1	2	0.000	11.111	1.5	0.125	0.000	D	F	1628.7	358.767	0.197	-0.010	1502.324	1124.371	0.026	-	0.074	0.128	-	-	-	-	-	-	-	PAVEMENT_GENERAL	Urban	F	1011101000011101	0000000000000000	-	-	-	-	-	-	-	-	-	-	Terminate	
"Student10Mode1"	"Seema_Shokoufeh_Track2"	"Nov 30, 2016 08:52:18 AM"	Unknown	50.98435	10/30/0116 08:53.13	00003059	14.256	Inter613t1-0	-1.547	1	2	0.000	11.111	-0.9	0.127	0.000	D	F	1659.9	358.919	0.197	0.005	1502.046	1138.562	0.026	-	-0.027	0.123	-	-	-	-	-	-	-	PAVEMENT_GENERAL	Urban	F	1011101000011101	0000000000000000	-	-	-	-	-	-	-	-	-	-	Terminate	
"Student10Mode1"	"Seema_Shokoufeh_Track2"	"Nov 30, 2016 08:52:18 AM"	Unknown	51.98437	10/30/0116 08:53.14	00003119	14.389	-	-	CL	0	-	-	2.7	0.129	0.000	D	F	1675.4	359.132	0.197	-0.017	1501.787	1152.883	0.026	-	0.121	0.132	-	-	-	-	-	-	-	PAVEMENT_GENERAL	Urban	F	1011101000011101	0000000000000000	-	-	-	-	-	-	-	-	-	-	Terminate	
"Student10Mode1"	"Seema_Shokoufeh_Track2"	"Nov 30, 2016 08:52:18 AM"	Unknown	52.98439	10/30/0116 08:53.15	00003179	14.528	-	-	CL	0	-	-	7.3	0.134	0.000	D	F	1695.7	359.847	0.197	-0.046	1501.639	1167.338	0.026	-	0.323	0.159	-	-	-	-	-	-	-	PAVEMENT_GENERAL	Urban	F	1011101000011101	0000000000000000	-	-	-	-	-	-	-	-	-	-	Terminate	
"Student10Mode1"	"Seema_Shokoufeh_Track2"	"Nov 30, 2016 08:52:18 AM"	Unknown	53.98441	10/30/0116 08:53.16	00003239	14.377	-	-	CL	0	-	-	-0.9	0.034	0.000	D	F	1442.5	0.798	0.188	0.002	1501.746	1181.840	0.028	-	0.018	-0.383	-	-	-	-	-	-	-	PAVEMENT_GENERAL	Urban	F	1011101000011101	0000000000000000	-	-	-	-	-	-	-	-	-	-	Terminate	
"Student10Mode1"	"Seema_Shokoufeh_Track2"	"Nov 30, 2016 08:52:18 AM"	Unknown	54.98443	10/30/0116 08:53.17	00003299	14.272	Inter613t1-0	-1.649	1	2	0.000	11.111	4.4	0.116	0.000	D	F	1642.3	0.988	0.194	-0.022	1501.944	1196.117	0.026	-	0.181	0.069	-	-	-	-	-	-	-	PAVEMENT_GENERAL	Urban	F	1011101000011101	0000000000000000	-	-	-	-	-	-	-	-	-	-	Terminate	
"Student10Mode1"	"Seema_Shokoufeh_Track2"	"Nov 30, 2016 08:52:18 AM"	Unknown	55.98445	10/30/0116 08:53.18	00003359	14.282	Inter746t1-0	-1.308	1	2	0.000	11.111	3.0	0.092	0.000	D	F	1589.6	1.678	0.196	-0.019	1502.286	1210.408	0.027	-	0.136	-0.044	-	-	-	-	-	-	-	PAVEMENT_GENERAL	Urban	F	1011101000011101	0000000000000000	-	-	-	-	-	-	-	-	-	-	Terminate	
"Student10Mode1"	"Seema_Shokoufeh_Track2"	"Nov 30, 2016 08:52:18 AM"	Unknown	56.98447	10/30/0116 08:53.19	00003419	14.215	Inter746t1-0	-0.852	1	2	0.000	11.111	-3.7	0.093	0.000	D	F	1580.4	1.829	0.195	0.017	1502.741	1224.659	0.027	-	-0.118	-0.094	-	-	-	-	-	-	-	PAVEMENT_GENERAL	Urban	F	1011101000011101	0000000000000000	-	-	-	-	-	-	-	-	-	-	Terminate	
"Student10Mode1"	"Seema_Shokoufeh_Track2"	"Nov 30, 2016 08:52:18 AM"	Unknown	57.98449	10/30/0116 08:53.20	00003479	14.606	Inter746t1-0	-0.472	1	2	0.000	11.111	1.9	0.199	0.000	D	F	1859.9	1.344	0.200	-0.009	1503.121	1239.024	0.024	-	0.038	0.492	-	-	-	-	-	-	-	PAVEMENT_GENERAL	Urban	F	1011101000011101	0000000000000000	-	-	-	-	-	-	-	-	-	-	Terminate	
"Student10Mode1"	"Seema_Shokoufeh_Track2"	"Nov 30, 2016 08:52:18 AM"	Unknown	58.98451	10/30/0116 08:53.21	00003539	15.134	Inter746t1-0	-0.086	1	2	0.000	11.111	-1.5	0.208	0.000	D	F	1910.6	1.582	0.200	0.005	1503.507	1253.886	0.024	-	-0.025	0.524	-	-	-	-	-	-	-	PAVEMENT_GENERAL	Urban	F	1011101000011101	0000000000000000	-	-	-	-	-	-	-	-	-	-	Terminate	
"Student10Mode1"	"Seema_Shokoufeh_Track2"	"Nov 30, 2016 08:52:18 AM"	Unknown	59.98453	10/30/0116 08:53.22	00003599	15.739	Inter746t1-0	0.255	1	2	0.000	11.111	-4.4	0.268	0.000	D	F	2019.6	0.814	0.201	0.032	1503.848	1269.302	0.023	-	-0.244	0.675	-	-	-	-	-	-	-	PAVEMENT_GENERAL	Urban	F	1011101000011101	0000000000000000	-	-	-	-	-	-	-	-	-	-	Terminate	
"Student10Mode1"	"Seema_Shokoufeh_Track2"	"Nov 30, 2016 08:52:18 AM"	Unknown	60.98455	10/30/0116 08:53.23	00003659	16.404	Inter746t1-0	0.382	1	2	0.000	11.111	-2.9	0.272	0.000	D	F	2056.9	0.057	0.199	0.023	1503.975	1285.375	0.024	-	-0.181	0.645	-	-	-	-	-	-	-	PAVEMENT_GENERAL	Urban	F	1011101000011101	0000000000000000	-	-	-	-	-	-	-	-	-	-	Terminate	
"Student10Mode1"	"Seema_Shokoufeh_Track2"	"Nov 30, 2016 08:52:18 AM"	Unknown	61.98457	10/30/0116 08:53.24	00003719	17.030	Inter746t1-0	0.337	1	2	0.000	11.111	-2.5	0.266	0.000	D	F	2085.9	359.682	0.198	0.013	1503.930	1302.095	0.024	-	-0.095	0.601	-	-	-	-	-	-	-	PAVEMENT_GENERAL	Urban	F	1011101000011101	0000000000000000	-	-	-	-	-	-	-	-	-	-	Terminate	
"Student10Mode1"	"Seema_Shokoufeh_Track2"	"Nov 30, 2016 08:52:18 AM"	Unknown	62.98459	10/30/0116 08:53.25	00003779	17.601	Inter746t1-0	0.166	1	2	0.000	11.111	-3.6	0.123	0.000	D	F	1900.4	359.101	0.193	0.028	1503.759	1319.419	0.024	-	-0.207	0.380	-	-	-	-	-	-	-	PAVEMENT_GENERAL	Urban	F	1011101000011101	0000000000000000	-	-	-	-	-	-	-	-	-	-	Terminate	
"Student10Mode1"	"Seema_Shokoufeh_Track2"	"Nov 30, 2016 08:52:18 AM"	Unknown	63.98461	10/30/0116 08:53.26	00003839	17.437	Inter746t1-0	-0.203	1	2	0.000	11.111	-3.0	0.058	0.000	D	F	1758.1	358.409	0.185	0.028	1503.391	1336.963	0.028	-	-0.208	-0.342	-	-	-	-	-	-	-	PAVEMENT_GENERAL	Urban	F	1011101000011101	0000000000000000	-	-	-	-	-	-	-	-	-	-	Terminate	
"Student10Mode1"	"Seema_Shokoufeh_Track2"	"Nov 30, 2016 08:52:18 AM"	Unknown	64.98463	10/30/0116 08:53.27	00003899	17.191	Inter746t1-0	-0.749	1	2	0.000	11.111	-0.4	0.056	0.000	D	F	1721.4	357.992	0.187	0.006	1502.844	1354.273	0.028	-	-0.054	-0.344	-	-	-	-	-	-	-	PAVEMENT_GENERAL	Urban	F	1011101000011101	0000000000000000	-	-	-	-	-	-	-	-	-	-	Terminate	
"Student10Mode1"	"Seema_Shokoufeh_Track2"	"Nov 30, 2016 08:52:18 AM"	Unknown	65.98465	10/30/0116 08:53.28	00003959	16.948	Inter746t1-0	-1.333	1	2	0.000	11.111	1.1	0.081	0.000	D	F	1786.8	358.126	0.189	-0.007	1502.260	1371.309	0.027	-	0.060	-0.168	-	-	-	-	-	-	-	PAVEMENT_GENERAL	Urban	F	1011101000011101	0000000000000000	-	-	-	-	-	-	-	-	-	-	Terminate	
"Student10Mode1"	"Seema_Shokoufeh_Track2"	"Nov 30, 2016 08:52:18 AM"	Unknown	66.98467	10/30/0116 08:53.29	00004019	16.722	-	-	CL	0	-	-	5.0	0.063	0.000	D	F	1727.2	358.822	0.189	-0.043	1501.773	1388.142	0.028	-	0.328	-0.258	-	-	-	-	-	-	-	PAVEMENT_GENERAL	Urban	F	1011101000011101	0000000000000000	-	-	-	-	-	-	-	-	-	-	Terminate	
"Student10Mode1"	"Seema_Shokoufeh_Track2"	"Nov 30, 2016 08:52:18 AM"	Unknown	67.98470	10/30/0116 08:53.30	00004079	16.426	-	-	CL	0	-	-	0.4	0.058	0.039	D	F	1693.9	359.001	0.188	0.001	1501.479	1404.719	0.028	-	-0.006	-0.489	-	-	-	-	-	-	-	PAVEMENT_GENERAL	Urban	F	1011101000011101	0000000000000000	-	-	-	-	-	-	-	-	-	-	Terminate	
"Student10Mode1"	"Seema_Shokoufeh_Track2"	"Nov 30, 2016 08:52:18 AM"	Unknown	68.98471	10/30/0116 08:53.31	00004139	14.677	-	-	SH-	1	-	-	0.9	0.056	0.128	D	F	1536.7	359.149	0.165	-0.007	1501.222	1420.316	0.031	-	0.051	-1.795	-	-	-	-	-	-	-	PAVEMENT_GENERAL	Urban	F	1011101000011101	0000000000000000	-	-	-	-	-	-	-	-	-	-	Terminate	
"Student10Mode1"	"Seema_Shokoufeh_Track2"	"Nov 30, 2016 08:52:18 AM"	Unknown	69.98473	10/30/0116 08:53.32	00004199	12.818	Inter749t31-0	-1.593	1	1	354.338	11.111	1.0	0.058	0.176	D	F	1382.1	359.365	0.152	-0.007	1501.039	1434.100	0.031	-	0.052	-2.300	-	-	-	12	9.946	127.479	-	PAVEMENT_GENERAL	Urban	F	1011101000011101	0000000000000000	-	-	-	-	-	-	-	-	-	-	Terminate	
"Student10Mode1"	"Seema_Shokoufeh_Track2"	"Nov 30, 2016 08:52:18 AM"	Unknown	70.98476	10/30/0116 08:53.33	00004259	9.866	Inter749t31-0	-0.546	1	1	356.127	11.111	1.2	0.058	0.293	D	F	1199.6	359.601	0.142	-0.006	1500.933	1445.610	0.036	-	0.043	-3.617	-	-	-	-	-	-	-	PAVEMENT_GENERAL	Urban	F	1011101000011101	0000000000000000	-	-	-	-	-	-	-	-	-	-	Terminate	
"Student10Mode1"	"Seema_Shokoufeh_Track2"	"Nov 30, 2016 08:52:18 AM"	Unknown	71.98477	10/30/0116 08:53.34	00004319	6.912	Inter749t31-0	0.088	1	1	356.903	11.111	0.7	0.067	0.149	D	F	1142.3	359.782	0.178	-0.001	1500.890	1453.857	0.031	-	0.012	-1.804	-	-	-	-	-	-	-	PAVEMENT_GENERAL	Urban	F	1011101000011101	0000000000000000	-	-	-	-	-	-	-	-	-	-	Terminate	
"Student10Mode1"	"Seema_Shokoufeh_Track2"	"Nov 30, 2016 08:52:18 AM"	Unknown	72.98479	10/30/0116 08:53.35	00004379	6.914	Inter749t31-0	0.434	1	1	356.903	11.111	-0.6	0.153	0.000	D	F	1434.2	359.903	0.211	0.001	1500.874	1460.568	0.023	-	-0.012	0.691	-	-	-	-	-	-	-	PAVEMENT_GENERAL	Urban	F	1011101000011101	0000000000000000	-	-	-	-	-	-	-	-	-	-	Terminate	
"Student10Mode1"	"Seema_Shokoufeh_Track2"	"Nov 30, 2016 08:52:18 AM"	Unknown	73.98481	10/30/0116 08:53.36	00004439	8.164	Inter749t11-0	0.766	LT1	2	0.000	11.111	-10.6	0.233	0.000	D	F	1842.2	359.337	0.218	0.032	1500.829	1468.044	0.019	-	-0.226	1.525	-	-	-	-	-	-	-	PAVEMENT_GENERAL	Urban	F	1011101000011101	0000000000000000	-	-	-	-	-	-	-	-	-	-	Terminate	
"Student10Mode1"	"Seema_Shokoufeh_Track2"	"Nov 30, 2016 08:52:18 AM"	Unknown	74.98483	10/30/0116 08:53.37	00004499	9.527	Inter749t11-0	0.498	LT1	2	0.000	11.111	-23.4	0.067	0.000	D	F	1585.4	357.449	0.194	0.077	1500.560	1476.931	0.021	-	-0.590	0.615	-	-	-	-	-	-	-	PAVEMENT_GENERAL	Urban	F	1011101000011101	0000000000000000	-	-	-	-	-	-	-	-	-	-	Terminate	
"Student10Mode1"	"Seema_Shokoufeh_Track2"	"Nov 30, 2016 08:52:18 AM"	Unknown	75.98486	10/30/0116 08:53.38	00004559	9.406	Inter749t65-0	-0.308	1	1	344.506	11.111	-135.1	0.062	0.000	D	F	1220.5	343.883	0.179	0.495	1499.136	1486.274	0.029	-	-3.730	-0.247	-	-	-	-	-	-	-	PAVEMENT_GENERAL	Urban	F	1011101000011101	0000000000000000	-	-	-	-	-	-	-	-	-	-	Terminate	
"Student10Mode1"	"Seema_Shokoufeh_Track2"	"Nov 30, 2016 08:52:18 AM"	Unknown	76.98487	10/30/0116 08:53.39	00004619	9.321	Inter749t65-0	-1.049	1	1	323.737	11.111	-142.9	0.102	0.000	D	F	1380.2	319.725	0.151	0.515	1494.517	1494.309	0.029	-	-3.979	0.021	-	-	-	-	-	-	-	PAVEMENT_GENERAL	Urban	F	1011101000011101	0000000000000000	-	-	-	-	-	-	-	-	-	-	Terminate	
"Student10Mode1"	"Seema_Shokoufeh_Track2"	"Nov 30, 2016 08:52:18 AM"	Unknown	77.98489	10/30/0116 08:53.40	00004679	9.638	-Inter749t57-0	0.869	-1	1	73.636	11.111	-94.2	0.150	0.000	D	F	1529.2	296.764	0.170	0.371	1486.923	1499.833	0.026	-	-2.918	0.444	-	-	-	-	-	-	-	PAVEMENT_GENERAL	Urban	F	1011101000011101	0000000000000000	-	-	-	-	-	-	-	-	-	-	Terminate	
"Student10Mode1"	"Seema_Shokoufeh_Track2"	"Nov 30, 2016 08:52:18 AM"	Unknown	78.98492	10/30/0116 08:53.41	00004739	10.127	Inter749t3-3	-0.702	1	2	270.000	11.111	-77.0	0.169	0.000	D	F	1597.6	281.279	0.190	0.308	1477.539	1502.829	0.025	-	-2.471	0.537	-	-	-	-	-	-	-	PAVEMENT_GENERAL	Urban	F	1011101000011101	0000000000000000	-	-	-	-	-	-	-	-	-	-	Terminate	
"Student10Mode1"	"Seema_Shokoufeh_Track2"	"Nov 30, 2016 08:52:18 AM"	Unknown	79.98493	10/30/0116 08:53.42	00004799	10.962	Inter749t19-0	0.060	1	1	270.062	11.111	-29.3	0.224	0.000	D	F	1779.1	269.479	0.199	0.132	1467.071	1503.591	0.022	-	-1.206	0.926	-	-	-	-	-	-	-	PAVEMENT_GENERAL	Urban	F	1011101000011101	0000000000000000	-	-	-	-	-	-	-	-	-	-	Terminate	
"Student10Mode1"	"Seema_Shokoufeh_Track2"	"Nov 30, 2016 08:52:18 AM"	Unknown	80.98495	10/30/0116 08:53.43	00004859	11.834	Inter749t19-0	-0.108	1	1	270.097	11.111	22.2	0.217	0.000	D	F	1788.4	270.775	0.204	-0.104	1455.665	1503.435	0.023	-	0.886	0.800	-	-	-	-	-	-	-	PAVEMENT_GENERAL	Urban	F	1011101000011101	0000000000000000	-	-	-	-	-	-	-	-	-	-	Terminate	
"Student10Mode1"	"Seema_Shokoufeh_Track2"	"Nov 30, 2016 08:52:18 AM"	Unknown	81.98497	10/30/0116 08:53.44	00004919	12.665	Inter749t19-0	0.321	1	1	270.091	11.111	-3.3	0.245	0.000	D	F	1852.8	272.544	0.205	0.011	1443.428	1503.883	0.022	-	-0.063	0.839	-	-	-	-	-	-	-	PAVEMENT_GENERAL	Urban	F	1011101000011101	0000000000000000	-	-	-	-	-	-	-	-	-	-	Terminate	
"Student10Mode1"	"Seema_Shokoufeh_Track2"	"Nov 30, 2016 08:52:18 AM"	Unknown	82.98499	10/30/0116 08:53.45	00004979	13.475	Inter749t19-0	0.748	1	1	270.061	11.111	-4.8	0.233	0.000	D	F	1884.9	271.290	0.204	0.032	1430.362	1504.333	0.023	-	-0.264	0.780	-	-	-	-	-	-	-	PAVEMENT_GENERAL	Urban	F	1011101000011101	0000000000000000	-	-	-	-	-	-	-	-	-	-	Terminate	
"Student10Mode1"	"Seema_Shokoufeh_Track2"	"Nov 30, 2016 08:52:18 AM"	Unknown	83.98502	10/30/0116 08:53.46	00005039	14.180	Inter749t1-2	0.961	1	2	270.000	11.111	-1.4	0.220	0.000	D	F	1900.0	270.749	0.201	0.010	1416.527	1504.561	0.023	-	-0.060	0.653	-	-	-	-	-	-	-	PAVEMENT_GENERAL	Urban	F	1011101000011101	0000000000000000	-	-	-	-	-	-	-	-	-	-	Terminate	
"Student10Mode1"	"Seema_Shokoufeh_Track2"	"Nov 30, 2016 08:52:18 AM"	Unknown	84.98503	10/30/0116 08:53.47	00005099	14.868	Inter749t1-2	1.103	1	2	270.000	11.111	-3.3	0.243	0.000	D	F	1958.0	270.264	0.202	0.022	1402.004	1504.703	0.023	-	-0.170	0.682	-	-	-	-	-	-	-	PAVEMENT_GENERAL	Urban	F	1011101000011101	0000000000000000	-	-	-	-	-	-	-	-	-	-	Terminate	
"Student10Mode1"	"Seema_Shokoufeh_Track2"	"Nov 30, 2016 08:52:18 AM"	Unknown	85.98505	10/30/0116 08:53.48	00005159	15.535	Inter747t1-2	1.105	1	2	270.000	11.111	-0.1	0.247	0.000	D	F	1990.0	269.866	0.200	0.004	1386.799	1504.712	0.023	-	-0.038	0.642	-	-	-	Ambient237	15.493	240.679	46.699	PAVEMENT_GENERAL	Urban	F	1011101000011101	0000000000000000	-	-	-	-	-	-	-	-	-	-	Terminate	
"Student10Mode1"	"Seema_Shokoufeh_Track2"	"Nov 30, 2016 08:52:18 AM"	Unknown	86.98507	10/30/0116 08:53.49	00005219	16.148	Inter747t1-2	1.058	1	2	270.000	11.111	-1.6	0.240	0.000	D	F	2014.0	269.681	0.199	0.014	1370.953	1504.665	0.024	-	-0.104	0.588	-	-	-	Ambient237	14.566	235.209	40.788	PAVEMENT_GENERAL	Urban	F	1011101000011101	0000000000000000	-	-	-	-	-	-	-	-	-	-	Terminate	
"Student10Mode1"	"Seema_Shokoufeh_Track2"	"Nov 30, 2016 08:52:18 AM"	Unknown	87.98509	10/30/0116 08:53.50	00005279	16.716	Inter747t1-2	0.947	1	2	270.000	11.111	0.1	0.238	0.000	D	F	2041.8	269.598	0.198	-0.002	1354.518	1504.554	0.024	-	0.008	0.551	-	-	-	-	-	-	-	PAVEMENT_GENERAL	Urban	F	1011101000011101	0000000000000000	-	-	-	-	-	-	-	-	-	-	Terminate	
"Student10Mode1"	"Seema_Shokoufeh_Track2"	"Nov 30, 2016 08:52:18 AM"	Unknown	88.98512	10/30/0116 08:53.51	00005339	17.251	Inter747t1-2	0.846	1	2	270.000	11.111	-0.2	0.242	0.000	D	F	2070.2	269.779	0.197	-0.004	1337.532	1504.453	0.024	-	0.032	0.523	-	-	-	-	-	-	-	PAVEMENT_GENERAL	Urban	F	1011101000011101	0000000000000000	-	-	-	-	-	-	-	-	-	-	Terminate	
"Student10Mode1"	"Seema_Shokoufeh_Track2"	"Nov 30, 2016 08:52:18 AM"	Unknown	89.98513	10/30/0116 08:53.52	00005399	17.776	Inter747t1-2	0.760	1	2	270.000	11.111	-0.4	0.272	0.000	D	F	2129.1	269.642	0.197	0.004	1320.022	1504.367	0.024	-	-0.033	0.565	-	-	-	-	-	-	-	PAVEMENT_GENERAL	Urban	F	1011101000011101	0000000000000000	-	-	-	-	-	-	-	-	-	-	Terminate	
"Student10Mode1"	"Seema_Shokoufeh_Track2"	"Nov 30, 2016 08:52:18 AM"	Unknown	90.98515	10/30/0116 08:53.53	00005459	18.128	Inter747t1-2	0.628	1	2	270.000	11.111	-0.0	0.131	0.000	D	F	1963.7	269.482	0.187	0.003	1302.016	1504.235	0.026	-	-0.030	0.013	-	-	-	-	-	-	-	PAVEMENT_GENERAL	Urban	F	1011101000011101	0000000000000000	-	-	-	-	-	-	-	-	-	-	Terminate	
"Student10Mode1"	"Seema_Shokoufeh_Track2"	"Nov 30, 2016 08:52:18 AM"	Unknown	91.98518	10/30/0116 08:53.54	00005519	17.955	Inter747t1-2	0.481	1	2	270.000	11.111	0.9	0.060	0.000	D	F	1806.8	269.631	0.186	-0.008	1283.950	1504.088	0.028	-	0.061	-0.307	-	-	-	-	-	-	-	PAVEMENT_GENERAL	Urban	F	1011101000011101	0000000000000000	-	-	-	-	-	-	-	-	-	-	Terminate	
"Student10Mode1"	"Seema_Shokoufeh_Track2"	"Nov 30, 2016 08:52:18 AM"	Unknown	92.98519	10/30/0116 08:53.55	00005579	17.644	Inter747t1-2	0.386	1	2	270.000	11.111	0.5	0.067	0.000	D	F	1795.5	269.767	0.188	-0.004	1266.152	1503.993	0.028	-	0.034	-0.298	-	-	-	-	-	-	-	PAVEMENT_GENERAL	Urban	F	1011101000011101	0000000000000000	-	-	-	-	-	-	-	-	-	-	Terminate	
"Student10Mode1"	"Seema_Shokoufeh_Track2"	"Nov 30, 2016 08:52:18 AM"	Unknown	93.98521	10/30/0116 08:53.56	00005639	17.382	Inter747t1-2	0.329	1	2	270.000	11.111	-0.3	0.069	0.000	D	F	1786.6	269.868	0.189	-0.001	1248.641	1503.935	0.028	-	0.008	-0.272	-	-	-	-	-	-	-	PAVEMENT_GENERAL	Urban	F	1011101000011101	0000000000000000	-	-	-	-	-	-	-	-	-	-	Terminate	
"Student10Mode1"	"Seema_Shokoufeh_Track2"	"Nov 30, 2016 08:52:18 AM"	Unknown	94.98523	10/30/0116 08:53.57	00005699	17.195	Inter747t1-2	0.271	1	2	270.000	11.111	-0.8	0.153	0.000	D	F	1909.4	269.717	0.202	0.007	1231.380	1503.878	0.027	-	-0.052	0.184	-	-	-	-	-	-	-	PAVEMENT_GENERAL	Urban	F	1011101000011101	0000000000000000	-	-	-	-	-	-	-	-	-	-	Terminate	
"Student10Mode1"	"Seema_Shokoufeh_Track2"	"Nov 30, 2016 08:52:18 AM"	Unknown	95.98525	10/30/0116 08:53.58	00005759	17.310	Inter747t1-2	0.199	1	2	270.000	11.111	2.6	0.159	0.000	D	F	1930.2	269.974	0.193	-0.021	1214.132	1503.806	0.026	-	0.162	0.141	-	-	-	-	-	-	-	PAVEMENT_GENERAL	Urban	F	1011101000011101	0000000000000000	-	-	-	-	-	-	-	-	-	-	Terminate	
"Student10Mode1"	"Seema_Shokoufeh_Track2"	"Nov 30, 2016 08:52:18 AM"	Unknown	96.98528	10/30/0116 08:53.59	00005819	17.414	Inter748t1-2	0.237	1	2	270.000	11.111	-0.2	0.118	0.000	D	F	1886.6	270.219	0.189	-0.000	1196.759	1503.844	0.026	-	0.006	-0.003	-	-	-	-	-	-	-	PAVEMENT_GENERAL	Urban	F	1011101000011101	0000000000000000	-	-	-	-	-	-	-	-	-	-	Terminate	
"Student10Mode1"	"Seema_Shokoufeh_Track2"	"Nov 30, 2016 08:52:18 AM"	Unknown	97.98529	10/30/0116 08:54.00	00005879	17.469	Inter748t1-2	0.295	1	2	270.000	11.111	0.9	0.169	0.000	D	F	1970.2	270.220	0.193	-0.006	1179.349	1503.902	0.026	-	0.050	0.202	-	-	-	-	-	-	-	PAVEMENT_GENERAL	Urban	F	1011101000011101	0000000000000000	-	-	-	-	-	-	-	-	-	-	Terminate	
"Student10Mode1"	"Seema_Shokoufeh_Track2"	"Nov 30, 2016 08:52:18 AM"	Unknown	98.98531	10/30/0116 08:54.01	00005939	17.699	Inter748t1-2	0.381	1	2	270.000	11.111	-0.7	0.169	0.000	D	F	1980.7	270.297	0.193	0.004	1161.766	1503.987	0.026	-	-0.024	0.206	-	-	-	-	-	-	-	PAVEMENT_GENERAL	Urban	F	1011101000011101	0000000000000000	-	-	-	-	-	-	-	-	-	-	Terminate	
"Student10Mode1"	"Seema_Shokoufeh_Track2"	"Nov 30, 2016 08:52:18 AM"	Unknown	99.98534	10/30/0116 08:54.02	00005999	17.815	Inter748t1-2	0.447	1	2	270.000	11.111	0.4	0.194	0.000	D	F	2040.5	270.155	0.195	-0.002	1144.020	1504.054	0.026	-	0.005	0.270	-	-	-	-	-	-	-	PAVEMENT_GENERAL	Urban	F	1011101000011101	0000000000000000	-	-	-	-	-	-	-	-	-	-	Terminate	
"Student10Mode1"	"Seema_Shokoufeh_Track2"	"Nov 30, 2016 08:52:18 AM"	Unknown	100.98535	10/30/0116 08:54.03	00006059	18.198	Inter748t1-2	0.511	1	2	270.000	11.111	-0.6	0.222	0.000	D	F	2112.9	270.252	0.194	0.002	1126.028	1504.118	0.025	-	-0.004	0.425	-	-	-	-	-	-	-	PAVEMENT_GENERAL	Urban	F	1011101000011101	0000000000000000	-	-	-	-	-	-	-	-	-	-	Terminate	
"Student10Mode1"	"Seema_Shokoufeh_Track2"	"Nov 30, 2016 08:52:18 AM"	Unknown	101.98537	10/30/0116 08:54.04	00006119	18.285	Inter748t1-2	0.568	1	2	270.000	11.111	0.6	0.101	0.000	D	F	1929.7	270.118	0.188	-0.002	1107.729	1504.175	0.027	-	0.009	-0.138	-	-	-	-	-	-	-	PAVEMENT_GENERAL	Urban	F	1011101000011101	0000000000000000	-	-	-	-	-	-	-	-	-	-	Terminate	
"Student10Mode1"	"Seema_Shokoufeh_Track2"	"Nov 30, 2016 08:52:18 AM"	Unknown	102.98539	10/30/0116 08:54.05	00006179	18.115	Inter748t1-2	0.641	1	2	270.000	11.111	0.9	0.086	0.000	D	F	1884.9	270.380	0.188	-0.010	1089.526	1504.247	0.028	-	0.074	-0.210	-	-	-	-	-	-	-	PAVEMENT_GENERAL	Urban	F	1011101000011101	0000000000000000	-	-	-	-	-	-	-	-	-	-	Terminate	
"Student10Mode1"	"Seema_Shokoufeh_Track2"	"Nov 30, 2016 08:52:18 AM"	Unknown	103.98541	10/30/0116 08:54.06	00006239	17.860	Inter748t1-2	0.770	1	2	270.000	11.111	-1.5	0.065	0.000	D	F	1810.6	270.285	0.188	0.018	1071.531	1504.376	0.028	-	-0.126	-0.284	-	-	-	-	-	-	-	PAVEMENT_GENERAL	Urban	F	1011101000011101	0000000000000000	-	-	-	-	-	-	-	-	-	-	Terminate	
"Student10Mode1"	"Seema_Shokoufeh_Track2"	"Nov 30, 2016 08:52:18 AM"	Unknown	104.98544	10/30/0116 08:54.07	00006299	17.568	Inter748t1-2	0.798	1	2	270.000	11.111	-2.1	0.067	0.000	D	F	1792.1	269.817	0.188	0.017	1053.819	1504.405	0.028	-	-0.141	-0.288	-	-	-	-	-	-	-	PAVEMENT_GENERAL	Urban	F	1011101000011101	0000000000000000	-	-	-	-	-	-	-	-	-	-	Terminate	
"Student10Mode1"	"Seema_Shokoufeh_Track2"	"Nov 30, 2016 08:52:18 AM"	Unknown	105.98545	10/30/0116 08:54.08	00006359	17.336	Inter748t1-2	0.764	1	2	270.000	11.111	4.4	0.062	0.000	D	F	1771.8	270.296	0.188	-0.042	1036.367	1504.370	0.028	-	0.313	-0.270	-	-	-	-	-	-	-	PAVEMENT_GENERAL	Urban	F	1011101000011101	0000000000000000	-	-	-	-	-	-	-	-	-	-	Terminate	
"Student10Mode1"	"Seema_Shokoufeh_Track2"	"Nov 30, 2016 08:52:18 AM"	Unknown	106.98547	10/30/0116 08:54.09	00006419	17.064	Inter748t1-2	0.950	1	2	270.000	11.111	-5.4	0.085	0.000	D	F	1804.3	270.739	0.191	0.029	1019.174	1504.557	0.028	-	-0.188	-0.187	-	-	-	-	-	-	-	PAVEMENT_GENERAL	Urban	F	1011101000011101	0000000000000000	-	-	-	-	-	-	-	-	-	-	Terminate	
"Student10Mode1"	"Seema_Shokoufeh_Track2"	"Nov 30, 2016 08:52:18 AM"	Unknown	107.98550	10/30/0116 08:54.10	00006479	16.874	Inter748t1-2	1.085	1	2	270.000	11.111	2.1	0.072	0.000	D	F	1759.8	270.498	0.189	-0.018	1002.203	1504.692	0.027	-	0.129	-0.223	-	-	-	-	-	-	-	PAVEMENT_GENERAL	Urban	F	1011101000011101	0000000000000000	-	-	-	-	-	-	-	-	-	-	Terminate	
"Student10Mode1"	"Seema_Shokoufeh_Track2"	"Nov 30, 2016 08:52:18 AM"	Unknown	108.98551	10/30/0116 08:54.11	00006539	16.652	Inter752t1-2	0.557	1	2	269.895	24.444	-4.7	0.065	0.000	D	F	1729.5	270.323	0.044	-0.290	985.451	1504.846	0.051	-	-0.269	-0.253	-	-	-	-	-	-	-	FREEWAY_SMOOTH	Urban	F	1011101000011101	0000000000000000	-	-	-	-	-	-	-	-	-	-	Terminate	
"Student10Mode1"	"Seema_Shokoufeh_Track2"	"Nov 30, 2016 08:52:18 AM"	Unknown	109.98553	10/30/0116 08:54.12	00006599	16.508	Inter752t1-2	0.596	1	2	269.236	24.444	2.8	0.111	0.000	D	F	1800.2	269.125	0.310	-0.735	968.892	1504.760	0.086	-	-0.096	0.014	-	-	-	-	-	-	-	FREEWAY_SMOOTH	Urban	F	1011101000011101	0000000000000000	-	-	-	-	-	-	-	-	-	-	Terminate	
"Student10Mode1"	"Seema_Shokoufeh_Track2"	"Nov 30, 2016 08:52:18 AM"	Unknown	110.98555	10/30/0116 08:54.13	00006659	16.574	Inter752t1-2	0.760	1	2	268.129	24.444	-1.4	0.132	0.000	D	F	1835.2	269.496	0.342	-1.136	952.361	1504.547	0.124	-	-0.051	0.113	-	-	-	-	-	-	-	FREEWAY_SMOOTH	Urban	F	1011101000011101	0000000000000000	-	-	-	-	-	-	-	-	-	-	Terminate	
"Student10Mode1"	"Seema_Shokoufeh_Track2"	"Nov 30, 2016 08:52:18 AM"	Unknown	111.98557	10/30/0116 08:54.14	00006719	16.581	Inter752t1-2	1.172	1	2	266.533	24.444	-8.9	0.125	0.000	D	F	1821.8	267.674	0.354	-1.462	935.778	1504.183	0.171	-	-0.718	0.060	-	-	-	-	-	-	-	FREEWAY_SMOOTH	Urban	F	1011101000011101	0000000000000000	-	-	-	-	-	-	-	-	-	-	Terminate	
"Student10Mode1"	"Seema_Shokoufeh_Track2"	"Nov 30, 2016 08:52:18 AM"	Unknown	112.98560	10/30/0116 08:54.15	00006779	16.616	Inter752t1-2	1.525	1	2	264.442	24.444	-15.4	0.079	0.000	D	F	1759.0	265.454	0.369	-1.832	919.184	1503.219	0.222	-	-1.014	-0.128	-	-	-	-	-	-	-	FREEWAY_SMOOTH	Urban	F	1011101000011101	0000000000000000	-	-	-	-	-	-	-	-	-	-	Terminate	
"Student10Mode1"	"Seema_Shokoufeh_Track2"	"Nov 30, 2016 08:52:18 AM"	Unknown	113.98561	10/30/0116 08:54.16	00006839	16.567	Inter752t1-2	1.582	1	2	261.877	24.444	-14.8	0.074	0.000	D	F	1735.9	260.996	0.287	-2.216	902.709	1501.286	0.265	-	-1.274	-0.122	-	-	-	-	-	-	-	FREEWAY_SMOOTH	Urban	F	1011101000011101	0000000000000000	-	-	-	-	-	-	-	-	-	-	Terminate	
"Student10Mode1"	"Seema_Shokoufeh_Track2"	"Nov 30, 2016 08:52:18 AM"	Unknown	114.98563	10/30/0116 08:54.17	00006899	16.471	Inter752t1-2	1.314	1	2	258.870	24.444	-2.1	0.099	0.000	D	F	1780.6	258.172	0.297	-2.729	886.490	1498.244	0.293	-	-0.494	-0.012	-	-	-	-	-	-	-	FREEWAY_SMOOTH	Urban	F	1011101000011101	0000000000000000	-	-	-	-	-	-	-	-	-	-	Terminate	
"Student10Mode1"	"Seema_Shokoufeh_Track2"	"Nov 30, 2016 08:52:18 AM"	Unknown	115.98566	10/30/0116 08:54.18	00006959	16.275	Inter752t1-2	1.415	1	2	255.386	24.444	-5.4	0.060	0.000	D	F	1686.4	256.816	0.404	-3.115	870.494	1494.667	0.338	-	-0.507	-0.232	-	-	-	-	-	-	-	FREEWAY_SMOOTH	Urban	F	1011101000011101	0000000000000000	-	-	-	-	-	-	-	-	-	-	Terminate	
"Student10Mode1"	"Seema_Shokoufeh_Track2"	"Nov 30, 2016 08:52:18 AM"	Unknown	116.98567	10/30/0116 08:54.19	00007019	16.102	Inter752t1-3	-1.545	2	2	251.576	24.444	-20.9	0.058	0.000	D	F	1654.6	254.649	0.374	-3.371	854.816	1490.651	0.411	-	-1.092	-0.306	-	-	-	-	-	-	-	FREEWAY_SMOOTH	Urban	F	1011101000011101	0000000000000000	-	-	-	-	-	-	-	-	-	-	Terminate	
"Student10Mode1"	"Seema_Shokoufeh_Track2"	"Nov 30, 2016 08:52:18 AM"	Unknown	117.98569	10/30/0116 08:54.20	00007079	15.821	Inter752t1-3	-1.287	2	2	247.617	24.444	-33.6	0.097	0.000	D	F	1723.8	244.779	0.010	-3.133	839.810	1485.294	0.427	-	-2.876	-0.086	-	-	-	-	-	-	-	FREEWAY_SMOOTH	Urban	F	1011101000011101	0000000000000000	-	-	-	-	-	-	-	-	-	-	Terminate	
"Student10Mode1"	"Seema_Shokoufeh_Track2"	"Nov 30, 2016 08:52:18 AM"	Unknown	118.98571	10/30/0116 08:54.21	00007139	15.836	Inter752t1-2	1.340	1	2	243.684	24.444	-8.2	0.108	0.000	D	F	1738.3	240.426	0.011	-3.418	825.847	1477.860	0.366	-	-0.657	0.012	-	-	-	-	-	-	-	FREEWAY_SMOOTH	Urban	F	1011101000011101	0000000000000000	-	-	-	-	-	-	-	-	-	-	Terminate	
"Student10Mode1"	"Seema_Shokoufeh_Track2"	"Nov 30, 2016 08:52:18 AM"	Unknown	119.98573	10/30/0116 08:54.22	00007199	15.771	Inter752t1-2	0.658	1	2	239.789	24.444	-5.2	0.065	0.000	D	F	1652.4	238.275	0.107	-3.439	812.262	1469.731	0.326	-	-0.532	-0.230	-	-	-	-	-	-	-	FREEWAY_SMOOTH	Urban	F	1011101000011101	0000000000000000	-	-	-	-	-	-	-	-	-	-	Terminate	
"Student10Mode1"	"Seema_Shokoufeh_Track2"	"Nov 30, 2016 08:52:18 AM"	Unknown	120.98576	10/30/0116 08:54.23	00007259	15.506	Inter752t1-2	0.509	1	2	235.851	24.444	-5.4	0.058	0.000	D	F	1619.3	236.368	0.224	-3.444	799.118	1461.229	0.318	-	-0.511	-0.298	-	-	-	-	-	-	-	FREEWAY_SMOOTH	Urban	F	1011101000011101	0000000000000000	-	-	-	-	-	-	-	-	-	-	Terminate	
"Student10Mode1"	"Seema_Shokoufeh_Track2"	"Nov 30, 2016 08:52:18 AM"	Unknown	121.98577	10/30/0116 08:54.24	00007319	15.304	Inter752t1-2	0.838	1	2	232.041	24.444	-13.9	0.056	0.000	D	F	1598.3	233.804	0.306	-3.384	786.492	1452.391	0.337	-	-0.919	-0.282	-	-	-	-	-	-	-	FREEWAY_SMOOTH	Urban	F	1011101000011101	0000000000000000	-	-	-	-	-	-	-	-	-	-	Terminate	
"Student10Mode1"	"Seema_Shokoufeh_Track2"	"Nov 30, 2016 08:52:18 AM"	Unknown	122.98579	10/30/0116 08:54.25	00007379	15.026	Inter752t1-2	1.221	1	2	228.291	24.444	-23.6	0.053	0.000	D	F	1563.1	228.831	0.224	-3.295	774.635	1442.933	0.360	-	-1.616	-0.305	-	-	-	-	-	-	-	FREEWAY_SMOOTH	Urban	F	1011101000011101	0000000000000000	-	-	-	-	-	-	-	-	-	-	Terminate	
"Student10Mode1"	"Seema_Shokoufeh_Track2"	"Nov 30, 2016 08:52:18 AM"	Unknown	123.98581	10/30/0116 08:54.26	00007439	14.902	Inter752t1-2	1.122	1	2	224.554	24.444	-15.4	0.095	0.000	D	F	1636.8	223.376	0.129	-3.358	763.916	1432.528	0.354	-	-1.173	-0.045	-	-	-	-	-	-	-	FREEWAY_SMOOTH	Urban	F	1011101000011101	0000000000000000	-	-	-	-	-	-	-	-	-	-	Terminate	
"Student10Mode1"	"Seema_Shokoufeh_Track2"	"Nov 30, 2016 08:52:18 AM"	Unknown	124.98583	10/30/0116 08:54.27	00007499	14.790	Inter752t1-2	0.923	1	2	220.832	24.444	-7.9	0.058	0.000	D	F	1556.9	220.860	0.203	-3.436	754.014	1421.436	0.342	-	-0.574	-0.254	-	-	-	-	-	-	-	FREEWAY_SMOOTH	Urban	F	1011101000011101	0000000000000000	-	-	-	-	-	-	-	-	-	-	Terminate	
"Student10Mode1"	"Seema_Shokoufeh_Track2"	"Nov 30, 2016 08:52:18 AM"	Unknown	125.98586	10/30/0116 08:54.28	00007559	14.430	Inter752t1-2	1.032	1	2	217.174	24.444	-12.4	0.021	0.000	D	F	1420.4	218.007	0.248	-3.399	744.744	1410.103	0.350	-	-0.831	-0.441	-	-	-	-	-	-	-	FREEWAY_SMOOTH	Urban	F	1011101000011101	0000000000000000	-	-	-	-	-	-	-	-	-	-	Terminate	
"Student10Mode1"	"Seema_Shokoufeh_Track2"	"Nov 30, 2016 08:52:18 AM"	Unknown	126.98587	10/30/0116 08:54.29	00007619	14.195	Inter752t1-2	1.211	1	2	213.633	24.444	-16.0	0.088	0.000	D	F	1574.5	214.353	0.241	-3.385	736.358	1398.550	0.359	-	-0.956	-0.059	-	-	-	-	-	-	-	FREEWAY_SMOOTH	Urban	F	1011101000011101	0000000000000000	-	-	-	-	-	-	-	-	-	-	Terminate	
"Student10Mode1"	"Seema_Shokoufeh_Track2"	"Nov 30, 2016 08:52:18 AM"	Unknown	127.98589	10/30/0116 08:54.30	00007679	14.150	Inter752t1-2	1.272	1	2	210.115	24.444	-15.1	0.097	0.000	D	F	1584.1	210.084	0.198	-3.384	728.856	1386.531	0.363	-	-0.974	-0.031	-	-	-	-	-	-	-	FREEWAY_SMOOTH	Urban	F	1011101000011101	0000000000000000	-	-	-	-	-	-	-	-	-	-	Terminate	
"Student10Mode1"	"Seema_Shokoufeh_Track2"	"Nov 30, 2016 08:52:18 AM"	Unknown	128.98592	10/30/0116 08:54.31	00007739	14.110	Inter752t1-2	1.194	1	2	206.602	24.444	-16.8	0.099	0.000	D	F	1596.6	206.035	0.163	-3.372	722.246	1374.037	0.358	-	-1.047	-0.025	-	-	-	-	-	-	-	FREEWAY_SMOOTH	Urban	F	1011101000011101	0000000000000000	-	-	-	-	-	-	-	-	-	-	Terminate	
"Student10Mode1"	"Seema_Shokoufeh_Track2"	"Nov 30, 2016 08:52:18 AM"	Unknown	129.98593	10/30/0116 08:54.32	00007799	14.278	Inter752t1-2	1.011	1	2	203.086	24.444	-9.0	0.190	0.000	D	F	1831.5	202.661	0.185	-3.428	716.504	1361.109	0.344	-	-0.651	0.476	-	-	-	-	-	-	-	FREEWAY_SMOOTH	Urban	F	1011101000011101	0000000000000000	-	-	-	-	-	-	-	-	-	-	Terminate	
"Student10Mode1"	"Seema_Shokoufeh_Track2"	"Nov 30, 2016 08:52:18 AM"	Unknown	130.98595	10/30/0116 08:54.33	00007859	14.695	Inter752t1-2	0.952	1	2	199.450	24.444	-15.9	0.150	0.000	D	F	1748.7	199.330	0.196	-3.379	711.331	1347.560	0.342	-	-1.006	0.297	-	-	-	-	-	-	-	FREEWAY_SMOOTH	Urban	F	1011101000011101	0000000000000000	-	-	-	-	-	-	-	-	-	-	Terminate	
"Student10Mode1"	"Seema_Shokoufeh_Track2"	"Nov 30, 2016 08:52:18 AM"	Unknown	131.98598	10/30/0116 08:54.34	00007919	14.967	Inter752t1-2	0.871	1	2	195.830	24.444	-13.8	0.183	0.000	D	F	1839.3	195.476	0.056	-3.175	706.958	1333.409	0.319	-	-0.935	0.337	-	-	-	-	-	-	-	FREEWAY_SMOOTH	Urban	F	1011101000011101	0000000000000000	-	-	-	-	-	-	-	-	-	-	Terminate	
"Student10Mode1"	"Seema_Shokoufeh_Track2"	"Nov 30, 2016 08:52:18 AM"	Unknown	132.98599	10/30/0116 08:54.35	00007979	15.140	Inter752t1-2	0.768	1	2	192.481	24.444	-11.7	0.132	0.000	D	F	1730.7	192.151	0.054	-2.821	703.408	1318.747	0.282	-	-0.808	0.055	-	-	-	-	-	-	-	FREEWAY_SMOOTH	Urban	F	1011101000011101	0000000000000000	-	-	-	-	-	-	-	-	-	-	Terminate	
"Student10Mode1"	"Seema_Shokoufeh_Track2"	"Nov 30, 2016 08:52:18 AM"	Unknown	133.98601	10/30/0116 08:54.36	00008039	15.069	Inter752t1-2	0.738	1	2	189.508	24.444	-4.9	0.055	0.000	D	F	1581.8	189.946	0.092	-2.500	700.587	1303.872	0.250	-	-0.409	-0.274	-	-	-	-	-	-	-	FREEWAY_SMOOTH	Urban	F	1011101000011101	0000000000000000	-	-	-	-	-	-	-	-	-	-	Terminate	
"Student10Mode1"	"Seema_Shokoufeh_Track2"	"Nov 30, 2016 08:52:18 AM"	Unknown	134.98604	10/30/0116 08:54.37	00008099	14.811	Inter752t1-2	0.969	1	2	186.970	24.444	-6.5	0.058	0.000	D	F	1562.9	188.327	0.106	-2.125	698.250	1289.120	0.226	-	-0.446	-0.302	-	-	-	-	-	-	-	FREEWAY_SMOOTH	Urban	F	1011101000011101	0000000000000000	-	-	-	-	-	-	-	-	-	-	Terminate	
"Student10Mode1"	"Seema_Shokoufeh_Track2"	"Nov 30, 2016 08:52:18 AM"	Unknown	135.98605	10/30/0116 08:54.38	00008159	14.520	Inter752t1-2	1.329	1	2	184.851	24.444	-12.8	0.049	0.000	D	F	1511.6	186.043	0.098	-1.716	696.409	1274.564	0.205	-	-0.781	-0.347	-	-	-	-	-	-	-	FREEWAY_SMOOTH	Urban	F	1011101000011101	0000000000000000	-	-	-	-	-	-	-	-	-	-	Terminate	
"Student10Mode1"	"Seema_Shokoufeh_Track2"	"Nov 30, 2016 08:52:18 AM"	Unknown	136.98607	10/30/0116 08:54.39	00008219	14.137	Inter752t1-2	1.520	1	2	183.155	24.444	-10.2	0.025	0.000	D	F	1425.4	183.742	0.072	-1.390	695.240	1260.277	0.176	-	-0.531	-0.408	-	-	-	-	-	-	-	FREEWAY_SMOOTH	Urban	F	1011101000011101	0000000000000000	-	-	-	-	-	-	-	-	-	-	Terminate	
"Student10Mode1"	"Seema_Shokoufeh_Track2"	"Nov 30, 2016 08:52:18 AM"	Unknown	137.98610	10/30/0116 08:54.40	00008279	13.778	Inter752t1-2	1.397	1	2	181.851	24.444	-5.7	0.095	0.000	D	F	1568.9	180.294	0.021	-1.060	694.774	1246.368	0.138	-	-0.490	-0.076	-	-	-	-	-	-	-	FREEWAY_SMOOTH	Urban	F	1011101000011101	0000000000000000	-	-	-	-	-	-	-	-	-	-	Terminate	
"Student10Mode1"	"Seema_Shokoufeh_Track2"	"Nov 30, 2016 08:52:18 AM"	Unknown	138.98611	10/30/0116 08:54.41	00008339	13.766	Inter752t1-2	1.040	1	2	180.899	24.444	5.7	0.138	0.000	D	F	1667.2	179.797	0.051	-0.793	694.817	1232.614	0.098	-	0.150	0.140	-	-	-	-	-	-	-	FREEWAY_SMOOTH	Urban	F	1011101000011101	0000000000000000	-	-	-	-	-	-	-	-	-	-	Terminate	
"Student10Mode1"	"Seema_Shokoufeh_Track2"	"Nov 30, 2016 08:52:18 AM"	Unknown	139.98613	10/30/0116 08:54.42	00008399	14.082	Inter752t1-2	0.999	1	2	180.280	24.444	4.1	0.180	0.000	D	F	1794.2	181.072	0.081	-0.461	694.728	1218.712	0.065	-	0.242	0.382	-	-	-	-	-	-	-	FREEWAY_SMOOTH	Urban	F	1011101000011101	0000000000000000	-	-	-	-	-	-	-	-	-	-	Terminate	
"Student10Mode1"	"Seema_Shokoufeh_Track2"	"Nov 30, 2016 08:52:18 AM"	Unknown	140.98616	10/30/0116 08:54.43	00008459	14.482	Inter752t1-2	1.164	1	2	180.011	24.444	-21.4	0.187	0.000	D	F	1832.9	179.684	0.071	0.062	694.536	1204.434	0.033	-	-0.979	0.410	-	-	-	-	-	-	-	FREEWAY_SMOOTH	Urban	F	1011101000011101	0000000000000000	-	-	-	-	-	-	-	-	-	-	Terminate	
"Student10Mode1"	"Seema_Shokoufeh_Track2"	"Nov 30, 2016 08:52:18 AM"	Unknown	141.98618	10/30/0116 08:54.44	00008519	14.926	Inter754t3-2	1.357	1	2	180.000	11.111	1.9	0.198	0.000	D	F	1872.4	177.156	0.200	-0.002	695.036	1189.745	0.024	-	-0.031	0.467	-	-	-	Ambient367	3.327	49.654	13.036	PAVEMENT_GENERAL	Urban	F	1011101000011101	0000000000000000	-	-	-	-	-	-	-	-	-	-	Terminate	
"Student10Mode1"	"Seema_Shokoufeh_Track2"	"Nov 30, 2016 08:52:18 AM"	Unknown	142.98619	10/30/0116 08:54.45	00008579	15.423	Inter754t3-2	0.691	1	2	180.000	11.111	4.5	0.205	0.000	D	F	1921.8	177.848	0.199	-0.031	695.703	1174.587	0.024	-	0.211	0.499	-	-	-	Ambient366	5.350	82.509	22.818	PAVEMENT_GENERAL	Urban	F	1011101000011101	0000000000000000	-	-	-	-	-	-	-	-	-	-	Terminate	
"Student10Mode1"	"Seema_Shokoufeh_Track2"	"Nov 30, 2016 08:52:18 AM"	Unknown	143.98621	10/30/0116 08:54.46	00008639	15.917	Inter754t3-2	0.229	1	2	180.000	11.111	2.6	0.208	0.000	D	F	1950.8	178.890	0.197	-0.029	696.164	1158.922	0.024	-	0.232	0.479	-	-	-	Ambient366	4.941	78.651	19.133	PAVEMENT_GENERAL	Urban	F	1011101000011101	0000000000000000	-	-	-	-	-	-	-	-	-	-	Terminate	
"Student10Mode1"	"Seema_Shokoufeh_Track2"	"Nov 30, 2016 08:52:18 AM"	Unknown	144.98624	10/30/0116 08:54.47	00008699	16.390	Inter754t3-2	-0.054	1	2	180.000	11.111	0.5	0.210	0.000	D	F	1972.2	179.066	0.197	-0.003	696.448	1142.768	0.024	-	0.027	0.441	-	-	-	Ambient367	2.381	39.032	7.783	PAVEMENT_GENERAL	Urban	F	1011101000011101	0000000000000000	-	-	-	-	-	-	-	-	-	-	Terminate	
"Student10Mode1"	"Seema_Shokoufeh_Track2"	"Nov 30, 2016 08:52:18 AM"	Unknown	145.98625	10/30/0116 08:54.48	00008759	16.718	Inter754t3-2	-0.313	1	2	180.000	11.111	-0.8	0.116	0.000	D	F	1827.0	179.116	0.190	0.005	696.706	1126.174	0.026	-	-0.031	0.020	-	-	-	Ambient367	2.023	33.816	6.329	PAVEMENT_GENERAL	Urban	F	1111101000011101	0000000000000000	-	-	-	-	-	-	-	-	-	-	Terminate	
"Student10Mode1"	"Seema_Shokoufeh_Track2"	"Nov 30, 2016 08:52:18 AM"	Unknown	146.98627	10/30/0116 08:54.49	00008819	16.570	Inter754t3-2	-0.578	1	2	180.000	11.111	1.9	0.074	0.000	D	F	1744.6	179.133	0.192	-0.013	696.971	1109.518	0.027	-	0.083	-0.181	-	-	-	Ambient367	1.722	28.538	5.493	PAVEMENT_GENERAL	Urban	F	1011101000011101	0000000000000000	-	-	-	-	-	-	-	-	-	-	Terminate	
"Student10Mode1"	"Seema_Shokoufeh_Track2"	"Nov 30, 2016 08:52:18 AM"	Unknown	147.98630	10/30/0116 08:54.50	00008879	16.296	Inter754t9-0	-0.850	1	1	179.994	11.111	-6.4	0.086	0.000	D	F	1738.3	178.547	0.192	0.058	697.244	1093.089	0.028	-	-0.411	-0.191	-	-	-	Ambient367	1.441	23.484	4.772	PAVEMENT_GENERAL	Urban	F	1011101000011101	0000000000000000	-	-	-	-	-	-	-	-	-	-	Terminate	
"Student10Mode1"	"Seema_Shokoufeh_Track2"	"Nov 30, 2016 08:52:18 AM"	Unknown	148.98631	10/30/0116 08:54.51	00008939	16.113	Inter754t9-0	-1.404	1	1	179.990	11.111	1.3	0.048	0.000	D	F	1619.6	177.627	0.188	0.001	697.799	1076.876	0.028	-	-0.031	-0.316	-	-	-	Ambient367	1.157	18.646	3.936	PAVEMENT_GENERAL	Urban	F	1011101000011101	0000000000000000	-	-	-	-	-	-	-	-	-	-	Terminate	
"Student10Mode1"	"Seema_Shokoufeh_Track2"	"Nov 30, 2016 08:52:18 AM"	Unknown	149.98633	10/30/0116 08:54.52	00008999	15.690	-	-	SH-	1	-	-	3.4	0.004	0.000	D	F	1541.4	178.077	0.187	-0.029	698.406	1060.974	0.029	-	0.192	-0.541	-	-	-	-	-	-	-	PAVEMENT_GENERAL	Urban	F	1011101000011101	0000000000000000	-	-	-	-	-	-	-	-	-	-	Terminate	
"Student10Mode1"	"Seema_Shokoufeh_Track2"	"Nov 30, 2016 08:52:18 AM"	Unknown	150.98636	10/30/0116 08:54.53	00009059	15.153	-	-	SH-	1	-	-	3.0	0.028	0.000	D	F	1492.8	178.858	0.192	-0.025	698.824	1045.565	0.029	-	0.193	-0.437	-	-	-	-	-	-	-	PAVEMENT_GENERAL	Urban	F	1011101000011101	0000000000000000	-	-	-	-	-	-	-	-	-	-	Terminate	
"Student10Mode1"	"Seema_Shokoufeh_Track2"	"Nov 30, 2016 08:52:18 AM"	Unknown	151.98637	10/30/0116 08:54.54	00009119	15.033	-	-	SH-	1	-	-	-2.2	0.120	0.000	D	F	1700.8	179.092	0.196	0.013	699.071	1030.511	0.026	-	-0.086	0.036	-	-	-	-	-	-	-	PAVEMENT_GENERAL	Urban	F	1011101000011101	0000000000000000	-	-	-	-	-	-	-	-	-	-	Terminate	
"Student10Mode1"	"Seema_Shokoufeh_Track2"	"Nov 30, 2016 08:52:18 AM"	Unknown	152.98639	10/30/0116 08:54.55	00009179	15.080	-	-	CL	0	-	-	2.5	0.065	0.000	D	F	1601.9	179.122	0.188	-0.016	699.330	1015.441	0.027	-	0.118	-0.177	-	-	-	-	-	-	-	PAVEMENT_GENERAL	Urban	F	1011101000011101	0000000000000000	-	-	-	-	-	-	-	-	-	-	Terminate	
"Student10Mode1"	"Seema_Shokoufeh_Track2"	"Nov 30, 2016 08:52:18 AM"	Unknown	153.98642	10/30/0116 08:54.56	00009239	14.901	-	-	CL	0	-	-	4.3	0.085	0.000	D	F	1621.7	179.902	0.194	-0.029	699.470	1000.457	0.027	-	0.228	-0.152	-	-	-	-	-	-	-	PAVEMENT_GENERAL	Urban	F	1011101000011101	0000000000000000	-	-	-	-	-	-	-	-	-	-	Terminate	
"Student10Mode1"	"Seema_Shokoufeh_Track2"	"Nov 30, 2016 08:52:18 AM"	Unknown	154.98643	10/30/0116 08:54.57	00009299	14.843	-	-	CL	0	-	-	1.1	0.072	0.000	D	F	1592.3	180.460	0.190	-0.009	699.413	985.581	0.027	-	0.071	-0.183	-	-	-	-	-	-	-	PAVEMENT_GENERAL	Urban	F	1011101000011101	0000000000000000	-	-	-	-	-	-	-	-	-	-	Terminate	
"Student10Mode1"	"Seema_Shokoufeh_Track2"	"Nov 30, 2016 08:52:18 AM"	Unknown	155.98645	10/30/0116 08:54.58	00009359	14.752	-	-	CL	0	-	-	-2.8	0.079	0.000	D	F	1599.9	180.442	0.192	0.016	699.284	970.784	0.027	-	-0.108	-0.152	-	-	-	-	-	-	-	PAVEMENT_GENERAL	Urban	F	1011101000011101	0000000000000000	-	-	-	-	-	-	-	-	-	-	Terminate	
"Student10Mode1"	"Seema_Shokoufeh_Track2"	"Nov 30, 2016 08:52:18 AM"	Unknown	156.98647	10/30/0116 08:54.59	00009419	14.619	-	-	CL	0	-	-	1.4	0.053	0.000	D	F	1539.3	180.112	0.191	-0.006	699.225	956.094	0.027	-	0.029	-0.230	-	-	-	-	-	-	-	PAVEMENT_GENERAL	Urban	F	1011101000011101	0000000000000000	-	-	-	-	-	-	-	-	-	-	Terminate	
"Student10Mode1"	"Seema_Shokoufeh_Track2"	"Nov 30, 2016 08:52:18 AM"	Unknown	157.98650	10/30/0116 08:55.00	00009479	14.387	-	-	CL	0	-	-	-0.4	0.085	0.000	D	F	1583.1	180.582	0.196	-0.003	699.139	941.603	0.027	-	0.037	-0.079	-	-	-	-	-	-	-	PAVEMENT_GENERAL	Urban	F	1011101000011101	0000000000000000	-	-	-	-	-	-	-	-	-	-	Terminate	
"Student10Mode1"	"Seema_Shokoufeh_Track2"	"Nov 30, 2016 08:52:18 AM"	Unknown	158.98651	10/30/0116 08:55.01	00009539	14.148	-	-	CL	0	-	-	-5.6	0.042	0.000	D	F	1480.5	179.735	0.193	0.040	699.067	927.321	0.028	-	-0.308	-0.272	-	-	-	-	-	-	-	PAVEMENT_GENERAL	Urban	F	1011101000011101	0000000000000000	-	-	-	-	-	-	-	-	-	-	Terminate	
"Student10Mode1"	"Seema_Shokoufeh_Track2"	"Nov 30, 2016 08:52:18 AM"	Unknown	159.98653	10/30/0116 08:55.02	00009599	13.875	-	-	CL	0	-	-	6.9	0.056	0.000	D	F	1486.0	179.657	0.194	-0.041	699.194	913.321	0.027	-	0.290	-0.203	-	-	-	-	-	-	-	PAVEMENT_GENERAL	Urban	F	1011101000011101	0000000000000000	-	-	-	-	-	-	-	-	-	-	Terminate	
"Student10Mode1"	"Seema_Shokoufeh_Track2"	"Nov 30, 2016 08:52:18 AM"	Unknown	160.98656	10/30/0116 08:55.03	00009659	13.649	-	-	CL	0	-	-	1.7	0.053	0.000	D	F	1459.2	180.965	0.194	-0.015	699.107	899.558	0.028	-	0.146	-0.229	-	-	-	-	-	-	-	PAVEMENT_GENERAL	Urban	F	1011101000011101	0000000000000000	-	-	-	-	-	-	-	-	-	-	Terminate	
"Student10Mode1"	"Seema_Shokoufeh_Track2"	"Nov 30, 2016 08:52:18 AM"	Unknown	161.98657	10/30/0116 08:55.04	00009719	13.467	-	-	CL	0	-	-	-6.4	0.092	0.000	D	F	1528.8	180.261	0.198	0.041	698.924	886.020	0.027	-	-0.310	-0.028	-	-	-	-	-	-	-	PAVEMENT_GENERAL	Urban	F	1011101000011101	0000000000000000	-	-	-	-	-	-	-	-	-	-	Terminate	
"Student10Mode1"	"Seema_Shokoufeh_Track2"	"Nov 30, 2016 08:52:18 AM"	Unknown	162.98659	10/30/0116 08:55.05	00009779	13.495	-	-	CL	0	-	-	-0.1	0.102	0.000	D	F	1563.4	179.815	0.197	-0.001	698.945	872.546	0.026	-	0.005	0.043	-	-	-	-	-	-	-	PAVEMENT_GENERAL	Urban	F	1011101000011101	0000000000000000	-	-	-	-	-	-	-	-	-	-	Terminate	
"Student10Mode1"	"Seema_Shokoufeh_Track2"	"Nov 30, 2016 08:52:18 AM"	Unknown	163.98662	10/30/0116 08:55.06	00009839	13.582	-	-	CL	0	-	-	0.7	0.115	0.000	D	F	1597.8	179.717	0.198	-0.003	699.002	859.014	0.026	-	0.017	0.110	-	-	-	-	-	-	-	PAVEMENT_GENERAL	Urban	F	1011101000011101	0000000000000000	-	-	-	-	-	-	-	-	-	-	Terminate	
"Student10Mode1"	"Seema_Shokoufeh_Track2"	"Nov 30, 2016 08:52:18 AM"	Unknown	164.98663	10/30/0116 08:55.07	00009899	13.741	-	-	CL	0	-	-	-0.2	0.131	0.000	D	F	1644.4	179.868	0.198	-0.003	699.052	845.358	0.026	-	0.015	0.175	-	-	-	-	-	-	-	PAVEMENT_GENERAL	Urban	F	1011101000011101	0000000000000000	-	-	-	-	-	-	-	-	-	-	Terminate	
"Student10Mode1"	"Seema_Shokoufeh_Track2"	"Nov 30, 2016 08:52:18 AM"	Unknown	165.98665	10/30/0116 08:55.08	00009959	13.985	-	-	CL	0	-	-	-1.7	0.190	0.000	D	F	1818.5	179.549	0.203	0.011	699.117	831.516	0.025	-	-0.082	0.461	-	-	-	-	-	-	-	PAVEMENT_GENERAL	Urban	F	1111101000011101	0000000000000000	-	-	-	-	-	-	-	-	-	-	Terminate	
"Student10Mode1"	"Seema_Shokoufeh_Track2"	"Nov 30, 2016 08:52:18 AM"	Unknown	166.98668	10/30/0116 08:55.09	00010019	14.606	-	-	CL	0	-	-	-1.0	0.228	0.000	D	F	1930.8	179.007	0.202	0.011	699.292	817.237	0.023	-	-0.093	0.666	-	-	-	-	-	-	-	PAVEMENT_GENERAL	Urban	F	1011101000011101	0000000000000000	-	-	-	-	-	-	-	-	-	-	Terminate	
"Student10Mode1"	"Seema_Shokoufeh_Track2"	"Nov 30, 2016 08:52:18 AM"	Unknown	167.98669	10/30/0116 08:55.10	00010079	15.106	-	-	CL	0	-	-	2.8	0.180	0.000	D	F	1844.6	179.259	0.199	-0.018	699.536	802.351	0.025	-	0.141	0.406	-	-	-	-	-	-	-	PAVEMENT_GENERAL	Urban	F	1011101000011101	0000000000000000	-	-	-	-	-	-	-	-	-	-	Terminate	
"Student10Mode1"	"Seema_Shokoufeh_Track2"	"Nov 30, 2016 08:52:18 AM"	Unknown	168.98671	10/30/0116 08:55.11	00010139	15.441	-	-	CL	0	-	-	1.3	0.189	0.000	D	F	1880.4	179.706	0.199	-0.011	699.671	787.089	0.025	-	0.081	0.400	-	-	-	-	-	-	-	PAVEMENT_GENERAL	Urban	F	1011101000011101	0000000000000000	-	-	-	-	-	-	-	-	-	-	Terminate	
"Student10Mode1"	"Seema_Shokoufeh_Track2"	"Nov 30, 2016 08:52:18 AM"	Unknown	169.98674	10/30/0116 08:55.12	00010199	15.830	-	-	CL	0	-	-	-0.1	0.183	0.000	D	F	1889.6	179.793	0.197	-0.000	699.733	771.449	0.025	-	-0.007	0.362	-	-	-	-	-	-	-	PAVEMENT_GENERAL	Urban	F	1011101000011101	0000000000000000	-	-	-	-	-	-	-	-	-	-	Terminate	
