"Name"	"Project"	"Time"	ZoneName	Time	SystemTime	Frame	Velocity	LaneName	LanePos	LaneIndex	LaneCount	LaneHeading	SpeedLimit	Steer	Accel	Brake	Gear	Horn	SubjectEngineRPM	SubjectHeading	SubjectPitch	SubjectRoll	SubjectX	SubjectY	SubjectZ	Signal	LatAccel	LongAccel	Collision	CollisionAngle	CollisionVelocity	VehAhead	HeadwayTime	HeadwayDist	TTC	TerrainType	CultureType	Slip	DigitalInputs	DigitalInputs2	ActiveTrigger	EntityName	DistToEntity	TimeToEntity	EntityVelocity	EntityAccel	EntityHeading	EntityX	EntityY	EntityZ	GrabData	
"Student6Mode1"	"Seema_Shokoufeh_Track2"	"Nov 29, 2016 09:10:17 AM"	Unknown	0.98335	10/29/0116 09:10.21	00000059	0.002	Inter625t13-0	-0.088	1	2	0.000	11.111	1.5	0.004	0.000	D	F	0.0	0.000	0.153	-0.000	1503.500	523.206	0.019	-	-0.000	0.000	-	-	-	-	-	-	-	PAVEMENT_GENERAL	Urban	F	1011101000001001	0000000000000000	-	-	-	-	-	-	-	-	-	-	Terminate	
"Student6Mode1"	"Seema_Shokoufeh_Track2"	"Nov 29, 2016 09:10:17 AM"	Unknown	1.98337	10/29/0116 09:10.22	00000119	0.000	Inter625t13-0	-0.088	1	2	0.000	11.111	1.5	0.000	0.000	D	F	0.0	0.000	0.197	-0.000	1503.500	523.208	0.026	-	0.000	-0.001	-	-	-	-	-	-	-	PAVEMENT_GENERAL	Urban	F	1111101000001001	0000000000000000	-	-	-	-	-	-	-	-	-	-	Terminate	
"Student6Mode1"	"Seema_Shokoufeh_Track2"	"Nov 29, 2016 09:10:17 AM"	Unknown	2.98339	10/29/0116 09:10.23	00000179	0.000	Inter625t13-0	-0.088	1	2	0.000	11.111	1.5	0.000	0.110	D	F	0.0	0.000	0.207	-0.000	1503.500	523.208	0.028	-	0.000	0.000	-	-	-	-	-	-	-	PAVEMENT_GENERAL	Urban	F	1111101000001001	0000000000000000	-	-	-	-	-	-	-	-	-	-	Terminate	
"Student6Mode1"	"Seema_Shokoufeh_Track2"	"Nov 29, 2016 09:10:17 AM"	Unknown	3.98341	10/29/0116 09:10.24	00000239	-0.000	Inter625t13-0	-0.088	1	2	0.000	11.111	0.4	0.000	0.242	D	F	38.9	0.000	0.208	-0.000	1503.500	523.208	0.028	-	-0.000	0.000	-	-	-	-	-	-	-	PAVEMENT_GENERAL	Urban	F	1011101000001011	0000000000000000	-	-	-	-	-	-	-	-	-	-	Terminate	
"Student6Mode1"	"Seema_Shokoufeh_Track2"	"Nov 29, 2016 09:10:17 AM"	Unknown	4.98343	10/29/0116 09:10.25	00000299	-0.000	Inter625t13-0	-0.088	1	2	0.000	11.111	3.1	0.000	0.224	D	F	372.2	0.000	0.209	-0.000	1503.500	523.208	0.028	-	-0.000	0.000	-	-	-	-	-	-	-	PAVEMENT_GENERAL	Urban	F	1111101000001011	0000000000000000	-	-	-	-	-	-	-	-	-	-	Terminate	
"Student6Mode1"	"Seema_Shokoufeh_Track2"	"Nov 29, 2016 09:10:17 AM"	Unknown	5.98345	10/29/0116 09:10.26	00000359	0.000	Inter625t13-0	-0.088	1	2	0.000	11.111	-0.1	0.000	0.000	D	F	477.5	0.000	0.209	-0.000	1503.500	523.208	0.028	-	-0.000	0.000	-	-	-	-	-	-	-	PAVEMENT_GENERAL	Urban	F	1011101000001001	0000000000000000	-	-	-	-	-	-	-	-	-	-	Terminate	
"Student6Mode1"	"Seema_Shokoufeh_Track2"	"Nov 29, 2016 09:10:17 AM"	Unknown	6.98347	10/29/0116 09:10.27	00000419	0.253	Inter625t13-0	-0.088	1	2	0.000	11.111	0.4	0.000	0.000	D	F	477.5	0.001	0.209	0.000	1503.500	523.253	0.015	-	0.000	0.642	-	-	-	-	-	-	-	PAVEMENT_GENERAL	Urban	F	1111101000001001	0000000000000000	-	-	-	-	-	-	-	-	-	-	Terminate	
"Student6Mode1"	"Seema_Shokoufeh_Track2"	"Nov 29, 2016 09:10:17 AM"	Unknown	7.98349	10/29/0116 09:10.28	00000479	0.003	Inter625t13-0	-0.088	1	2	0.000	11.111	1.2	0.000	0.054	N	F	477.5	0.004	0.212	-0.000	1503.500	523.355	0.026	-	0.000	0.000	-	-	-	-	-	-	-	PAVEMENT_GENERAL	Urban	F	1011101000001001	0000000000000000	-	-	-	-	-	-	-	-	-	-	Terminate	
"Student6Mode1"	"Seema_Shokoufeh_Track2"	"Nov 29, 2016 09:10:17 AM"	Unknown	8.98351	10/29/0116 09:10.29	00000539	0.179	Inter625t13-0	-0.088	1	2	0.000	11.111	1.2	0.176	0.000	D	F	1368.4	0.004	0.205	-0.000	1503.500	523.374	0.016	-	0.001	1.273	-	-	-	-	-	-	-	PAVEMENT_GENERAL	Urban	F	1011101000001001	0000000000000000	-	-	-	-	-	-	-	-	-	-	Terminate	
"Student6Mode1"	"Seema_Shokoufeh_Track2"	"Nov 29, 2016 09:10:17 AM"	Unknown	9.98353	10/29/0116 09:10.30	00000599	4.024	Inter625t13-0	-0.080	1	2	0.000	11.111	6.9	0.240	0.000	D	F	1806.4	0.189	0.222	-0.009	1503.508	525.497	0.009	-	0.051	3.307	-	-	-	-	-	-	-	PAVEMENT_GENERAL	Urban	F	1011101000001001	0000000000000000	-	-	-	-	-	-	-	-	-	-	Terminate	
"Student6Mode1"	"Seema_Shokoufeh_Track2"	"Nov 29, 2016 09:10:17 AM"	Unknown	10.98355	10/29/0116 09:10.31	00000659	6.728	Inter625t13-0	-0.063	1	2	0.000	11.111	-1.6	0.296	0.000	D	F	2254.2	0.000	0.230	-0.002	1503.525	530.936	0.015	-	-0.004	2.582	-	-	-	-	-	-	-	PAVEMENT_GENERAL	Urban	F	1011101000001001	0000000000000000	-	-	-	-	-	-	-	-	-	-	Terminate	
"Student6Mode1"	"Seema_Shokoufeh_Track2"	"Nov 29, 2016 09:10:17 AM"	Unknown	11.98357	10/29/0116 09:10.32	00000719	9.220	Inter625t49-0	-0.074	1	1	0.006	11.111	-1.0	0.330	0.000	D	F	2582.3	359.908	0.235	0.004	1503.515	538.902	0.015	-	-0.024	2.839	-	-	-	-	-	-	-	PAVEMENT_GENERAL	Urban	F	1011101000001001	0000000000000000	-	-	-	-	-	-	-	-	-	-	Terminate	
"Student6Mode1"	"Seema_Shokoufeh_Track2"	"Nov 29, 2016 09:10:17 AM"	Unknown	12.98359	10/29/0116 09:10.33	00000779	11.098	Inter625t49-0	-0.111	1	1	0.008	11.111	-1.2	0.386	0.000	D	F	2202.8	359.683	0.213	0.006	1503.478	549.137	0.019	-	-0.046	1.600	-	-	-	-	-	-	-	PAVEMENT_GENERAL	Urban	F	1011101000001001	0000000000000000	-	-	-	-	-	-	-	-	-	-	Terminate	
"Student6Mode1"	"Seema_Shokoufeh_Track2"	"Nov 29, 2016 09:10:17 AM"	Unknown	13.98361	10/29/0116 09:10.34	00000839	12.731	Inter625t49-0	-0.178	1	1	0.006	11.111	0.4	0.582	0.000	D	F	2382.5	359.783	0.213	-0.005	1503.413	561.048	0.019	-	0.035	1.606	-	-	-	-	-	-	-	PAVEMENT_GENERAL	Urban	F	1011101000001001	0000000000000000	-	-	-	-	-	-	-	-	-	-	Terminate	
"Student6Mode1"	"Seema_Shokoufeh_Track2"	"Nov 29, 2016 09:10:17 AM"	Unknown	14.98363	10/29/0116 09:10.35	00000899	14.287	Inter625t49-0	-0.248	1	1	0.005	11.111	-3.3	0.598	0.000	D	F	2573.8	359.508	0.211	0.020	1503.344	574.562	0.019	-	-0.148	1.537	-	-	-	-	-	-	-	PAVEMENT_GENERAL	Urban	F	1011101000001001	0000000000000000	-	-	-	-	-	-	-	-	-	-	Terminate	
"Student6Mode1"	"Seema_Shokoufeh_Track2"	"Nov 29, 2016 09:10:17 AM"	Unknown	15.98365	10/29/0116 09:10.36	00000959	15.819	Inter625t15-0	-0.399	1	2	0.000	11.111	6.7	0.619	0.000	D	F	2767.5	359.819	0.209	-0.053	1503.194	589.616	0.019	-	0.373	1.521	-	-	-	-	-	-	-	PAVEMENT_GENERAL	Urban	F	1011101000001001	0000000000000000	-	-	-	-	-	-	-	-	-	-	Terminate	
"Student6Mode1"	"Seema_Shokoufeh_Track2"	"Nov 29, 2016 09:10:17 AM"	Unknown	16.98367	10/29/0116 09:10.37	00001019	17.323	Inter614t1-0	-0.357	1	2	0.000	11.111	0.4	0.617	0.000	D	F	2992.3	0.274	0.207	-0.003	1503.236	606.189	0.020	-	0.015	1.488	-	-	-	-	-	-	-	PAVEMENT_GENERAL	Urban	F	1011101000001001	0000000000000000	-	-	-	-	-	-	-	-	-	-	Terminate	
"Student6Mode1"	"Seema_Shokoufeh_Track2"	"Nov 29, 2016 09:10:17 AM"	Unknown	17.98369	10/29/0116 09:10.38	00001079	18.757	Inter614t1-0	-0.248	1	2	0.000	11.111	-1.5	0.522	0.000	D	F	3188.7	0.408	0.203	0.005	1503.345	624.239	0.020	-	-0.027	1.389	-	-	-	-	-	-	-	PAVEMENT_GENERAL	Urban	F	1011101000001001	0000000000000000	-	-	-	-	-	-	-	-	-	-	Terminate	
"Student6Mode1"	"Seema_Shokoufeh_Track2"	"Nov 29, 2016 09:10:17 AM"	Unknown	18.98371	10/29/0116 09:10.39	00001139	19.602	Inter614t1-0	-0.164	1	2	0.000	11.111	0.7	0.000	0.000	D	F	1694.9	0.194	0.155	-0.012	1503.429	643.587	0.027	-	0.051	-0.533	-	-	-	-	-	-	-	PAVEMENT_GENERAL	Urban	F	1011101000001001	0000000000000000	-	-	-	-	-	-	-	-	-	-	Terminate	
"Student6Mode1"	"Seema_Shokoufeh_Track2"	"Nov 29, 2016 09:10:17 AM"	Unknown	19.98373	10/29/0116 09:10.40	00001199	19.788	Inter614t1-0	-0.112	1	2	0.000	11.111	0.3	0.333	0.000	D	F	2239.6	359.949	0.194	0.005	1503.481	663.187	0.024	-	-0.083	0.582	-	-	-	-	-	-	-	PAVEMENT_GENERAL	Urban	F	1011101000001001	0000000000000000	-	-	-	-	-	-	-	-	-	-	Terminate	
"Student6Mode1"	"Seema_Shokoufeh_Track2"	"Nov 29, 2016 09:10:17 AM"	Unknown	20.98375	10/29/0116 09:10.41	00001259	20.425	Inter614t1-0	-0.082	1	2	0.000	11.111	-1.0	0.356	0.000	D	F	2379.9	0.267	0.193	-0.003	1503.511	683.289	0.024	-	0.032	0.655	-	-	-	-	-	-	-	PAVEMENT_GENERAL	Urban	F	1011101000001001	0000000000000000	-	-	-	-	-	-	-	-	-	-	Terminate	
"Student6Mode1"	"Seema_Shokoufeh_Track2"	"Nov 29, 2016 09:10:17 AM"	Unknown	21.98377	10/29/0116 09:10.42	00001319	21.069	Inter614t1-0	-0.045	1	2	0.000	11.111	0.1	0.326	0.000	D	F	2423.0	359.845	0.191	0.014	1503.548	704.039	0.024	-	-0.101	0.626	-	-	-	-	-	-	-	PAVEMENT_GENERAL	Urban	F	1011101000001001	0000000000000000	-	-	-	-	-	-	-	-	-	-	Terminate	
"Student6Mode1"	"Seema_Shokoufeh_Track2"	"Nov 29, 2016 09:10:17 AM"	Unknown	22.98379	10/29/0116 09:10.43	00001379	21.595	Inter614t1-0	-0.070	1	2	0.000	11.111	2.0	0.279	0.000	D	F	2417.3	0.118	0.189	-0.020	1503.523	725.384	0.025	-	0.151	0.467	-	-	-	-	-	-	-	PAVEMENT_GENERAL	Urban	F	1011101000001001	0000000000000000	-	-	-	-	-	-	-	-	-	-	Terminate	
"Student6Mode1"	"Seema_Shokoufeh_Track2"	"Nov 29, 2016 09:10:17 AM"	Unknown	23.98381	10/29/0116 09:10.44	00001439	21.931	Inter614t1-0	-0.036	1	2	0.000	11.111	-6.4	0.120	0.000	D	F	2035.8	359.741	0.181	0.060	1503.557	747.178	0.026	-	-0.419	0.021	-	-	-	-	-	-	-	PAVEMENT_GENERAL	Urban	F	1011101000001001	0000000000000000	-	-	-	-	-	-	-	-	-	-	Terminate	
"Student6Mode1"	"Seema_Shokoufeh_Track2"	"Nov 29, 2016 09:10:17 AM"	Unknown	24.98383	10/29/0116 09:10.45	00001499	21.740	Inter614t1-0	-0.233	1	2	0.000	11.111	-1.9	0.115	0.000	D	F	1698.7	359.293	0.182	0.012	1503.360	769.019	0.028	-	-0.092	-0.212	-	-	-	12	3.225	70.100	18.167	PAVEMENT_GENERAL	Urban	F	1011101000001001	0000000000000000	-	-	-	-	-	-	-	-	-	-	Terminate	
"Student6Mode1"	"Seema_Shokoufeh_Track2"	"Nov 29, 2016 09:10:17 AM"	Unknown	25.98385	10/29/0116 09:10.46	00001559	21.706	Inter614t1-0	-0.560	1	2	0.000	11.111	-0.4	0.208	0.000	D	F	1898.1	358.870	0.186	0.022	1503.033	790.714	0.026	-	-0.138	0.097	-	-	-	12	3.090	67.071	35.459	PAVEMENT_GENERAL	Urban	F	1011101000001001	0000000000000000	-	-	-	-	-	-	-	-	-	-	Terminate	
"Student6Mode1"	"Seema_Shokoufeh_Track2"	"Nov 29, 2016 09:10:17 AM"	Unknown	26.98387	10/29/0116 09:10.47	00001619	22.032	Inter612t1-0	-0.787	1	2	0.000	11.111	6.5	0.314	0.000	D	F	2039.7	0.665	0.184	-0.099	1502.807	812.564	0.025	-	0.783	0.347	-	-	-	12	2.985	65.761	70.417	PAVEMENT_GENERAL	Urban	F	1111101000001001	0000000000000000	-	-	-	-	-	-	-	-	-	-	Terminate	
"Student6Mode1"	"Seema_Shokoufeh_Track2"	"Nov 29, 2016 09:10:17 AM"	Unknown	27.98389	10/29/0116 09:10.48	00001679	22.384	Inter612t1-0	-0.501	1	2	0.000	11.111	1.0	0.312	0.000	D	F	2052.5	0.710	0.186	0.000	1503.092	834.770	0.025	-	-0.026	0.332	-	-	-	12	2.905	65.014	99.616	PAVEMENT_GENERAL	Urban	F	1011101000001001	0000000000000000	-	-	-	-	-	-	-	-	-	-	Terminate	
"Student6Mode1"	"Seema_Shokoufeh_Track2"	"Nov 29, 2016 09:10:17 AM"	Unknown	28.98391	10/29/0116 09:10.49	00001739	22.713	Inter612t1-0	-0.185	1	2	0.000	11.111	0.2	0.316	0.000	D	F	2070.0	0.859	0.186	0.003	1503.409	857.317	0.025	-	0.005	0.327	-	-	-	12	2.837	64.444	133.708	PAVEMENT_GENERAL	Urban	F	1011101000001001	0000000000000000	-	-	-	-	-	-	-	-	-	-	Terminate	
"Student6Mode1"	"Seema_Shokoufeh_Track2"	"Nov 29, 2016 09:10:17 AM"	Unknown	29.98393	10/29/0116 09:10.50	00001799	23.056	Inter612t1-0	0.232	1	2	0.000	11.111	0.1	0.333	0.000	D	F	2101.7	1.429	0.185	-0.015	1503.826	880.196	0.025	-	0.158	0.354	-	-	-	12	2.772	63.903	90.741	PAVEMENT_GENERAL	Urban	F	1011101000001001	0000000000000000	-	-	-	-	-	-	-	-	-	-	Terminate	
"Student6Mode1"	"Seema_Shokoufeh_Track2"	"Nov 29, 2016 09:10:17 AM"	Unknown	30.98395	10/29/0116 09:10.51	00001859	23.407	Inter612t1-0	0.711	1	2	0.000	11.111	-3.3	0.363	0.000	D	F	2122.4	0.434	0.184	0.064	1504.304	903.423	0.025	-	-0.523	0.352	-	-	-	12	2.693	63.030	59.748	PAVEMENT_GENERAL	Urban	F	1011101000001001	0000000000000000	-	-	-	-	-	-	-	-	-	-	Terminate	
"Student6Mode1"	"Seema_Shokoufeh_Track2"	"Nov 29, 2016 09:10:17 AM"	Unknown	31.98397	10/29/0116 09:10.52	00001919	23.807	Inter612t1-0	0.862	1	2	0.000	11.111	-6.6	0.430	0.000	D	F	2579.5	0.265	0.188	0.037	1504.455	927.014	0.025	-	-0.202	0.552	-	-	-	12	2.596	61.792	42.468	PAVEMENT_GENERAL	Urban	F	1011101000001001	0000000000000000	-	-	-	-	-	-	-	-	-	-	Terminate	
"Student6Mode1"	"Seema_Shokoufeh_Track2"	"Nov 29, 2016 09:10:17 AM"	Unknown	32.98399	10/29/0116 09:10.53	00001979	24.404	Inter612t1-0	0.710	1	2	0.000	11.111	-2.6	0.381	0.000	D	F	2710.8	358.663	0.183	0.061	1504.303	951.119	0.024	-	-0.500	0.585	-	-	-	12	2.460	60.041	29.266	PAVEMENT_GENERAL	Urban	F	1011101000001001	0000000000000000	-	-	-	-	-	-	-	-	-	-	Terminate	
"Student6Mode1"	"Seema_Shokoufeh_Track2"	"Nov 29, 2016 09:10:17 AM"	Unknown	33.98401	10/29/0116 09:10.54	00002039	25.000	Inter612t1-0	0.200	1	2	0.000	11.111	6.4	0.404	0.000	D	F	2772.4	359.290	0.183	-0.071	1503.794	975.814	0.024	-	0.508	0.595	-	-	-	12	2.308	57.699	21.791	PAVEMENT_GENERAL	Urban	F	1011101000001001	0000000000000000	-	-	-	-	-	-	-	-	-	-	Terminate	
"Student6Mode1"	"Seema_Shokoufeh_Track2"	"Nov 29, 2016 09:10:17 AM"	Unknown	34.98403	10/29/0116 09:10.55	00002099	25.544	Inter613t1-0	0.090	1	2	0.000	11.111	0.3	0.289	0.000	D	F	2782.0	0.255	0.178	-0.012	1503.684	1001.099	0.025	-	0.129	0.412	-	-	-	12	2.144	54.767	17.155	PAVEMENT_GENERAL	Urban	F	1011101000001001	0000000000000000	-	-	-	-	-	-	-	-	-	-	Terminate	
"Student6Mode1"	"Seema_Shokoufeh_Track2"	"Nov 29, 2016 09:10:17 AM"	Unknown	35.98405	10/29/0116 09:10.56	00002159	25.715	Inter613t1-0	0.149	1	2	0.000	11.111	-0.5	0.129	0.000	D	F	1961.4	359.874	0.169	0.022	1503.742	1026.782	0.027	-	-0.165	-0.191	-	-	-	12	2.000	51.438	15.294	PAVEMENT_GENERAL	Urban	F	1011101000001001	0000000000000000	-	-	-	-	-	-	-	-	-	-	Terminate	
"Student6Mode1"	"Seema_Shokoufeh_Track2"	"Nov 29, 2016 09:10:17 AM"	Unknown	36.98407	10/29/0116 09:10.57	00002219	25.262	Inter613t1-0	0.122	1	2	0.000	11.111	1.9	0.044	0.000	D	F	1727.4	0.093	0.171	-0.027	1503.715	1052.291	0.029	-	0.174	-0.534	-	-	-	12	1.911	48.282	16.592	PAVEMENT_GENERAL	Urban	F	1011101000001001	0000000000000000	-	-	-	-	-	-	-	-	-	-	Terminate	
"Student6Mode1"	"Seema_Shokoufeh_Track2"	"Nov 29, 2016 09:10:17 AM"	Unknown	37.98409	10/29/0116 09:10.58	00002279	24.873	Inter613t1-0	0.183	1	2	0.000	11.111	-0.4	0.164	0.000	D	F	1942.7	0.097	0.177	0.009	1503.777	1077.321	0.028	-	-0.065	-0.133	-	-	-	12	1.834	45.606	18.088	PAVEMENT_GENERAL	Urban	F	1011101000001001	0000000000000000	-	-	-	-	-	-	-	-	-	-	Terminate	
"Student6Mode1"	"Seema_Shokoufeh_Track2"	"Nov 29, 2016 09:10:17 AM"	Unknown	38.98411	10/29/0116 09:10.59	00002339	24.823	Inter613t1-0	0.224	1	2	0.000	11.111	0.3	0.233	0.000	D	F	2052.1	0.089	0.178	-0.002	1503.817	1102.146	0.026	-	0.015	0.079	-	-	-	12	1.738	43.135	17.456	PAVEMENT_GENERAL	Urban	F	1011101000001001	0000000000000000	-	-	-	-	-	-	-	-	-	-	Terminate	
"Student6Mode1"	"Seema_Shokoufeh_Track2"	"Nov 29, 2016 09:10:17 AM"	Unknown	39.98413	10/29/0116 09:11.00	00002399	24.821	Inter613t1-0	0.286	1	2	0.000	11.111	-2.7	0.116	0.000	D	F	1862.7	0.226	0.172	0.010	1503.879	1127.009	0.028	-	-0.057	-0.294	-	-	-	12	1.637	40.625	16.457	PAVEMENT_GENERAL	Urban	F	1011101000001001	0000000000000000	-	-	-	-	-	-	-	-	-	-	Terminate	
"Student6Mode1"	"Seema_Shokoufeh_Track2"	"Nov 29, 2016 09:10:17 AM"	Unknown	40.98415	10/29/0116 09:11.01	00002459	24.703	Inter613t1-0	0.283	1	2	0.000	11.111	-0.5	0.222	0.000	D	F	2042.1	359.721	0.178	0.009	1503.876	1151.731	0.026	-	-0.105	0.086	-	-	-	12	1.549	38.257	16.271	PAVEMENT_GENERAL	Urban	F	1011101000001001	0000000000000000	-	-	-	-	-	-	-	-	-	-	Terminate	
"Student6Mode1"	"Seema_Shokoufeh_Track2"	"Nov 29, 2016 09:10:17 AM"	Unknown	41.98417	10/29/0116 09:11.02	00002519	24.784	Inter613t1-0	0.166	1	2	0.000	11.111	2.9	0.219	0.000	D	F	2039.5	359.750	0.179	-0.017	1503.759	1176.474	0.027	-	0.116	0.078	-	-	-	12	1.447	35.867	14.746	PAVEMENT_GENERAL	Urban	F	1011101000001001	0000000000000000	-	-	-	-	-	-	-	-	-	-	Terminate	
"Student6Mode1"	"Seema_Shokoufeh_Track2"	"Nov 29, 2016 09:10:17 AM"	Unknown	42.98419	10/29/0116 09:11.03	00002579	24.806	Inter746t1-0	0.144	1	2	0.000	11.111	0.3	0.192	0.000	D	F	1988.2	0.212	0.177	-0.017	1503.737	1201.277	0.027	-	0.118	-0.019	-	-	-	12	1.347	33.418	13.616	PAVEMENT_GENERAL	Urban	F	1011101000001001	0000000000000000	-	-	-	-	-	-	-	-	-	-	Terminate	
"Student6Mode1"	"Seema_Shokoufeh_Track2"	"Nov 29, 2016 09:10:17 AM"	Unknown	43.98421	10/29/0116 09:11.04	00002639	24.745	Inter746t1-0	0.186	1	2	0.000	11.111	-0.9	0.175	0.000	D	F	1954.1	359.821	0.177	0.022	1503.780	1226.059	0.027	-	-0.172	-0.094	-	-	-	12	1.252	30.990	12.949	PAVEMENT_GENERAL	Urban	F	1011101000001001	0000000000000000	-	-	-	-	-	-	-	-	-	-	Terminate	
"Student6Mode1"	"Seema_Shokoufeh_Track2"	"Nov 29, 2016 09:10:17 AM"	Unknown	44.98423	10/29/0116 09:11.05	00002699	24.646	Inter746t1-0	0.110	1	2	0.000	11.111	1.6	0.157	0.000	D	F	1918.9	359.806	0.177	-0.007	1503.703	1250.757	0.028	-	0.051	-0.128	-	-	-	12	1.162	28.644	12.485	PAVEMENT_GENERAL	Urban	F	1011101000001001	0000000000000000	-	-	-	-	-	-	-	-	-	-	Terminate	
"Student6Mode1"	"Seema_Shokoufeh_Track2"	"Nov 29, 2016 09:10:17 AM"	Unknown	45.98425	10/29/0116 09:11.06	00002759	24.514	Inter746t1-0	0.073	1	2	0.000	11.111	0.5	0.185	0.000	D	F	1964.4	0.012	0.179	-0.005	1503.666	1275.331	0.027	-	0.037	-0.053	-	-	-	12	1.078	26.424	12.223	PAVEMENT_GENERAL	Urban	F	1011101000001001	0000000000000000	-	-	-	-	-	-	-	-	-	-	Terminate	
"Student6Mode1"	"Seema_Shokoufeh_Track2"	"Nov 29, 2016 09:10:17 AM"	Unknown	46.98427	10/29/0116 09:11.07	00002819	24.695	Inter746t1-0	0.088	1	2	0.000	11.111	0.3	0.284	0.000	D	F	2106.5	0.081	0.180	-0.003	1503.682	1299.915	0.026	-	0.026	0.203	-	-	-	12	0.980	24.194	10.328	PAVEMENT_GENERAL	Urban	F	1011101000001001	0000000000000000	-	-	-	-	-	-	-	-	-	-	Terminate	
"Student6Mode1"	"Seema_Shokoufeh_Track2"	"Nov 29, 2016 09:10:17 AM"	Unknown	47.98429	10/29/0116 09:11.08	00002879	24.590	Inter746t1-0	0.137	1	2	0.000	11.111	-0.9	0.000	0.000	D	F	1675.9	0.157	0.171	0.003	1503.730	1324.652	0.030	-	-0.015	-0.678	-	-	-	12	0.887	21.810	9.748	PAVEMENT_GENERAL	Urban	F	1011101000001001	0000000000000000	-	-	-	-	-	-	-	-	-	-	Terminate	
"Student6Mode1"	"Seema_Shokoufeh_Track2"	"Nov 29, 2016 09:10:17 AM"	Unknown	48.98431	10/29/0116 09:11.09	00002939	22.300	Inter746t1-0	0.163	1	2	0.000	11.111	-1.1	0.000	0.245	D	F	1469.6	359.946	0.116	0.007	1503.756	1348.419	0.036	-	-0.064	-3.671	-	-	-	12	0.915	20.397	-	PAVEMENT_GENERAL	Urban	F	1011101000001001	0000000000000000	-	-	-	-	-	-	-	-	-	-	Terminate	
"Student6Mode1"	"Seema_Shokoufeh_Track2"	"Nov 29, 2016 09:10:17 AM"	Unknown	49.98433	10/29/0116 09:11.10	00002999	20.461	Inter746t1-0	0.069	1	2	0.000	11.111	-2.4	0.115	0.000	D	F	1585.7	359.272	0.183	0.036	1503.662	1369.438	0.030	-	-0.285	-0.560	-	-	-	12	1.062	21.731	-	PAVEMENT_GENERAL	Urban	F	1011101000001001	0000000000000000	-	-	-	-	-	-	-	-	-	-	Terminate	
"Student6Mode1"	"Seema_Shokoufeh_Track2"	"Nov 29, 2016 09:10:17 AM"	Unknown	50.98435	10/29/0116 09:11.11	00003059	20.185	Inter746t1-0	-0.261	1	2	0.000	11.111	-7.8	0.000	0.000	D	F	1376.1	358.526	0.178	0.076	1503.332	1389.833	0.029	-	-0.542	-0.609	-	-	-	12	1.124	22.686	32.401	PAVEMENT_GENERAL	Urban	F	1011101000001001	0000000000000000	-	-	-	-	-	-	-	-	-	-	Terminate	
"Student6Mode1"	"Seema_Shokoufeh_Track2"	"Nov 29, 2016 09:10:17 AM"	Unknown	51.98437	10/29/0116 09:11.12	00003119	18.578	Inter749t9-0	-1.060	1	2	0.000	11.111	-8.1	0.000	0.134	D	F	1245.5	356.315	0.151	0.091	1502.533	1409.369	0.033	-	-0.698	-2.179	-	-	-	12	1.113	20.668	6.684	PAVEMENT_GENERAL	Urban	F	1011101000001001	0000000000000000	-	-	-	-	-	-	-	-	-	-	Terminate	
"Student6Mode1"	"Seema_Shokoufeh_Track2"	"Nov 29, 2016 09:10:17 AM"	Unknown	52.98439	10/29/0116 09:11.13	00003179	15.984	Inter749t31-0	-1.751	1	1	355.340	11.111	11.9	0.000	0.203	D	F	1060.1	355.978	0.137	-0.065	1501.305	1426.687	0.034	-	0.440	-3.116	-	-	-	12	0.908	14.509	3.674	PAVEMENT_GENERAL	Urban	F	1011101000001001	0000000000000000	-	-	-	-	-	-	-	-	-	-	Terminate	
"Student6Mode1"	"Seema_Shokoufeh_Track2"	"Nov 29, 2016 09:10:17 AM"	Unknown	53.98441	10/29/0116 09:11.14	00003239	12.698	Inter749t31-0	-1.310	1	1	355.419	11.111	7.8	0.000	0.218	D	F	990.4	359.081	0.141	-0.069	1500.627	1441.018	0.035	-	0.564	-3.300	-	-	-	-	-	-	-	PAVEMENT_GENERAL	Urban	F	1011101000001001	0000000000000000	-	-	-	-	-	-	-	-	-	-	Terminate	
"Student6Mode1"	"Seema_Shokoufeh_Track2"	"Nov 29, 2016 09:10:17 AM"	Unknown	54.98443	10/29/0116 09:11.15	00003299	9.913	Inter749t31-0	-0.383	1	1	356.903	11.111	-4.2	0.000	0.140	D	F	953.0	359.435	0.174	0.016	1500.509	1452.188	0.032	-	-0.113	-2.194	-	-	-	-	-	-	-	PAVEMENT_GENERAL	Urban	F	1011101000001001	0000000000000000	-	-	-	-	-	-	-	-	-	-	Terminate	
"Student6Mode1"	"Seema_Shokoufeh_Track2"	"Nov 29, 2016 09:10:17 AM"	Unknown	55.98445	10/29/0116 09:11.16	00003359	6.263	Inter749t31-0	-0.052	1	1	356.903	11.111	0.1	0.000	0.299	D	F	591.0	359.149	0.138	0.001	1500.395	1460.429	0.038	-	-0.002	-4.069	-	-	-	-	-	-	-	PAVEMENT_GENERAL	Urban	F	1011101000001001	0000000000000000	-	-	-	-	-	-	-	-	-	-	Terminate	
"Student6Mode1"	"Seema_Shokoufeh_Track2"	"Nov 29, 2016 09:10:17 AM"	Unknown	56.98447	10/29/0116 09:11.17	00003419	4.170	Inter749t31-0	0.140	1	1	356.903	11.111	0.5	0.000	0.000	D	F	523.4	359.176	0.200	-0.000	1500.324	1465.282	0.029	-	0.004	-0.485	-	-	-	-	-	-	-	PAVEMENT_GENERAL	Urban	F	1011101000001001	0000000000000000	-	-	-	-	-	-	-	-	-	-	Terminate	
"Student6Mode1"	"Seema_Shokoufeh_Track2"	"Nov 29, 2016 09:10:17 AM"	Unknown	57.98449	10/29/0116 09:11.18	00003479	3.700	Inter749t11-0	0.208	LT1	2	0.000	11.111	0.5	0.000	0.000	D	F	560.5	359.219	0.199	-0.000	1500.270	1469.213	0.028	-	0.002	-0.459	-	-	-	-	-	-	-	PAVEMENT_GENERAL	Urban	F	1011101000001001	0000000000000000	-	-	-	-	-	-	-	-	-	-	Terminate	
"Student6Mode1"	"Seema_Shokoufeh_Track2"	"Nov 29, 2016 09:10:17 AM"	Unknown	58.98451	10/29/0116 09:11.19	00003539	3.242	Inter749t11-0	0.160	LT1	2	0.000	11.111	-0.9	0.000	0.000	D	F	491.6	359.204	0.199	0.001	1500.223	1472.684	0.028	-	-0.005	-0.457	-	-	-	-	-	-	-	PAVEMENT_GENERAL	Urban	F	1011101000001001	0000000000000000	-	-	-	-	-	-	-	-	-	-	Terminate	
"Student6Mode1"	"Seema_Shokoufeh_Track2"	"Nov 29, 2016 09:10:17 AM"	Unknown	59.98453	10/29/0116 09:11.20	00003599	2.821	Inter749t11-0	0.115	LT1	2	0.000	11.111	-0.1	0.000	0.000	D	F	477.5	359.150	0.201	-0.001	1500.177	1475.709	0.028	-	0.004	-0.386	-	-	-	-	-	-	-	PAVEMENT_GENERAL	Urban	F	1011101000001001	0000000000000000	-	-	-	-	-	-	-	-	-	-	Terminate	
"Student6Mode1"	"Seema_Shokoufeh_Track2"	"Nov 29, 2016 09:10:17 AM"	Unknown	60.98455	10/29/0116 09:11.21	00003659	1.398	Inter749t11-0	0.080	LT1	2	0.000	11.111	-1.5	0.000	0.179	D	F	477.5	359.119	0.138	-0.001	1500.142	1478.004	0.031	-	0.001	-2.441	-	-	-	-	-	-	-	PAVEMENT_GENERAL	Urban	F	1011101000001001	0000000000000000	-	-	-	-	-	-	-	-	-	-	Terminate	
"Student6Mode1"	"Seema_Shokoufeh_Track2"	"Nov 29, 2016 09:10:17 AM"	Unknown	61.98457	10/29/0116 09:11.22	00003719	0.387	Inter749t11-0	0.070	LT1	2	0.000	11.111	-1.3	0.000	0.000	D	F	477.5	359.101	0.222	-0.000	1500.132	1478.627	0.028	-	-0.000	0.126	-	-	-	-	-	-	-	PAVEMENT_GENERAL	Urban	F	1011101000001001	0000000000000000	-	-	-	-	-	-	-	-	-	-	Terminate	
"Student6Mode1"	"Seema_Shokoufeh_Track2"	"Nov 29, 2016 09:10:17 AM"	Unknown	62.98459	10/29/0116 09:11.23	00003779	2.139	Inter749t11-0	0.057	LT1	2	0.000	11.111	5.3	0.143	0.000	D	F	1384.4	359.145	0.200	-0.004	1500.119	1479.541	0.015	-	0.027	2.874	-	-	-	-	-	-	-	PAVEMENT_GENERAL	Urban	F	1011101000001001	0000000000000000	-	-	-	-	-	-	-	-	-	-	Terminate	
"Student6Mode1"	"Seema_Shokoufeh_Track2"	"Nov 29, 2016 09:10:17 AM"	Unknown	63.98461	10/29/0116 09:11.24	00003839	3.300	Inter749t65-0	0.059	1	1	355.560	11.111	-0.0	0.005	0.000	D	F	570.3	359.478	0.180	0.003	1500.092	1482.633	0.025	-	-0.023	-0.409	-	-	-	-	-	-	-	PAVEMENT_GENERAL	Urban	F	1011101000001001	0000000000000000	-	-	-	-	-	-	-	-	-	-	Terminate	
"Student6Mode1"	"Seema_Shokoufeh_Track2"	"Nov 29, 2016 09:10:17 AM"	Unknown	64.98463	10/29/0116 09:11.25	00003899	3.181	Inter749t65-0	0.478	1	1	346.125	11.111	-19.9	0.055	0.000	D	F	968.7	359.113	0.212	0.021	1500.047	1485.855	0.027	L	-0.151	0.229	-	-	-	-	-	-	-	PAVEMENT_GENERAL	Urban	F	1011101000101001	0000000000000000	-	-	-	-	-	-	-	-	-	-	Terminate	
"Student6Mode1"	"Seema_Shokoufeh_Track2"	"Nov 29, 2016 09:10:17 AM"	Unknown	65.98465	10/29/0116 09:11.26	00003959	5.298	Inter749t65-0	1.372	1	1	337.105	11.111	-131.2	0.275	0.000	D	F	1991.0	353.741	0.226	0.213	1499.718	1489.842	0.013	L	-1.529	2.795	-	-	-	-	-	-	-	PAVEMENT_GENERAL	Urban	F	1011101000101001	0000000000000000	-	-	-	-	-	-	-	-	-	-	Terminate	
"Student6Mode1"	"Seema_Shokoufeh_Track2"	"Nov 29, 2016 09:10:17 AM"	Unknown	66.98467	10/29/0116 09:11.27	00004019	7.692	-Inter749t59-0	0.480	-1	1	89.733	11.111	-197.6	0.279	0.000	D	F	2468.5	331.350	0.223	0.483	1497.396	1495.924	0.018	L	-3.678	1.996	-	-	-	-	-	-	-	PAVEMENT_GENERAL	Urban	F	1011101000101001	0000000000000000	-	-	-	-	-	-	-	-	-	-	Terminate	
"Student6Mode1"	"Seema_Shokoufeh_Track2"	"Nov 29, 2016 09:10:17 AM"	Unknown	67.98470	10/29/0116 09:11.28	00004079	9.471	Inter749t75-0	-1.700	1	1	269.734	11.111	-187.3	0.240	0.000	D	F	1991.6	302.170	0.209	0.635	1491.147	1501.875	0.026	L	-4.947	0.995	-	-	-	-	-	-	-	PAVEMENT_GENERAL	Urban	F	1011101000101001	0000000000000000	-	-	-	-	-	-	-	-	-	-	Terminate	
"Student6Mode1"	"Seema_Shokoufeh_Track2"	"Nov 29, 2016 09:10:17 AM"	Unknown	68.98471	10/29/0116 09:11.29	00004139	10.569	Inter749t3-3	0.954	1	2	270.000	11.111	-89.5	0.279	0.000	D	F	2065.6	273.715	0.155	0.418	1481.585	1504.485	0.024	L	-3.447	1.230	-	-	-	Ambient246	11.919	125.977	-	PAVEMENT_GENERAL	Urban	F	1011101000101001	0000000000000000	-	-	-	-	-	-	-	-	-	-	Terminate	
"Student6Mode1"	"Seema_Shokoufeh_Track2"	"Nov 29, 2016 09:10:17 AM"	Unknown	69.98473	10/29/0116 09:11.30	00004199	11.924	Inter749t3-3	0.714	1	2	270.000	11.111	16.7	0.310	0.000	D	F	2218.6	267.857	0.211	-0.075	1470.347	1504.245	0.020	-	0.478	1.332	-	-	-	-	-	-	-	PAVEMENT_GENERAL	Urban	F	1011101000001001	0000000000000000	-	-	-	-	-	-	-	-	-	-	Terminate	
"Student6Mode1"	"Seema_Shokoufeh_Track2"	"Nov 29, 2016 09:10:17 AM"	Unknown	70.98476	10/29/0116 09:11.31	00004259	13.195	Inter749t19-0	0.498	1	1	270.091	11.111	-8.9	0.309	0.000	D	F	2365.3	269.293	0.209	0.052	1457.781	1504.039	0.021	-	-0.306	1.226	-	-	-	-	-	-	-	PAVEMENT_GENERAL	Urban	F	1011101000001001	0000000000000000	-	-	-	-	-	-	-	-	-	-	Terminate	
"Student6Mode1"	"Seema_Shokoufeh_Track2"	"Nov 29, 2016 09:10:17 AM"	Unknown	71.98477	10/29/0116 09:11.32	00004319	14.421	Inter749t19-0	0.135	1	1	270.093	11.111	4.7	0.312	0.000	D	F	2516.0	268.059	0.208	-0.029	1443.976	1503.697	0.021	-	0.056	1.221	-	-	-	-	-	-	-	PAVEMENT_GENERAL	Urban	F	1011101000001001	0000000000000000	-	-	-	-	-	-	-	-	-	-	Terminate	
"Student6Mode1"	"Seema_Shokoufeh_Track2"	"Nov 29, 2016 09:10:17 AM"	Unknown	72.98479	10/29/0116 09:11.33	00004379	15.646	Inter749t19-0	-0.185	1	1	270.061	11.111	8.1	0.321	0.000	D	F	2698.8	270.237	0.204	-0.084	1428.948	1503.402	0.021	-	0.632	1.230	-	-	-	-	-	-	-	PAVEMENT_GENERAL	Urban	F	1011101000001001	0000000000000000	-	-	-	-	-	-	-	-	-	-	Terminate	
"Student6Mode1"	"Seema_Shokoufeh_Track2"	"Nov 29, 2016 09:10:17 AM"	Unknown	73.98481	10/29/0116 09:11.34	00004439	16.821	Inter749t1-2	-0.060	1	2	270.000	11.111	-3.9	0.314	0.000	D	F	2863.0	270.392	0.204	0.028	1412.710	1503.540	0.021	-	-0.194	1.157	-	-	-	-	-	-	-	PAVEMENT_GENERAL	Urban	F	1011101000001001	0000000000000000	-	-	-	-	-	-	-	-	-	-	Terminate	
"Student6Mode1"	"Seema_Shokoufeh_Track2"	"Nov 29, 2016 09:10:17 AM"	Unknown	74.98483	10/29/0116 09:11.35	00004499	17.960	Inter747t1-2	-0.005	1	2	270.000	11.111	-1.5	0.316	0.000	D	F	3021.1	270.026	0.202	0.013	1395.315	1503.602	0.021	-	-0.098	1.113	-	-	-	-	-	-	-	PAVEMENT_GENERAL	Urban	F	1011101000001001	0000000000000000	-	-	-	-	-	-	-	-	-	-	Terminate	
"Student6Mode1"	"Seema_Shokoufeh_Track2"	"Nov 29, 2016 09:10:17 AM"	Unknown	75.98486	10/29/0116 09:11.36	00004559	19.049	Inter747t1-2	-0.037	1	2	270.000	11.111	-0.2	0.314	0.000	D	F	2494.9	269.752	0.188	0.004	1376.805	1503.570	0.021	-	-0.045	0.861	-	-	-	-	-	-	-	PAVEMENT_GENERAL	Urban	F	1111101000001001	0000000000000000	-	-	-	-	-	-	-	-	-	-	Terminate	
"Student6Mode1"	"Seema_Shokoufeh_Track2"	"Nov 29, 2016 09:10:17 AM"	Unknown	76.98487	10/29/0116 09:11.37	00004619	19.705	Inter747t1-2	-0.087	1	2	270.000	11.111	6.1	0.310	0.000	D	F	2303.3	270.151	0.194	-0.040	1357.411	1503.519	0.024	-	0.307	0.600	-	-	-	-	-	-	-	PAVEMENT_GENERAL	Urban	F	1011101000001001	0000000000000000	-	-	-	-	-	-	-	-	-	-	Terminate	
"Student6Mode1"	"Seema_Shokoufeh_Track2"	"Nov 29, 2016 09:10:17 AM"	Unknown	77.98489	10/29/0116 09:11.38	00004679	20.312	Inter747t1-2	0.087	1	2	270.000	11.111	-6.4	0.323	0.000	D	F	2359.2	270.397	0.192	0.055	1337.406	1503.694	0.024	-	-0.364	0.613	-	-	-	-	-	-	-	PAVEMENT_GENERAL	Urban	F	1011101000001001	0000000000000000	-	-	-	-	-	-	-	-	-	-	Terminate	
"Student6Mode1"	"Seema_Shokoufeh_Track2"	"Nov 29, 2016 09:10:17 AM"	Unknown	78.98492	10/29/0116 09:11.39	00004739	20.915	Inter747t1-2	0.062	1	2	270.000	11.111	-4.5	0.319	0.000	D	F	2403.9	269.348	0.191	0.042	1316.790	1503.668	0.024	-	-0.325	0.589	-	-	-	-	-	-	-	PAVEMENT_GENERAL	Urban	F	1011101000001001	0000000000000000	-	-	-	-	-	-	-	-	-	-	Terminate	
"Student6Mode1"	"Seema_Shokoufeh_Track2"	"Nov 29, 2016 09:10:17 AM"	Unknown	79.98493	10/29/0116 09:11.40	00004799	21.492	Inter747t1-2	-0.266	1	2	270.000	11.111	3.3	0.316	0.000	D	F	2445.9	269.091	0.190	-0.027	1295.586	1503.341	0.024	-	0.177	0.567	-	-	-	-	-	-	-	PAVEMENT_GENERAL	Urban	F	1011101000001001	0000000000000000	-	-	-	-	-	-	-	-	-	-	Terminate	
"Student6Mode1"	"Seema_Shokoufeh_Track2"	"Nov 29, 2016 09:10:17 AM"	Unknown	80.98495	10/29/0116 09:11.41	00004859	22.037	Inter747t1-2	-0.502	1	2	270.000	11.111	10.6	0.300	0.000	D	F	2468.0	269.994	0.188	-0.088	1273.818	1503.104	0.024	-	0.625	0.500	-	-	-	-	-	-	-	PAVEMENT_GENERAL	Urban	F	1011101000001001	0000000000000000	-	-	-	-	-	-	-	-	-	-	Terminate	
"Student6Mode1"	"Seema_Shokoufeh_Track2"	"Nov 29, 2016 09:10:17 AM"	Unknown	81.98497	10/29/0116 09:11.42	00004919	22.538	Inter747t1-2	-0.235	1	2	270.000	11.111	-2.6	0.298	0.000	D	F	2508.0	271.116	0.188	0.015	1251.532	1503.372	0.024	-	-0.070	0.500	-	-	-	-	-	-	-	PAVEMENT_GENERAL	Urban	F	1011101000001001	0000000000000000	-	-	-	-	-	-	-	-	-	-	Terminate	
"Student6Mode1"	"Seema_Shokoufeh_Track2"	"Nov 29, 2016 09:10:17 AM"	Unknown	82.98499	10/29/0116 09:11.43	00004979	22.532	Inter747t1-2	0.109	1	2	270.000	11.111	-3.9	0.021	0.000	D	F	1621.4	270.514	0.175	0.038	1228.875	1503.715	0.030	-	-0.291	-0.625	-	-	-	-	-	-	-	PAVEMENT_GENERAL	Urban	F	1011101000001001	0000000000000000	-	-	-	-	-	-	-	-	-	-	Terminate	
"Student6Mode1"	"Seema_Shokoufeh_Track2"	"Nov 29, 2016 09:10:17 AM"	Unknown	83.98502	10/29/0116 09:11.44	00005039	22.448	Inter747t1-2	0.148	1	2	270.000	11.111	1.1	0.185	0.000	D	F	1879.9	269.801	0.182	-0.002	1206.423	1503.755	0.027	-	0.013	0.026	-	-	-	-	-	-	-	PAVEMENT_GENERAL	Urban	F	1011101000001001	0000000000000000	-	-	-	-	-	-	-	-	-	-	Terminate	
"Student6Mode1"	"Seema_Shokoufeh_Track2"	"Nov 29, 2016 09:10:17 AM"	Unknown	84.98503	10/29/0116 09:11.45	00005099	22.452	Inter748t1-2	0.089	1	2	270.000	11.111	1.6	0.178	0.000	D	F	1855.1	269.832	0.183	-0.002	1183.970	1503.695	0.027	-	0.026	-0.007	-	-	-	-	-	-	-	PAVEMENT_GENERAL	Urban	F	1011101000001001	0000000000000000	-	-	-	-	-	-	-	-	-	-	Terminate	
"Student6Mode1"	"Seema_Shokoufeh_Track2"	"Nov 29, 2016 09:10:17 AM"	Unknown	85.98505	10/29/0116 09:11.46	00005159	22.312	Inter748t1-2	0.085	1	2	270.000	11.111	-1.4	0.113	0.000	D	F	1712.6	270.168	0.181	0.004	1161.564	1503.692	0.028	-	0.009	-0.227	-	-	-	-	-	-	-	PAVEMENT_GENERAL	Urban	F	1011101000001001	0000000000000000	-	-	-	-	-	-	-	-	-	-	Terminate	
"Student6Mode1"	"Seema_Shokoufeh_Track2"	"Nov 29, 2016 09:10:17 AM"	Unknown	86.98507	10/29/0116 09:11.47	00005219	22.082	Inter748t1-2	0.137	1	2	270.000	11.111	0.1	0.111	0.000	D	F	1701.9	270.244	0.182	-0.010	1139.367	1503.743	0.028	-	0.075	-0.220	-	-	-	-	-	-	-	PAVEMENT_GENERAL	Urban	F	1011101000001001	0000000000000000	-	-	-	-	-	-	-	-	-	-	Terminate	
"Student6Mode1"	"Seema_Shokoufeh_Track2"	"Nov 29, 2016 09:10:17 AM"	Unknown	87.98509	10/29/0116 09:11.48	00005279	21.866	Inter748t1-2	0.192	1	2	270.000	11.111	-1.1	0.113	0.000	D	F	1697.3	269.947	0.182	0.016	1117.394	1503.799	0.028	-	-0.124	-0.210	-	-	-	-	-	-	-	PAVEMENT_GENERAL	Urban	F	1011101000001001	0000000000000000	-	-	-	-	-	-	-	-	-	-	Terminate	
"Student6Mode1"	"Seema_Shokoufeh_Track2"	"Nov 29, 2016 09:10:17 AM"	Unknown	88.98512	10/29/0116 09:11.49	00005339	21.651	Inter748t1-2	0.167	1	2	270.000	11.111	-1.8	0.111	0.000	D	F	1679.8	269.849	0.182	0.014	1095.634	1503.774	0.028	-	-0.105	-0.223	-	-	-	-	-	-	-	PAVEMENT_GENERAL	Urban	F	1011101000001001	0000000000000000	-	-	-	-	-	-	-	-	-	-	Terminate	
"Student6Mode1"	"Seema_Shokoufeh_Track2"	"Nov 29, 2016 09:10:17 AM"	Unknown	89.98513	10/29/0116 09:11.50	00005399	21.426	Inter748t1-2	0.052	1	2	270.000	11.111	1.6	0.104	0.000	D	F	1661.6	269.540	0.182	-0.005	1074.095	1503.659	0.028	-	0.015	-0.226	-	-	-	-	-	-	-	PAVEMENT_GENERAL	Urban	F	1011101000001001	0000000000000000	-	-	-	-	-	-	-	-	-	-	Terminate	
"Student6Mode1"	"Seema_Shokoufeh_Track2"	"Nov 29, 2016 09:10:17 AM"	Unknown	90.98515	10/29/0116 09:11.51	00005459	21.203	Inter748t1-2	-0.051	1	2	270.000	11.111	1.5	0.104	0.000	D	F	1645.6	269.944	0.183	-0.014	1052.781	1503.556	0.028	-	0.114	-0.218	-	-	-	-	-	-	-	PAVEMENT_GENERAL	Urban	F	1011101000001001	0000000000000000	-	-	-	-	-	-	-	-	-	-	Terminate	
"Student6Mode1"	"Seema_Shokoufeh_Track2"	"Nov 29, 2016 09:10:17 AM"	Unknown	91.98518	10/29/0116 09:11.52	00005519	20.979	Inter748t1-2	-0.011	1	2	270.000	11.111	0.6	0.109	0.000	D	F	1646.7	270.320	0.183	-0.005	1031.690	1503.596	0.028	-	0.066	-0.216	-	-	-	-	-	-	-	PAVEMENT_GENERAL	Urban	F	1011101000001001	0000000000000000	-	-	-	-	-	-	-	-	-	-	Terminate	
"Student6Mode1"	"Seema_Shokoufeh_Track2"	"Nov 29, 2016 09:10:17 AM"	Unknown	92.98519	10/29/0116 09:11.53	00005579	20.723	Inter748t1-2	0.137	1	2	270.000	11.111	-0.5	0.095	0.000	D	F	1602.4	270.554	0.184	-0.002	1010.834	1503.744	0.028	-	0.032	-0.247	-	-	-	-	-	-	-	PAVEMENT_GENERAL	Urban	F	1011101000001001	0000000000000000	-	-	-	-	-	-	-	-	-	-	Terminate	
"Student6Mode1"	"Seema_Shokoufeh_Track2"	"Nov 29, 2016 09:10:17 AM"	Unknown	93.98521	10/29/0116 09:11.54	00005639	20.535	Inter752t1-2	-0.400	1	2	269.953	24.444	-4.3	0.120	0.000	D	F	1645.9	270.092	0.149	-0.162	990.219	1503.893	0.073	-	-0.286	-0.077	-	-	-	-	-	-	-	FREEWAY_SMOOTH	Urban	F	1011101000001001	0000000000000000	-	-	-	-	-	-	-	-	-	-	Terminate	
"Student6Mode1"	"Seema_Shokoufeh_Track2"	"Nov 29, 2016 09:10:17 AM"	Unknown	94.98523	10/29/0116 09:11.55	00005699	20.419	Inter752t1-2	-0.404	1	2	269.281	24.444	-3.6	0.120	0.000	D	F	1639.0	269.090	0.282	-0.669	969.745	1503.772	0.073	-	-0.361	-0.098	-	-	-	-	-	-	-	FREEWAY_SMOOTH	Urban	F	1011101000001001	0000000000000000	-	-	-	-	-	-	-	-	-	-	Terminate	
"Student6Mode1"	"Seema_Shokoufeh_Track2"	"Nov 29, 2016 09:10:17 AM"	Unknown	95.98525	10/29/0116 09:11.56	00005759	20.355	Inter752t1-2	-0.423	1	2	267.871	24.444	-11.0	0.141	0.000	D	F	1687.9	267.510	0.273	-1.098	949.372	1503.256	0.106	-	-0.917	-0.021	-	-	-	-	-	-	-	FREEWAY_SMOOTH	Urban	F	1011101000001001	0000000000000000	-	-	-	-	-	-	-	-	-	-	Terminate	
"Student6Mode1"	"Seema_Shokoufeh_Track2"	"Nov 29, 2016 09:10:17 AM"	Unknown	96.98528	10/29/0116 09:11.57	00005819	20.320	Inter752t1-2	-0.593	1	2	265.725	24.444	-8.2	0.134	0.000	D	F	1664.3	265.036	0.260	-1.627	929.076	1501.953	0.135	-	-0.789	-0.045	-	-	-	-	-	-	-	FREEWAY_SMOOTH	Urban	F	1011101000001001	0000000000000000	-	-	-	-	-	-	-	-	-	-	Terminate	
"Student6Mode1"	"Seema_Shokoufeh_Track2"	"Nov 29, 2016 09:10:17 AM"	Unknown	97.98529	10/29/0116 09:11.58	00005879	20.260	Inter752t1-2	-0.736	1	2	262.850	24.444	-9.8	0.129	0.000	D	F	1646.2	262.415	0.259	-2.103	908.901	1499.787	0.161	-	-0.995	-0.065	-	-	-	-	-	-	-	FREEWAY_SMOOTH	Urban	F	1011101000001001	0000000000000000	-	-	-	-	-	-	-	-	-	-	Terminate	
"Student6Mode1"	"Seema_Shokoufeh_Track2"	"Nov 29, 2016 09:10:17 AM"	Unknown	98.98531	10/29/0116 09:11.59	00005939	20.172	Inter752t1-2	-0.717	1	2	259.266	24.444	-14.4	0.099	0.000	D	F	1572.1	259.646	0.288	-2.580	888.929	1496.651	0.193	-	-1.119	-0.164	-	-	-	-	-	-	-	FREEWAY_SMOOTH	Urban	F	1011101000001001	0000000000000000	-	-	-	-	-	-	-	-	-	-	Terminate	
"Student6Mode1"	"Seema_Shokoufeh_Track2"	"Nov 29, 2016 09:10:17 AM"	Unknown	99.98534	10/29/0116 09:12.00	00005999	19.998	Inter752t1-2	-0.679	1	2	255.006	24.444	-13.6	0.123	0.000	D	F	1619.4	254.162	0.229	-3.027	869.358	1492.197	0.226	-	-1.696	-0.085	-	-	-	-	-	-	-	FREEWAY_SMOOTH	Urban	F	1011101000001001	0000000000000000	-	-	-	-	-	-	-	-	-	-	Terminate	
"Student6Mode1"	"Seema_Shokoufeh_Track2"	"Nov 29, 2016 09:10:17 AM"	Unknown	100.98535	10/29/0116 09:12.01	00006059	19.968	Inter752t1-2	-0.654	1	2	250.111	24.444	-21.2	0.168	0.000	D	F	1747.3	250.671	0.224	-3.285	850.309	1486.200	0.246	-	-1.581	0.026	-	-	-	-	-	-	-	FREEWAY_SMOOTH	Urban	F	1011101000001001	0000000000000000	-	-	-	-	-	-	-	-	-	-	Terminate	
"Student6Mode1"	"Seema_Shokoufeh_Track2"	"Nov 29, 2016 09:10:17 AM"	Unknown	101.98537	10/29/0116 09:12.02	00006119	20.002	Inter752t1-2	-0.503	1	2	245.106	24.444	-18.5	0.173	0.000	D	F	1765.5	244.633	0.159	-3.245	831.800	1478.685	0.256	-	-2.007	0.069	-	-	-	-	-	-	-	FREEWAY_SMOOTH	Urban	F	1011101000001001	0000000000000000	-	-	-	-	-	-	-	-	-	-	Terminate	
"Student6Mode1"	"Seema_Shokoufeh_Track2"	"Nov 29, 2016 09:10:17 AM"	Unknown	102.98539	10/29/0116 09:12.03	00006179	20.042	Inter752t1-2	-0.558	1	2	240.090	24.444	-12.8	0.169	0.000	D	F	1750.0	239.753	0.167	-3.322	814.073	1469.379	0.252	-	-1.456	0.043	-	-	-	-	-	-	-	FREEWAY_SMOOTH	Urban	F	1011101000001001	0000000000000000	-	-	-	-	-	-	-	-	-	-	Terminate	
"Student6Mode1"	"Seema_Shokoufeh_Track2"	"Nov 29, 2016 09:10:17 AM"	Unknown	103.98541	10/29/0116 09:12.04	00006239	20.082	Inter752t1-2	-0.353	1	2	235.071	24.444	-20.0	0.169	0.000	D	F	1762.1	235.950	0.243	-3.288	797.056	1458.755	0.264	-	-1.644	0.043	-	-	-	-	-	-	-	FREEWAY_SMOOTH	Urban	F	1011101000001001	0000000000000000	-	-	-	-	-	-	-	-	-	-	Terminate	
"Student6Mode1"	"Seema_Shokoufeh_Track2"	"Nov 29, 2016 09:10:17 AM"	Unknown	104.98544	10/29/0116 09:12.05	00006299	20.116	Inter752t1-2	-0.062	1	2	230.054	24.444	-22.9	0.173	0.000	D	F	1758.1	229.653	0.160	-3.199	780.958	1446.730	0.282	-	-2.362	0.044	-	-	-	-	-	-	-	FREEWAY_SMOOTH	Urban	F	1011101000001001	0000000000000000	-	-	-	-	-	-	-	-	-	-	Terminate	
"Student6Mode1"	"Seema_Shokoufeh_Track2"	"Nov 29, 2016 09:10:17 AM"	Unknown	105.98545	10/29/0116 09:12.06	00006359	20.147	Inter752t1-2	-0.231	1	2	225.029	24.444	-17.2	0.171	0.000	D	F	1760.9	223.672	0.108	-3.260	766.264	1432.980	0.272	-	-1.898	0.049	-	-	-	-	-	-	-	FREEWAY_SMOOTH	Urban	F	1011101000001001	0000000000000000	-	-	-	-	-	-	-	-	-	-	Terminate	
"Student6Mode1"	"Seema_Shokoufeh_Track2"	"Nov 29, 2016 09:10:17 AM"	Unknown	106.98547	10/29/0116 09:12.07	00006419	20.231	Inter752t1-2	-0.582	1	2	219.950	24.444	-14.0	0.206	0.000	D	F	1848.9	218.524	0.100	-3.296	752.935	1417.834	0.251	-	-1.677	0.158	-	-	-	-	-	-	-	FREEWAY_SMOOTH	Urban	F	1011101000001001	0000000000000000	-	-	-	-	-	-	-	-	-	-	Terminate	
"Student6Mode1"	"Seema_Shokoufeh_Track2"	"Nov 29, 2016 09:10:17 AM"	Unknown	107.98550	10/29/0116 09:12.08	00006479	20.681	Inter752t1-2	-0.688	1	2	214.837	24.444	-16.1	0.363	0.000	D	F	2365.1	215.397	0.230	-3.336	740.658	1401.516	0.242	-	-1.250	0.609	-	-	-	-	-	-	-	FREEWAY_SMOOTH	Urban	F	1011101000001001	0000000000000000	-	-	-	-	-	-	-	-	-	-	Terminate	
"Student6Mode1"	"Seema_Shokoufeh_Track2"	"Nov 29, 2016 09:10:17 AM"	Unknown	108.98551	10/29/0116 09:12.09	00006539	21.294	Inter752t1-2	-0.331	1	2	209.584	24.444	-23.6	0.360	0.000	D	F	2446.2	209.973	0.214	-3.228	729.217	1383.925	0.263	-	-2.185	0.623	-	-	-	-	-	-	-	FREEWAY_SMOOTH	Urban	F	1011101000001001	0000000000000000	-	-	-	-	-	-	-	-	-	-	Terminate	
"Student6Mode1"	"Seema_Shokoufeh_Track2"	"Nov 29, 2016 09:10:17 AM"	Unknown	109.98553	10/29/0116 09:12.10	00006599	21.884	Inter752t1-2	-0.162	1	2	204.179	24.444	-23.7	0.340	0.000	D	F	2489.2	203.450	0.142	-3.175	719.354	1364.727	0.274	-	-2.503	0.607	-	-	-	-	-	-	-	FREEWAY_SMOOTH	Urban	F	1011101000001001	0000000000000000	-	-	-	-	-	-	-	-	-	-	Terminate	
"Student6Mode1"	"Seema_Shokoufeh_Track2"	"Nov 29, 2016 09:10:17 AM"	Unknown	110.98555	10/29/0116 09:12.11	00006659	22.465	Inter752t1-2	-0.308	1	2	198.629	24.444	-16.6	0.339	0.000	D	F	2535.1	197.634	0.121	-3.255	711.450	1344.015	0.265	-	-1.991	0.595	-	-	-	-	-	-	-	FREEWAY_SMOOTH	Urban	F	1011101000001001	0000000000000000	-	-	-	-	-	-	-	-	-	-	Terminate	
"Student6Mode1"	"Seema_Shokoufeh_Track2"	"Nov 29, 2016 09:10:17 AM"	Unknown	111.98557	10/29/0116 09:12.12	00006719	22.999	Inter752t1-2	-0.240	1	2	193.271	24.444	-13.9	0.335	0.000	D	F	2577.6	193.828	0.115	-2.831	705.214	1322.153	0.237	-	-1.442	0.522	-	-	-	-	-	-	-	FREEWAY_SMOOTH	Urban	F	1011101000001001	0000000000000000	-	-	-	-	-	-	-	-	-	-	Terminate	
"Student6Mode1"	"Seema_Shokoufeh_Track2"	"Nov 29, 2016 09:10:17 AM"	Unknown	112.98560	10/29/0116 09:12.13	00006779	23.488	Inter752t1-2	0.147	1	2	188.728	24.444	-28.7	0.332	0.000	D	F	2607.9	188.026	0.038	-2.065	700.476	1299.398	0.214	-	-2.885	0.505	-	-	-	-	-	-	-	FREEWAY_SMOOTH	Urban	F	1011101000001001	0000000000000000	-	-	-	-	-	-	-	-	-	-	Terminate	
"Student6Mode1"	"Seema_Shokoufeh_Track2"	"Nov 29, 2016 09:10:17 AM"	Unknown	113.98561	10/29/0116 09:12.14	00006839	23.973	Inter752t1-2	-0.433	1	2	185.038	24.444	-0.4	0.471	0.000	D	F	2684.6	181.932	-0.019	-1.703	698.282	1275.789	0.150	-	-1.270	0.588	-	-	-	-	-	-	-	FREEWAY_SMOOTH	Urban	F	1011101000001001	0000000000000000	-	-	-	-	-	-	-	-	-	-	Terminate	
"Student6Mode1"	"Seema_Shokoufeh_Track2"	"Nov 29, 2016 09:10:17 AM"	Unknown	114.98563	10/29/0116 09:12.15	00006899	24.592	Inter752t1-2	-0.955	1	2	182.302	24.444	-1.4	0.621	0.000	D	F	2757.6	182.614	0.111	-1.245	697.311	1251.528	0.098	-	-0.007	0.658	-	-	-	-	-	-	-	FREEWAY_SMOOTH	Urban	F	1011101000001001	0000000000000000	-	-	-	-	-	-	-	-	-	-	Terminate	
"Student6Mode1"	"Seema_Shokoufeh_Track2"	"Nov 29, 2016 09:10:17 AM"	Unknown	115.98566	10/29/0116 09:12.16	00006959	25.206	Inter752t1-2	-0.678	1	2	180.591	24.444	-5.2	0.416	0.000	D	F	2791.9	180.642	0.092	-0.517	696.460	1226.635	0.066	-	-0.917	0.568	-	-	-	-	-	-	-	FREEWAY_SMOOTH	Urban	F	1011101000001001	0000000000000000	-	-	-	-	-	-	-	-	-	-	Terminate	
"Student6Mode1"	"Seema_Shokoufeh_Track2"	"Nov 29, 2016 09:10:17 AM"	Unknown	116.98567	10/29/0116 09:12.17	00007019	24.956	Inter752t1-2	-0.562	1	2	180.000	24.444	-5.1	0.000	0.000	D	F	1739.8	179.808	0.072	0.070	696.262	1201.412	0.033	-	-0.524	-0.729	-	-	-	Ambient320	6.905	172.318	11.688	FREEWAY_SMOOTH	Urban	F	1011101000001001	0000000000000000	-	-	-	-	-	-	-	-	-	-	Terminate	
"Student6Mode1"	"Seema_Shokoufeh_Track2"	"Nov 29, 2016 09:10:17 AM"	Unknown	117.98569	10/29/0116 09:12.18	00007079	24.270	Inter754t3-2	-0.121	1	2	180.000	11.111	-3.3	0.000	0.000	D	F	1655.2	178.879	0.172	0.043	696.514	1176.802	0.030	-	-0.317	-0.677	-	-	-	Ambient320	6.604	160.284	11.403	PAVEMENT_GENERAL	Urban	F	1011101000001001	0000000000000000	-	-	-	-	-	-	-	-	-	-	Terminate	
"Student6Mode1"	"Seema_Shokoufeh_Track2"	"Nov 29, 2016 09:10:17 AM"	Unknown	118.98571	10/29/0116 09:12.19	00007139	23.595	Inter754t3-2	-0.422	1	2	180.000	11.111	5.8	0.000	0.000	D	F	1608.4	180.640	0.169	-0.132	696.815	1152.872	0.030	-	0.985	-0.665	-	-	-	Ambient320	6.212	146.567	10.953	PAVEMENT_GENERAL	Urban	F	1111101000001001	0000000000000000	-	-	-	-	-	-	-	-	-	-	Terminate	
"Student6Mode1"	"Seema_Shokoufeh_Track2"	"Nov 29, 2016 09:10:17 AM"	Unknown	119.98573	10/29/0116 09:12.20	00007199	22.935	Inter754t3-2	-0.123	1	2	180.000	11.111	-5.7	0.000	0.000	D	F	1563.6	180.371	0.174	0.080	696.516	1129.610	0.030	-	-0.577	-0.653	-	-	-	Ambient320	5.822	133.519	10.496	PAVEMENT_GENERAL	Urban	F	1011101000001001	0000000000000000	-	-	-	-	-	-	-	-	-	-	Terminate	
"Student6Mode1"	"Seema_Shokoufeh_Track2"	"Nov 29, 2016 09:10:17 AM"	Unknown	120.98576	10/29/0116 09:12.21	00007259	22.287	Inter754t3-2	-0.080	1	2	180.000	11.111	2.0	0.000	0.000	D	F	1519.4	180.010	0.176	-0.019	696.474	1107.000	0.030	-	0.119	-0.640	-	-	-	Ambient320	5.435	121.123	10.032	PAVEMENT_GENERAL	Urban	F	1011101000001001	0000000000000000	-	-	-	-	-	-	-	-	-	-	Terminate	
"Student6Mode1"	"Seema_Shokoufeh_Track2"	"Nov 29, 2016 09:10:17 AM"	Unknown	121.98577	10/29/0116 09:12.22	00007319	21.652	Inter754t9-0	-0.063	1	1	179.991	11.111	-5.7	0.000	0.000	D	F	1476.3	179.533	0.177	0.079	696.457	1085.032	0.030	-	-0.563	-0.631	-	-	-	Ambient320	5.051	109.368	9.561	PAVEMENT_GENERAL	Urban	F	1011101000001001	0000000000000000	-	-	-	-	-	-	-	-	-	-	Terminate	
"Student6Mode1"	"Seema_Shokoufeh_Track2"	"Nov 29, 2016 09:10:17 AM"	Unknown	122.98579	10/29/0116 09:12.23	00007379	21.026	Inter754t9-0	-0.399	1	1	179.989	11.111	-1.3	0.000	0.000	D	F	1433.5	178.532	0.179	0.029	696.797	1063.697	0.030	-	-0.230	-0.620	-	-	-	Ambient320	4.557	95.814	8.861	PAVEMENT_GENERAL	Urban	F	1011101000001001	0000000000000000	-	-	-	-	-	-	-	-	-	-	Terminate	
"Student6Mode1"	"Seema_Shokoufeh_Track2"	"Nov 29, 2016 09:10:17 AM"	Unknown	123.98581	10/29/0116 09:12.24	00007439	20.409	Inter754t9-0	-0.916	1	1	179.994	11.111	15.6	0.000	0.000	D	F	1391.3	179.330	0.179	-0.150	697.318	1042.986	0.030	-	1.064	-0.615	-	-	-	Ambient320	4.296	87.671	8.599	PAVEMENT_GENERAL	Urban	F	1011101000001001	0000000000000000	-	-	-	-	-	-	-	-	-	-	Terminate	
"Student6Mode1"	"Seema_Shokoufeh_Track2"	"Nov 29, 2016 09:10:17 AM"	Unknown	124.98583	10/29/0116 09:12.25	00007499	19.956	Inter754t9-0	-0.625	1	1	179.996	11.111	-4.4	0.056	0.000	D	F	1479.5	182.053	0.182	0.006	697.028	1022.836	0.028	-	0.071	-0.370	-	-	-	Ambient320	3.899	77.798	7.985	PAVEMENT_GENERAL	Urban	F	1011101000001001	0000000000000000	-	-	-	-	-	-	-	-	-	-	Terminate	
"Student6Mode1"	"Seema_Shokoufeh_Track2"	"Nov 29, 2016 09:10:17 AM"	Unknown	125.98586	10/29/0116 09:12.26	00007559	19.633	Inter754t1-1	-0.136	1	1	180.000	11.111	-6.9	0.099	0.000	D	F	1561.4	180.454	0.186	0.080	696.540	1003.062	0.028	-	-0.607	-0.202	-	-	-	Ambient320	3.476	68.252	7.246	PAVEMENT_GENERAL	Urban	F	1011101000001001	0000000000000000	-	-	-	-	-	-	-	-	-	-	Terminate	
"Student6Mode1"	"Seema_Shokoufeh_Track2"	"Nov 29, 2016 09:10:17 AM"	Unknown	126.98587	10/29/0116 09:12.27	00007619	19.340	Inter686t1-0	-0.126	1	1	180.000	11.111	1.1	0.004	0.000	D	F	1318.7	179.797	0.179	-0.004	696.522	983.546	0.029	-	0.017	-0.562	-	-	-	Ambient320	3.048	58.951	6.459	PAVEMENT_GENERAL	Urban	F	1011101000001001	0000000000000000	-	-	-	-	-	-	-	-	-	-	Terminate	
"Student6Mode1"	"Seema_Shokoufeh_Track2"	"Nov 29, 2016 09:10:17 AM"	Unknown	127.98589	10/29/0116 09:12.28	00007679	18.752	Inter686t1-0	-0.136	1	1	180.000	11.111	-1.4	0.000	0.000	D	F	1278.7	180.132	0.183	0.004	696.532	964.501	0.029	-	-0.012	-0.585	-	-	-	Ambient320	2.673	50.119	5.869	PAVEMENT_GENERAL	Urban	F	1011101000001001	0000000000000000	-	-	-	-	-	-	-	-	-	-	Terminate	
"Student6Mode1"	"Seema_Shokoufeh_Track2"	"Nov 29, 2016 09:10:17 AM"	Unknown	128.98592	10/29/0116 09:12.29	00007739	18.172	Inter686t1-0	-0.162	1	1	180.000	11.111	0.4	0.000	0.006	D	F	1239.2	179.722	0.184	0.002	696.558	946.039	0.029	-	-0.028	-0.576	-	-	-	Ambient320	2.304	41.871	5.261	PAVEMENT_GENERAL	Urban	F	1011101000001001	0000000000000000	-	-	-	-	-	-	-	-	-	-	Terminate	
"Student6Mode1"	"Seema_Shokoufeh_Track2"	"Nov 29, 2016 09:10:17 AM"	Unknown	129.98593	10/29/0116 09:12.30	00007799	16.797	Inter686t1-0	-0.224	1	1	180.000	11.111	0.9	0.000	0.152	D	F	1121.6	179.929	0.141	-0.009	696.620	928.412	0.032	-	0.072	-2.410	-	-	-	Ambient320	2.051	34.457	5.233	PAVEMENT_GENERAL	Urban	F	1011101000001001	0000000000000000	-	-	-	-	-	-	-	-	-	-	Terminate	
"Student6Mode1"	"Seema_Shokoufeh_Track2"	"Nov 29, 2016 09:10:17 AM"	Unknown	130.98595	10/29/0116 09:12.31	00007859	14.590	Inter686t1-0	-0.235	1	1	180.000	11.111	-0.3	0.000	0.036	D	F	991.3	179.957	0.197	0.002	696.632	912.850	0.030	-	-0.018	-0.946	-	-	-	Ambient320	1.995	29.109	6.651	PAVEMENT_GENERAL	Urban	F	1011101000001001	0000000000000000	-	-	-	-	-	-	-	-	-	-	Terminate	
"Student6Mode1"	"Seema_Shokoufeh_Track2"	"Nov 29, 2016 09:10:17 AM"	Unknown	131.98598	10/29/0116 09:12.32	00007919	13.645	Inter686t1-0	-0.247	1	1	180.000	11.111	0.4	0.000	0.069	D	F	922.1	179.974	0.175	-0.002	696.643	898.679	0.030	-	0.017	-1.310	-	-	-	Ambient320	1.843	25.152	7.329	PAVEMENT_GENERAL	Urban	F	1011101000001001	0000000000000000	-	-	-	-	-	-	-	-	-	-	Terminate	
"Student6Mode1"	"Seema_Shokoufeh_Track2"	"Nov 29, 2016 09:10:17 AM"	Unknown	132.98599	10/29/0116 09:12.33	00007979	12.116	Inter686t1-0	-0.241	1	1	180.000	11.111	0.7	0.000	0.006	D	F	1162.8	180.100	0.199	-0.004	696.637	885.812	0.031	-	0.034	-0.706	-	-	-	Ambient320	1.857	22.498	11.826	PAVEMENT_GENERAL	Urban	F	1011101000001001	0000000000000000	-	-	-	-	-	-	-	-	-	-	Terminate	
"Student6Mode1"	"Seema_Shokoufeh_Track2"	"Nov 29, 2016 09:10:17 AM"	Unknown	133.98601	10/29/0116 09:12.34	00008039	11.588	Inter686t1-0	-0.209	1	1	180.000	11.111	-0.3	0.000	0.000	D	F	1138.0	180.184	0.193	0.001	696.605	873.961	0.029	-	-0.005	-0.522	-	-	-	Ambient320	1.800	20.861	15.169	PAVEMENT_GENERAL	Urban	F	1011101000001001	0000000000000000	-	-	-	-	-	-	-	-	-	-	Terminate	
"Student6Mode1"	"Seema_Shokoufeh_Track2"	"Nov 29, 2016 09:10:17 AM"	Unknown	134.98604	10/29/0116 09:12.35	00008099	11.070	Inter686t1-0	-0.182	1	1	180.000	11.111	-0.5	0.000	0.000	D	F	1087.6	180.068	0.194	0.005	696.578	862.633	0.029	-	-0.025	-0.514	-	-	-	Ambient320	1.784	19.746	23.038	PAVEMENT_GENERAL	Urban	F	1011101000001001	0000000000000000	-	-	-	-	-	-	-	-	-	-	Terminate	
"Student6Mode1"	"Seema_Shokoufeh_Track2"	"Nov 29, 2016 09:10:17 AM"	Unknown	135.98605	10/29/0116 09:12.36	00008159	10.559	Inter686t1-0	-0.177	1	1	180.000	11.111	-0.2	0.000	0.000	D	F	1037.6	179.993	0.194	0.001	696.573	851.818	0.029	-	-0.009	-0.507	-	-	-	Ambient320	1.813	19.145	55.299	PAVEMENT_GENERAL	Urban	F	1011101000001001	0000000000000000	-	-	-	-	-	-	-	-	-	-	Terminate	
"Student6Mode1"	"Seema_Shokoufeh_Track2"	"Nov 29, 2016 09:10:17 AM"	Unknown	136.98607	10/29/0116 09:12.37	00008219	10.056	Inter686t1-0	-0.181	1	1	180.000	11.111	-0.1	0.000	0.000	D	F	988.1	179.967	0.195	0.001	696.577	841.511	0.029	-	-0.004	-0.500	-	-	-	Ambient320	1.895	19.052	-	PAVEMENT_GENERAL	Urban	F	1011101000001001	0000000000000000	-	-	-	-	-	-	-	-	-	-	Terminate	
"Student6Mode1"	"Seema_Shokoufeh_Track2"	"Nov 29, 2016 09:10:17 AM"	Unknown	137.98610	10/29/0116 09:12.38	00008279	9.559	Inter686t1-0	-0.189	1	1	180.000	11.111	-0.2	0.000	0.000	D	F	939.3	179.942	0.195	0.001	696.585	831.705	0.029	-	-0.005	-0.494	-	-	-	Ambient320	2.036	19.459	-	PAVEMENT_GENERAL	Urban	F	1111101000001001	0000000000000000	-	-	-	-	-	-	-	-	-	-	Terminate	
"Student6Mode1"	"Seema_Shokoufeh_Track2"	"Nov 29, 2016 09:10:17 AM"	Unknown	138.98611	10/29/0116 09:12.39	00008339	9.069	Inter686t1-0	-0.203	1	1	180.000	11.111	-0.1	0.000	0.000	D	F	891.3	179.889	0.196	-0.001	696.599	822.391	0.029	-	-0.004	-0.486	-	-	-	Ambient320	2.245	20.359	-	PAVEMENT_GENERAL	Urban	F	1111101000001001	0000000000000000	-	-	-	-	-	-	-	-	-	-	Terminate	
"Student6Mode1"	"Seema_Shokoufeh_Track2"	"Nov 29, 2016 09:10:17 AM"	Unknown	139.98613	10/29/0116 09:12.40	00008399	9.397	Inter686t1-0	-0.222	1	1	180.000	11.111	-0.8	0.164	0.000	D	F	1575.9	179.865	0.206	0.003	696.618	813.271	0.023	-	-0.020	0.681	-	-	-	Ambient320	2.283	21.453	-	PAVEMENT_GENERAL	Urban	F	1011101000001001	0000000000000000	-	-	-	-	-	-	-	-	-	-	Terminate	
"Student6Mode1"	"Seema_Shokoufeh_Track2"	"Nov 29, 2016 09:10:17 AM"	Unknown	140.98616	10/29/0116 09:12.41	00008459	10.124	Inter686t1-0	-0.252	1	1	180.000	11.111	0.0	0.176	0.000	D	F	1625.2	179.816	0.207	-0.000	696.648	803.511	0.023	-	0.000	0.708	-	-	-	Ambient320	2.164	21.906	-	PAVEMENT_GENERAL	Urban	F	1011101000001001	0000000000000000	-	-	-	-	-	-	-	-	-	-	Terminate	
"Student6Mode1"	"Seema_Shokoufeh_Track2"	"Nov 29, 2016 09:10:17 AM"	Unknown	141.98618	10/29/0116 09:12.42	00008519	10.770	Inter682t1-1	-0.270	1	1	180.000	11.111	1.2	0.168	0.000	D	F	1624.8	179.927	0.205	-0.005	696.674	793.055	0.024	-	0.039	0.597	-	-	-	Ambient320	2.011	21.664	38.872	PAVEMENT_GENERAL	Urban	F	1011101000001001	0000000000000000	-	-	-	-	-	-	-	-	-	-	Terminate	
"Student6Mode1"	"Seema_Shokoufeh_Track2"	"Nov 29, 2016 09:10:17 AM"	Unknown	142.98619	10/29/0116 09:12.43	00008579	11.324	Inter682t1-1	-0.258	1	1	180.000	11.111	1.0	0.141	0.000	D	F	1572.3	180.175	0.199	-0.005	696.662	781.992	0.024	-	0.038	0.401	-	-	-	Ambient320	1.838	20.814	18.739	PAVEMENT_GENERAL	Urban	F	1011101000001001	0000000000000000	-	-	-	-	-	-	-	-	-	-	Terminate	
"Student6Mode1"	"Seema_Shokoufeh_Track2"	"Nov 29, 2016 09:10:17 AM"	Unknown	143.98621	10/29/0116 09:12.44	00008639	11.347	Inter682t1-1	-0.215	1	1	180.000	11.111	0.5	0.076	0.000	D	F	1359.7	180.203	0.201	0.002	696.618	770.607	0.027	-	0.003	-0.028	-	-	-	Ambient320	1.731	19.643	17.331	PAVEMENT_GENERAL	Urban	F	1011101000001001	0000000000000000	-	-	-	-	-	-	-	-	-	-	Terminate	
"Student6Mode1"	"Seema_Shokoufeh_Track2"	"Nov 29, 2016 09:10:17 AM"	Unknown	144.98624	10/29/0116 09:12.45	00008699	11.518	Inter682t1-1	-0.167	1	1	180.000	11.111	-1.4	0.109	0.000	D	F	1494.5	180.227	0.200	0.007	696.571	759.191	0.025	-	-0.043	0.198	-	-	-	Ambient320	1.601	18.441	14.131	PAVEMENT_GENERAL	Urban	F	1011101000001001	0000000000000000	-	-	-	-	-	-	-	-	-	-	Terminate	
"Student6Mode1"	"Seema_Shokoufeh_Track2"	"Nov 29, 2016 09:10:17 AM"	Unknown	145.98625	10/29/0116 09:12.46	00008759	11.689	Inter682t1-1	-0.137	1	1	180.000	11.111	0.2	0.099	0.000	D	F	1464.4	180.121	0.199	-0.000	696.541	747.582	0.026	-	0.002	0.131	-	-	-	Ambient320	1.458	17.045	11.550	PAVEMENT_GENERAL	Urban	F	1011101000001001	0000000000000000	-	-	-	-	-	-	-	-	-	-	Terminate	
"Student6Mode1"	"Seema_Shokoufeh_Track2"	"Nov 29, 2016 09:10:17 AM"	Unknown	146.98627	10/29/0116 09:12.47	00008819	11.481	Inter682t1-1	-0.108	1	1	180.000	11.111	-0.4	0.000	0.000	D	F	1127.7	180.167	0.192	0.001	696.511	735.927	0.029	-	-0.008	-0.519	-	-	-	Ambient320	1.359	15.604	12.307	PAVEMENT_GENERAL	Urban	F	1011101000001001	0000000000000000	-	-	-	-	-	-	-	-	-	-	Terminate	
"Student6Mode1"	"Seema_Shokoufeh_Track2"	"Nov 29, 2016 09:10:17 AM"	Unknown	147.98630	10/29/0116 09:12.48	00008879	10.964	Inter682t1-1	-0.093	1	1	180.000	11.111	2.1	0.002	0.000	D	F	1077.2	179.986	0.194	-0.005	696.497	724.705	0.029	-	0.046	-0.512	-	-	-	Ambient320	1.331	14.595	19.428	PAVEMENT_GENERAL	Urban	F	1011101000001001	0000000000000000	-	-	-	-	-	-	-	-	-	-	Terminate	
"Student6Mode1"	"Seema_Shokoufeh_Track2"	"Nov 29, 2016 09:10:17 AM"	Unknown	148.98631	10/29/0116 09:12.49	00008939	10.738	Inter682t1-1	-0.063	1	1	180.000	11.111	-3.7	0.058	0.000	D	F	1270.5	180.159	0.199	0.014	696.467	713.897	0.027	-	-0.104	-0.071	-	-	-	Ambient320	1.304	14.001	26.672	PAVEMENT_GENERAL	Urban	F	1011101000001001	0000000000000000	-	-	-	-	-	-	-	-	-	-	Terminate	
"Student6Mode1"	"Seema_Shokoufeh_Track2"	"Nov 29, 2016 09:10:17 AM"	Unknown	149.98633	10/29/0116 09:12.50	00008999	10.551	Inter682t1-1	-0.072	1	1	180.000	11.111	0.9	0.046	0.000	D	F	1207.3	179.907	0.198	-0.003	696.476	703.254	0.027	-	0.025	-0.164	-	-	-	Ambient320	1.286	13.572	40.155	PAVEMENT_GENERAL	Urban	F	1011101000001001	0000000000000000	-	-	-	-	-	-	-	-	-	-	Terminate	
"Student6Mode1"	"Seema_Shokoufeh_Track2"	"Nov 29, 2016 09:10:17 AM"	Unknown	150.98636	10/29/0116 09:12.51	00009059	10.457	Inter682t1-1	-0.077	1	1	180.000	11.111	0.4	0.111	0.000	D	F	1461.7	180.018	0.209	-0.002	696.480	692.778	0.026	-	0.012	0.298	-	-	-	Ambient320	1.273	13.310	54.553	PAVEMENT_GENERAL	Urban	F	1011101000001001	0000000000000000	-	-	-	-	-	-	-	-	-	-	Terminate	
"Student6Mode1"	"Seema_Shokoufeh_Track2"	"Nov 29, 2016 09:10:17 AM"	Unknown	151.98637	10/29/0116 09:12.52	00009119	10.424	Inter682t1-1	-0.066	1	1	180.000	11.111	0.7	0.000	0.000	D	F	1024.0	180.111	0.192	-0.005	696.470	682.250	0.028	-	0.027	-0.504	-	-	-	Ambient320	1.247	12.995	61.504	PAVEMENT_GENERAL	Urban	F	1011101000001001	0000000000000000	-	-	-	-	-	-	-	-	-	-	Terminate	
"Student6Mode1"	"Seema_Shokoufeh_Track2"	"Nov 29, 2016 09:10:17 AM"	Unknown	152.98639	10/29/0116 09:12.53	00009179	9.922	Inter682t1-1	-0.016	1	1	180.000	11.111	2.0	0.000	0.000	D	F	975.0	180.445	0.195	-0.008	696.420	672.077	0.029	-	0.065	-0.499	-	-	-	Ambient320	1.314	13.035	-	PAVEMENT_GENERAL	Urban	F	1011101000001001	0000000000000000	-	-	-	-	-	-	-	-	-	-	Terminate	
"Student6Mode1"	"Seema_Shokoufeh_Track2"	"Nov 29, 2016 09:10:17 AM"	Unknown	153.98642	10/29/0116 09:12.54	00009239	9.427	Inter682t1-1	0.093	1	1	180.000	11.111	1.1	0.000	0.000	D	F	926.4	180.795	0.195	-0.006	696.311	662.403	0.029	-	0.041	-0.492	-	-	-	Ambient320	1.440	13.575	-	PAVEMENT_GENERAL	Urban	F	1011101000001001	0000000000000000	-	-	-	-	-	-	-	-	-	-	Terminate	
"Student6Mode1"	"Seema_Shokoufeh_Track2"	"Nov 29, 2016 09:10:17 AM"	Unknown	154.98643	10/29/0116 09:12.55	00009299	8.939	Inter682t1-1	0.161	1	1	180.000	11.111	-7.2	0.002	0.000	D	F	878.0	179.955	0.196	0.025	696.243	653.221	0.029	-	-0.193	-0.483	-	-	-	Ambient320	1.634	14.607	-	PAVEMENT_GENERAL	Urban	F	1011101000001001	0000000000000000	-	-	-	-	-	-	-	-	-	-	Terminate	
"Student6Mode1"	"Seema_Shokoufeh_Track2"	"Nov 29, 2016 09:10:17 AM"	Unknown	155.98645	10/29/0116 09:12.56	00009359	8.695	Inter682t1-1	0.073	1	1	180.000	11.111	3.6	0.088	0.000	D	F	1306.4	179.315	0.203	-0.010	696.331	644.469	0.026	-	0.079	0.182	-	-	-	Ambient320	1.848	16.069	-	PAVEMENT_GENERAL	Urban	F	1011101000001001	0000000000000000	-	-	-	-	-	-	-	-	-	-	Terminate	
"Student6Mode1"	"Seema_Shokoufeh_Track2"	"Nov 29, 2016 09:10:17 AM"	Unknown	156.98647	10/29/0116 09:12.57	00009419	8.942	Inter682t1-1	0.050	1	1	180.000	11.111	4.4	0.072	0.000	D	F	1254.2	180.270	0.200	-0.015	696.354	635.644	0.025	-	0.113	0.130	-	-	-	Ambient320	1.952	17.457	-	PAVEMENT_GENERAL	Urban	F	1011101000001001	0000000000000000	-	-	-	-	-	-	-	-	-	-	Terminate	
"Student6Mode1"	"Seema_Shokoufeh_Track2"	"Nov 29, 2016 09:10:17 AM"	Unknown	157.98650	10/29/0116 09:12.58	00009479	9.091	Inter682t1-1	0.112	1	1	180.000	11.111	-2.1	0.129	0.000	D	F	1443.0	180.294	0.207	0.000	696.292	626.642	0.025	-	-0.046	0.355	-	-	-	Ambient320	2.054	18.669	-	PAVEMENT_GENERAL	Urban	F	1011101000001001	0000000000000000	-	-	-	-	-	-	-	-	-	-	Terminate	
"Student6Mode1"	"Seema_Shokoufeh_Track2"	"Nov 29, 2016 09:10:17 AM"	Unknown	158.98651	10/29/0116 09:12.59	00009539	10.218	Inter682t1-1	0.074	1	1	180.000	11.111	-4.2	0.399	0.000	D	F	2095.3	179.281	0.217	0.020	696.330	617.114	0.019	-	-0.147	1.648	-	-	-	Ambient320	1.894	19.355	-	PAVEMENT_GENERAL	Urban	F	1011101000001001	0000000000000000	-	-	-	-	-	-	-	-	-	-	Terminate	
"Student6Mode1"	"Seema_Shokoufeh_Track2"	"Nov 29, 2016 09:10:17 AM"	Unknown	159.98653	10/29/0116 09:13.00	00009599	11.838	Inter682t1-1	-0.083	1	1	180.000	11.111	4.5	0.414	0.000	D	F	2266.6	179.357	0.213	-0.023	696.487	606.076	0.019	-	0.157	1.551	-	-	-	Ambient320	1.565	18.530	11.406	PAVEMENT_GENERAL	Urban	F	1111101000001001	0000000000000000	-	-	-	-	-	-	-	-	-	-	Terminate	
"Student6Mode1"	"Seema_Shokoufeh_Track2"	"Nov 29, 2016 09:10:17 AM"	Unknown	160.98656	10/29/0116 09:13.01	00009659	13.317	Inter688t25-1	-0.163	1	1	180.000	11.111	0.1	0.303	0.000	D	F	2393.4	179.832	0.211	-0.003	696.559	593.488	0.020	-	0.024	1.409	-	-	-	Ambient320	1.213	16.156	5.206	PAVEMENT_GENERAL	Urban	F	1011101000001001	0000000000000000	-	-	-	-	-	-	-	-	-	-	Terminate	
"Student6Mode1"	"Seema_Shokoufeh_Track2"	"Nov 29, 2016 09:10:17 AM"	Unknown	161.98657	10/29/0116 09:13.02	00009719	13.532	Inter688t33-0	-0.160	1	1	175.285	11.111	-21.2	0.125	0.000	D	F	1620.6	177.328	0.197	0.145	696.774	580.012	0.026	-	-1.088	0.133	-	-	-	Ambient320	0.953	12.894	3.885	PAVEMENT_GENERAL	Urban	F	1011101000001001	0000000000000000	-	-	-	-	-	-	-	-	-	-	Terminate	
"Student6Mode1"	"Seema_Shokoufeh_Track2"	"Nov 29, 2016 09:10:17 AM"	Unknown	162.98659	10/29/0116 09:13.03	00009779	13.789	Inter688t33-0	-0.084	1	1	173.563	11.111	1.6	0.168	0.000	D	F	1751.6	174.510	0.200	0.003	697.831	566.404	0.025	-	-0.073	0.353	-	-	-	Ambient320	0.689	9.501	2.657	PAVEMENT_GENERAL	Urban	F	1011101000001001	0000000000000000	-	-	-	-	-	-	-	-	-	-	Terminate	
"Student6Mode1"	"Seema_Shokoufeh_Track2"	"Nov 29, 2016 09:10:17 AM"	Unknown	163.98662	10/29/0116 09:13.04	00009839	13.470	Inter688t33-0	0.290	1	1	176.027	11.111	11.1	0.000	0.078	D	F	1310.7	176.324	0.177	-0.082	698.988	552.709	0.029	-	0.581	-1.212	-	-	-	Ambient320	0.618	8.322	2.555	PAVEMENT_GENERAL	Urban	F	1011101000001001	0000000000000000	-	-	-	-	-	-	-	-	-	-	Terminate	
"Student6Mode1"	"Seema_Shokoufeh_Track2"	"Nov 29, 2016 09:10:17 AM"	Unknown	164.98663	10/29/0116 09:13.05	00009899	10.003	Inter688t27-1	0.373	LT1	1	179.909	11.111	4.9	0.000	0.406	D	F	928.1	177.945	0.098	-0.030	699.583	540.687	0.039	-	0.196	-5.039	-	-	-	Ambient319	1.610	16.108	1.610	PAVEMENT_GENERAL	Urban	F	1011101000001001	0000000000000000	-	-	-	-	-	-	-	-	-	-	Terminate	
"Student6Mode1"	"Seema_Shokoufeh_Track2"	"Nov 29, 2016 09:10:17 AM"	Unknown	165.98665	10/29/0116 09:13.06	00009959	4.536	Inter688t27-1	0.176	LT1	1	179.909	11.111	10.6	0.000	0.412	D	F	477.5	178.781	0.047	-0.008	699.791	533.416	0.039	-	0.076	-5.205	-	-	-	Ambient319	1.948	8.837	1.948	PAVEMENT_GENERAL	Urban	F	1011101000001001	0000000000000000	-	-	-	-	-	-	-	-	-	-	Terminate	
