ZoneName	Time	SystemTime	Frame	Velocity	LaneName	LanePos	LaneIndex	LaneCount	LaneHeading	SpeedLimit	Steer	Accel	Brake	Gear	Horn	SubjectEngineRPM	SubjectHeading	SubjectPitch	SubjectRoll	SubjectX	SubjectY	SubjectZ	Signal	LatAccel	LongAccel	Collision	CollisionAngle	CollisionVelocity	VehAhead	HeadwayTime	HeadwayDist	TTC	TerrainType	CultureType	Slip	DigitalInputs	DigitalInputs2	ActiveTrigger	EntityName	DistToEntity	TimeToEntity	EntityVelocity	EntityAccel	EntityHeading	EntityX	EntityY	EntityZ	GrabData	
Unknown	0.98335	01/16/0117 10:13.14	00000059	0.002	Inter625t13-0	-0.088	1	2	0.000	11.111	3.8	0.000	0.000	D	F	0.0	0.000	0.153	-0.001	1503.500	523.206	0.019	-	0.000	0.000	-	-	-	-	-	-	-	PAVEMENT_GENERAL	Urban	F	1011101000011101	0000000000010000	-	-	-	-	-	-	-	-	-	-	Terminate	
Unknown	1.98337	01/16/0117 10:13.15	00000119	0.000	Inter625t13-0	-0.088	1	2	0.000	11.111	4.0	0.000	0.000	D	F	0.0	0.000	0.197	-0.000	1503.500	523.208	0.026	-	0.000	-0.001	-	-	-	-	-	-	-	PAVEMENT_GENERAL	Urban	F	1011101000011101	0000000000010000	-	-	-	-	-	-	-	-	-	-	Terminate	
Unknown	2.98339	01/16/0117 10:13.16	00000179	-0.000	Inter625t13-0	-0.088	1	2	0.000	11.111	3.9	0.000	0.000	D	F	0.0	0.000	0.207	-0.000	1503.500	523.208	0.028	-	0.000	-0.000	-	-	-	-	-	-	-	PAVEMENT_GENERAL	Urban	F	1011101000011101	0000000000010000	-	-	-	-	-	-	-	-	-	-	Terminate	
Unknown	3.98341	01/16/0117 10:13.17	00000239	-0.000	Inter625t13-0	-0.088	1	2	0.000	11.111	4.3	0.032	0.000	D	F	0.0	0.000	0.210	-0.000	1503.500	523.208	0.028	-	-0.000	-0.000	-	-	-	-	-	-	-	PAVEMENT_GENERAL	Urban	F	1011101000011101	0000000000010000	-	-	-	-	-	-	-	-	-	-	Terminate	
Unknown	4.98343	01/16/0117 10:13.18	00000299	-0.000	Inter625t13-0	-0.088	1	2	0.000	11.111	4.3	0.081	0.000	D	F	0.0	0.000	0.210	-0.000	1503.500	523.208	0.028	-	0.000	0.000	-	-	-	-	-	-	-	PAVEMENT_GENERAL	Urban	F	1011101000011101	0000000000010000	-	-	-	-	-	-	-	-	-	-	Terminate	
Unknown	5.98345	01/16/0117 10:13.19	00000359	-0.000	Inter625t13-0	-0.088	1	2	0.000	11.111	6.7	0.257	0.000	D	F	0.0	0.000	0.209	-0.000	1503.500	523.208	0.028	-	0.000	0.000	-	-	-	-	-	-	-	PAVEMENT_GENERAL	Urban	F	1011101000011101	0000000000010000	-	-	-	-	-	-	-	-	-	-	Terminate	
Unknown	6.98347	01/16/0117 10:13.20	00000419	-0.000	Inter625t13-0	-0.088	1	2	0.000	11.111	6.4	0.000	0.000	D	F	0.0	0.000	0.209	-0.000	1503.500	523.208	0.028	-	0.000	0.000	-	-	-	-	-	-	-	PAVEMENT_GENERAL	Urban	F	1011101000011101	0000000000010000	-	-	-	-	-	-	-	-	-	-	Terminate	
Unknown	7.98349	01/16/0117 10:13.21	00000479	-0.000	Inter625t13-0	-0.088	1	2	0.000	11.111	6.2	0.000	0.107	D	F	0.0	0.000	0.209	-0.000	1503.500	523.208	0.028	-	0.000	0.000	-	-	-	-	-	-	-	PAVEMENT_GENERAL	Urban	F	1011101000011101	0000000000010000	-	-	-	-	-	-	-	-	-	-	Terminate	
Unknown	8.98351	01/16/0117 10:13.22	00000539	-0.000	Inter625t13-0	-0.088	1	2	0.000	11.111	6.3	0.328	0.000	D	F	0.0	0.000	0.209	-0.000	1503.500	523.208	0.028	-	0.000	0.000	-	-	-	-	-	-	-	PAVEMENT_GENERAL	Urban	F	1011101000011101	0000000000010000	-	-	-	-	-	-	-	-	-	-	Terminate	
Unknown	9.98353	01/16/0117 10:13.23	00000599	-0.000	Inter625t13-0	-0.088	1	2	0.000	11.111	2.8	0.016	0.000	D	F	0.0	0.000	0.209	-0.000	1503.500	523.208	0.028	-	0.000	0.000	-	-	-	-	-	-	-	PAVEMENT_GENERAL	Urban	F	1011101000011101	0000000000010000	-	-	-	-	-	-	-	-	-	-	Terminate	
Unknown	10.98355	01/16/0117 10:13.24	00000659	0.001	Inter625t13-0	-0.088	1	2	0.000	11.111	3.5	0.025	0.000	D	F	216.7	0.000	0.209	-0.000	1503.500	523.208	0.028	-	0.000	0.008	-	-	-	-	-	-	-	PAVEMENT_GENERAL	Urban	F	1011101000011111	0000000000010000	-	-	-	-	-	-	-	-	-	-	Terminate	
Unknown	11.98357	01/16/0117 10:13.25	00000719	0.103	Inter625t13-0	-0.088	1	2	0.000	11.111	5.1	0.055	0.000	D	F	867.4	0.003	0.209	0.000	1503.500	523.231	0.021	-	0.002	0.586	-	-	-	-	-	-	-	PAVEMENT_GENERAL	Urban	F	1011101000011101	0000000000010000	-	-	-	-	-	-	-	-	-	-	Terminate	
Unknown	12.98359	01/16/0117 10:13.26	00000779	2.088	Inter625t13-0	-0.082	1	2	0.000	11.111	8.8	0.104	0.000	D	F	1285.8	0.163	0.220	-0.002	1503.506	524.190	0.015	-	0.024	2.386	-	-	-	-	-	-	-	PAVEMENT_GENERAL	Urban	F	1011101000011101	0000000000010000	-	-	-	-	-	-	-	-	-	-	Terminate	
Unknown	13.98361	01/16/0117 10:13.27	00000839	3.890	Inter625t13-0	-0.044	1	2	0.000	11.111	7.8	0.115	0.000	D	F	1476.3	0.724	0.217	-0.005	1503.544	527.237	0.019	-	0.040	1.552	-	-	-	-	-	-	-	PAVEMENT_GENERAL	Urban	F	1011101000011101	0000000000010000	-	-	-	-	-	-	-	-	-	-	Terminate	
Unknown	14.98363	01/16/0117 10:13.28	00000899	5.482	Inter625t13-0	0.034	1	2	0.000	11.111	-3.6	0.171	0.000	D	F	1823.2	0.861	0.213	0.004	1503.622	531.899	0.018	-	-0.034	1.641	-	-	-	-	-	-	-	PAVEMENT_GENERAL	Urban	F	1011101000011101	0000000000010000	-	-	-	-	-	-	-	-	-	-	Terminate	
Unknown	15.98365	01/16/0117 10:13.29	00000959	7.015	Inter625t49-0	0.121	1	1	0.006	11.111	0.1	0.171	0.000	D	F	1656.6	0.857	0.212	0.002	1503.710	538.192	0.020	-	-0.005	1.252	-	-	-	-	-	-	-	PAVEMENT_GENERAL	Urban	F	1011101000011101	0000000000010000	-	-	-	-	-	-	-	-	-	-	Terminate	
Unknown	16.98367	01/16/0117 10:13.30	00001019	8.142	Inter625t49-0	0.217	1	1	0.007	11.111	-0.5	0.175	0.000	D	F	1720.3	0.608	0.212	-0.001	1503.806	545.781	0.021	-	-0.011	1.069	-	-	-	-	-	-	-	PAVEMENT_GENERAL	Urban	F	1011101000011101	0000000000010000	-	-	-	-	-	-	-	-	-	-	Terminate	
Unknown	17.98369	01/16/0117 10:13.31	00001079	9.107	Inter625t49-0	0.306	1	1	0.007	11.111	0.4	0.171	0.000	D	F	1771.3	0.645	0.208	-0.001	1503.896	554.425	0.022	-	0.012	0.870	-	-	-	-	-	-	-	PAVEMENT_GENERAL	Urban	F	1011101000011101	0000000000010000	-	-	-	-	-	-	-	-	-	-	Terminate	
Unknown	18.98371	01/16/0117 10:13.32	00001139	10.050	Inter625t49-0	0.420	1	1	0.005	11.111	0.3	0.185	0.000	D	F	1880.1	0.710	0.208	-0.003	1504.012	564.014	0.022	-	0.010	0.873	-	-	-	-	-	-	-	PAVEMENT_GENERAL	Urban	F	1011101000011101	0000000000010000	-	-	-	-	-	-	-	-	-	-	Terminate	
Unknown	19.98373	01/16/0117 10:13.33	00001199	10.908	Inter625t49-0	0.548	1	1	0.005	11.111	0.6	0.198	0.000	D	F	1980.7	0.714	0.209	-0.003	1504.141	574.502	0.022	-	0.018	0.884	-	-	-	-	-	-	-	PAVEMENT_GENERAL	Urban	F	1011101000011101	0000000000010000	-	-	-	-	-	-	-	-	-	-	Terminate	
Unknown	20.98375	01/16/0117 10:13.34	00001259	11.790	Inter625t15-0	0.698	1	2	0.000	11.111	-2.7	0.210	0.000	D	F	2105.5	0.775	0.207	0.009	1504.291	585.841	0.022	-	-0.064	0.915	-	-	-	-	-	-	-	PAVEMENT_GENERAL	Urban	F	1011101000011101	0000000000010000	-	-	-	-	-	-	-	-	-	-	Terminate	
Unknown	21.98377	01/16/0117 10:13.35	00001319	12.664	Inter625t15-0	0.807	1	2	0.000	11.111	-1.0	0.206	0.000	D	F	2193.6	0.297	0.206	0.003	1504.401	598.073	0.022	-	-0.054	0.836	-	-	-	-	-	-	-	PAVEMENT_GENERAL	Urban	F	1011101000011101	0000000000010000	-	-	-	-	-	-	-	-	-	-	Terminate	
Unknown	22.98379	01/16/0117 10:13.36	00001379	13.476	Inter614t1-0	0.862	1	2	0.000	11.111	-1.5	0.212	0.000	D	F	2295.2	0.185	0.205	0.008	1504.455	611.143	0.023	-	-0.053	0.812	-	-	-	-	-	-	-	PAVEMENT_GENERAL	Urban	F	1011101000011101	0000000000010000	-	-	-	-	-	-	-	-	-	-	Terminate	
Unknown	23.98381	01/16/0117 10:13.37	00001439	14.187	Inter614t1-0	0.875	1	2	0.000	11.111	-0.1	0.212	0.000	D	F	1886.2	0.032	0.202	-0.003	1504.468	624.999	0.024	-	0.017	0.619	-	-	-	-	-	-	-	PAVEMENT_GENERAL	Urban	F	1011101000011101	0000000000010000	-	-	-	-	-	-	-	-	-	-	Terminate	
Unknown	24.98383	01/16/0117 10:13.38	00001499	14.813	Inter614t1-0	0.884	1	2	0.000	11.111	0.3	0.220	0.000	D	F	1929.3	0.038	0.201	-0.002	1504.478	639.499	0.024	-	0.007	0.620	-	-	-	12	13.476	199.621	-	PAVEMENT_GENERAL	Urban	F	1011101000011101	0000000000010000	-	-	-	-	-	-	-	-	-	-	Terminate	
Unknown	25.98385	01/16/0117 10:13.39	00001559	15.399	Inter614t1-0	0.907	1	2	0.000	11.111	1.9	0.215	0.000	D	F	1944.6	0.225	0.201	-0.014	1504.500	654.611	0.024	-	0.106	0.563	-	-	-	12	13.194	203.174	-	PAVEMENT_GENERAL	Urban	F	1011101000011101	0000000000010000	-	-	-	-	-	-	-	-	-	-	Terminate	
Unknown	26.98387	01/16/0117 10:13.40	00001619	15.936	Inter614t1-0	1.014	1	2	0.000	11.111	-1.9	0.213	0.000	D	F	1967.4	0.502	0.199	0.010	1504.607	670.282	0.024	-	-0.042	0.517	-	-	-	12	13.055	208.044	-	PAVEMENT_GENERAL	Urban	F	1011101000011101	0000000000010000	-	-	-	-	-	-	-	-	-	-	Terminate	
Unknown	27.98389	01/16/0117 10:13.41	00001679	16.407	Inter614t1-0	1.093	1	2	0.000	11.111	-2.1	0.206	0.000	D	F	1969.0	0.067	0.198	0.016	1504.686	686.458	0.024	-	-0.105	0.450	-	-	-	12	13.002	213.326	-	PAVEMENT_GENERAL	Urban	F	1011101000011101	0000000000010000	-	-	-	-	-	-	-	-	-	-	Terminate	
Unknown	28.98391	01/16/0117 10:13.42	00001739	16.582	Inter614t1-0	1.086	1	2	0.000	11.111	1.4	0.016	0.000	D	F	1629.1	0.000	0.176	-0.010	1504.679	703.033	0.028	-	0.065	-0.509	-	-	-	12	13.191	218.729	-	PAVEMENT_GENERAL	Urban	F	1011101000011101	0000000000010000	-	-	-	-	-	-	-	-	-	-	Terminate	
Unknown	29.98393	01/16/0117 10:13.43	00001799	16.113	Inter614t1-0	1.137	1	2	0.000	11.111	-4.8	0.034	0.000	D	F	1587.2	0.273	0.190	0.025	1504.731	719.370	0.028	-	-0.159	-0.409	-	-	-	12	13.947	224.729	-	PAVEMENT_GENERAL	Urban	F	1011101000011101	0000000000010000	-	-	-	-	-	-	-	-	-	-	Terminate	
Unknown	30.98395	01/16/0117 10:13.44	00001859	15.743	Inter614t1-0	1.078	1	2	0.000	11.111	3.9	0.037	0.000	D	F	1563.2	359.569	0.190	-0.018	1504.672	735.292	0.028	-	0.122	-0.361	-	-	-	12	14.684	231.161	-	PAVEMENT_GENERAL	Urban	F	1011101000011101	0000000000010000	-	-	-	-	-	-	-	-	-	-	Terminate	
Unknown	31.98397	01/16/0117 10:13.45	00001919	15.344	Inter614t1-0	1.087	1	2	0.000	11.111	4.2	0.032	0.000	D	F	1511.0	0.623	0.192	-0.035	1504.680	750.842	0.028	-	0.290	-0.394	-	-	-	12	15.509	237.964	-	PAVEMENT_GENERAL	Urban	F	1011101000011101	0000000000010000	-	-	-	-	-	-	-	-	-	-	Terminate	
Unknown	32.98399	01/16/0117 10:13.46	00001979	15.003	Inter614t1-0	1.267	1	2	0.000	11.111	-15.3	0.055	0.000	D	F	1569.7	0.000	0.189	0.105	1504.860	765.999	0.028	-	-0.781	-0.278	-	-	-	-	-	-	-	PAVEMENT_GENERAL	Urban	F	1011101000011101	0000000000010000	-	-	-	-	-	-	-	-	-	-	Terminate	
Unknown	33.98401	01/16/0117 10:13.47	00002039	14.774	Inter614t1-0	0.897	1	2	0.000	11.111	5.6	0.071	0.000	D	F	1587.7	357.816	0.193	-0.018	1504.490	780.872	0.027	-	0.105	-0.180	-	-	-	-	-	-	-	PAVEMENT_GENERAL	Urban	F	1011101000011101	0000000000010000	-	-	-	-	-	-	-	-	-	-	Terminate	
Unknown	34.98403	01/16/0117 10:13.48	00002099	14.624	Inter614t1-0	0.587	1	2	0.000	11.111	10.4	0.076	0.000	D	F	1584.8	0.130	0.193	-0.082	1504.180	795.563	0.027	-	0.652	-0.134	-	-	-	-	-	-	-	PAVEMENT_GENERAL	Urban	F	1011101000011101	0000000000010000	-	-	-	-	-	-	-	-	-	-	Terminate	
Unknown	35.98405	01/16/0117 10:13.49	00002159	14.363	Inter612t1-0	0.689	1	2	0.000	11.111	-6.0	0.032	0.000	D	F	1427.7	0.000	0.190	0.048	1504.282	810.086	0.028	-	-0.358	-0.388	-	-	-	-	-	-	-	PAVEMENT_GENERAL	Urban	F	1011101000011101	0000000000010000	-	-	-	-	-	-	-	-	-	-	Terminate	
Unknown	36.98407	01/16/0117 10:13.50	00002219	14.103	Inter612t1-0	0.568	1	2	0.000	11.111	0.9	0.085	0.000	D	F	1549.9	359.174	0.195	0.003	1504.161	824.294	0.027	-	-0.032	-0.107	-	-	-	-	-	-	-	PAVEMENT_GENERAL	Urban	F	1011101000011101	0000000000010000	-	-	-	-	-	-	-	-	-	-	Terminate	
Unknown	37.98409	01/16/0117 10:13.51	00002279	14.183	Inter612t1-0	0.428	1	2	0.000	11.111	4.4	0.127	0.000	D	F	1655.1	359.818	0.197	-0.027	1504.021	838.419	0.026	-	0.210	0.132	-	-	-	-	-	-	-	PAVEMENT_GENERAL	Urban	F	1011101000011101	0000000000010000	-	-	-	-	-	-	-	-	-	-	Terminate	
Unknown	38.98411	01/16/0117 10:13.52	00002339	14.314	Inter612t1-0	0.487	1	2	0.000	11.111	4.2	0.111	0.000	D	F	1639.3	0.679	0.196	-0.027	1504.080	852.666	0.026	-	0.208	0.097	-	-	-	-	-	-	-	PAVEMENT_GENERAL	Urban	F	1011101000011101	0000000000010000	-	-	-	-	-	-	-	-	-	-	Terminate	
Unknown	39.98413	01/16/0117 10:13.53	00002399	14.238	Inter612t1-0	0.725	1	2	0.000	11.111	2.0	0.083	0.000	D	F	1562.5	1.169	0.195	-0.012	1504.319	866.947	0.027	-	0.091	-0.095	-	-	-	-	-	-	-	PAVEMENT_GENERAL	Urban	F	1011101000011101	0000000000010000	-	-	-	-	-	-	-	-	-	-	Terminate	
Unknown	40.98415	01/16/0117 10:13.54	00002459	14.154	Inter612t1-0	1.061	1	2	0.000	11.111	1.9	0.060	0.000	D	F	1509.7	1.552	0.192	-0.012	1504.654	881.143	0.027	-	0.092	-0.194	-	-	-	-	-	-	-	PAVEMENT_GENERAL	Urban	F	1011101000011101	0000000000010000	-	-	-	-	-	-	-	-	-	-	Terminate	
Unknown	41.98417	01/16/0117 10:13.55	00002519	14.000	Inter612t1-0	1.387	1	2	0.000	11.111	-11.9	0.106	0.000	D	F	1604.2	0.534	0.197	0.075	1504.980	895.195	0.027	-	-0.581	0.018	-	-	-	14	-0.126	-1.758	-	PAVEMENT_GENERAL	Urban	F	1011101000011101	0000000000010000	-	-	-	-	-	-	-	-	-	-	Terminate	
Unknown	42.98419	01/16/0117 10:13.56	00002579	13.975	Inter612t1-0	1.279	1	2	0.000	11.111	1.2	0.072	0.000	D	F	1523.7	359.002	0.195	-0.001	1504.873	909.192	0.027	-	-0.024	-0.065	-	-	-	14	0.210	2.932	-	PAVEMENT_GENERAL	Urban	F	1011101000011101	0000000000010000	-	-	-	-	-	-	-	-	-	-	Terminate	
Unknown	43.98421	01/16/0117 10:13.57	00002639	13.774	Inter612t1-0	1.089	1	2	0.000	11.111	4.6	0.063	0.000	D	F	1492.8	359.516	0.195	-0.027	1504.682	923.069	0.027	-	0.198	-0.192	-	-	-	14	0.616	8.482	-	PAVEMENT_GENERAL	Urban	F	1011101000011101	0000000000010000	-	-	-	-	-	-	-	-	-	-	Terminate	
Unknown	44.98423	01/16/0117 10:13.58	00002699	13.716	Inter612t1-0	1.082	1	2	0.000	11.111	0.5	0.111	0.000	D	F	1593.9	0.420	0.197	-0.010	1504.676	936.796	0.026	-	0.099	0.045	-	-	-	14	1.071	14.684	-	PAVEMENT_GENERAL	Urban	F	1011101000011101	0000000000010000	-	-	-	-	-	-	-	-	-	-	Terminate	
Unknown	45.98425	01/16/0117 10:13.59	00002759	13.833	Inter612t1-0	1.191	1	2	0.000	11.111	0.2	0.173	0.000	D	F	1767.8	0.481	0.204	-0.001	1504.784	950.545	0.025	-	0.008	0.416	-	-	-	14	1.522	21.052	-	PAVEMENT_GENERAL	Urban	F	1011101000011101	0000000000010000	-	-	-	-	-	-	-	-	-	-	Terminate	
Unknown	46.98427	01/16/0117 10:14.00	00002819	14.280	Inter612t1-0	1.310	1	2	0.000	11.111	0.0	0.190	0.000	D	F	1826.6	0.470	0.201	0.000	1504.903	964.601	0.024	-	-0.004	0.464	-	-	-	14	1.899	27.113	-	PAVEMENT_GENERAL	Urban	F	1011101000011101	0000000000010000	-	-	-	-	-	-	-	-	-	-	Terminate	
Unknown	47.98429	01/16/0117 10:14.01	00002879	14.812	Inter612t1-0	1.417	1	2	0.000	11.111	-4.4	0.205	0.000	D	F	1893.8	0.217	0.201	0.031	1505.011	979.141	0.024	-	-0.202	0.544	-	-	-	14	2.207	32.685	-	PAVEMENT_GENERAL	Urban	F	1011101000011101	0000000000010000	-	-	-	-	-	-	-	-	-	-	Terminate	
Unknown	48.98431	01/16/0117 10:14.02	00002939	15.322	Inter612t1-0	1.385	1	2	0.000	11.111	-1.1	0.203	0.000	D	F	1909.7	359.556	0.200	0.014	1504.978	994.212	0.024	-	-0.107	0.490	-	-	-	14	2.462	37.724	-	PAVEMENT_GENERAL	Urban	F	1011101000011101	0000000000010000	-	-	-	-	-	-	-	-	-	-	Terminate	
Unknown	49.98433	01/16/0117 10:14.03	00002999	15.779	Inter613t1-0	1.275	1	2	0.000	11.111	1.7	0.220	0.000	D	F	1972.1	359.766	0.199	-0.012	1504.868	1009.756	0.024	-	0.107	0.528	-	-	-	14	2.681	42.302	-	PAVEMENT_GENERAL	Urban	F	1111101000011101	0000000000010000	-	-	-	-	-	-	-	-	-	-	Terminate	
Unknown	50.98435	01/16/0117 10:14.04	00003059	16.334	Inter613t1-0	1.249	1	2	0.000	11.111	1.5	0.219	0.000	D	F	1993.5	0.077	0.198	-0.011	1504.842	1025.816	0.024	-	0.088	0.519	-	-	-	14	2.839	46.366	-	PAVEMENT_GENERAL	Urban	F	1011101000011101	0000000000010000	-	-	-	-	-	-	-	-	-	-	Terminate	
Unknown	51.98437	01/16/0117 10:14.05	00003119	16.845	Inter613t1-0	1.312	1	2	0.000	11.111	0.6	0.222	0.000	D	F	2030.2	0.389	0.197	-0.010	1504.905	1042.407	0.024	-	0.070	0.498	-	-	-	14	2.962	49.898	-	PAVEMENT_GENERAL	Urban	F	1011101000011101	0000000000010000	-	-	-	-	-	-	-	-	-	-	Terminate	
Unknown	52.98439	01/16/0117 10:14.06	00003179	17.330	Inter613t1-0	1.343	1	2	0.000	11.111	-3.2	0.222	0.000	D	F	2053.1	359.435	0.196	0.042	1504.936	1059.498	0.024	-	-0.341	0.467	-	-	-	14	3.053	52.915	-	PAVEMENT_GENERAL	Urban	F	1011101000011101	0000000000010000	-	-	-	-	-	-	-	-	-	-	Terminate	
Unknown	53.98441	01/16/0117 10:14.07	00003239	17.363	Inter613t1-0	1.189	1	2	0.000	11.111	5.0	0.000	0.000	D	F	1704.4	359.901	0.178	-0.050	1504.782	1076.955	0.029	-	0.366	-0.607	-	-	-	14	3.201	55.583	-	PAVEMENT_GENERAL	Urban	F	1011101000011101	0000000000010000	-	-	-	-	-	-	-	-	-	-	Terminate	
Unknown	54.98443	01/16/0117 10:14.08	00003299	16.794	Inter613t1-0	1.266	1	2	0.000	11.111	0.0	0.002	0.000	D	F	1648.7	0.445	0.185	0.000	1504.859	1094.029	0.029	-	0.009	-0.591	-	-	-	14	3.491	58.636	-	PAVEMENT_GENERAL	Urban	F	1011101000011101	0000000000010000	-	-	-	-	-	-	-	-	-	-	Terminate	
Unknown	55.98445	01/16/0117 10:14.09	00003359	15.708	Inter613t1-0	1.392	1	2	0.000	11.111	-0.2	0.011	0.000	D	F	1544.5	0.451	0.191	0.001	1504.986	1110.241	0.029	-	-0.005	-0.529	-	-	-	14	3.982	62.544	-	PAVEMENT_GENERAL	Urban	F	1011101000011101	0000000000010000	-	-	-	-	-	-	-	-	-	-	Terminate	
Unknown	56.98447	01/16/0117 10:14.10	00003419	15.390	Inter613t1-0	1.495	1	2	0.000	11.111	-5.9	0.083	0.000	D	F	1661.5	0.144	0.191	0.040	1505.088	1125.750	0.027	-	-0.259	-0.134	-	-	-	14	4.363	67.151	-	PAVEMENT_GENERAL	Urban	F	1011101000011101	0000000000010000	-	-	-	-	-	-	-	-	-	-	Terminate	
Unknown	57.98449	01/16/0117 10:14.11	00003479	15.331	Inter613t1-0	1.392	1	2	0.000	11.111	2.2	0.074	0.000	D	F	1646.1	359.261	0.193	-0.002	1504.985	1141.104	0.027	-	0.011	-0.070	-	-	-	14	4.690	71.905	-	PAVEMENT_GENERAL	Urban	F	1011101000011101	0000000000010000	-	-	-	-	-	-	-	-	-	-	Terminate	
Unknown	58.98451	01/16/0117 10:14.12	00003539	15.012	Inter613t1-0	1.304	1	2	0.000	11.111	4.4	0.023	0.000	D	F	1477.1	0.236	0.192	-0.039	1504.897	1156.307	0.029	-	0.292	-0.451	-	-	-	14	5.118	76.834	-	PAVEMENT_GENERAL	Urban	F	1011101000011101	0000000000010000	-	-	-	-	-	-	-	-	-	-	Terminate	
Unknown	59.98453	01/16/0117 10:14.13	00003599	14.668	Inter613t1-0	1.426	1	2	0.000	11.111	-11.1	0.071	0.000	D	F	1580.9	0.201	0.193	0.066	1505.020	1171.121	0.028	-	-0.488	-0.202	-	-	-	14	5.600	82.139	-	PAVEMENT_GENERAL	Urban	F	1011101000011101	0000000000010000	-	-	-	-	-	-	-	-	-	-	Terminate	
Unknown	60.98455	01/16/0117 10:14.14	00003659	14.480	Inter613t1-0	1.296	1	2	0.000	11.111	3.6	0.058	0.000	D	F	1540.4	359.352	0.193	-0.022	1504.889	1185.707	0.028	-	0.148	-0.246	-	-	-	14	6.054	87.661	-	PAVEMENT_GENERAL	Urban	F	1011101000011101	0000000000010000	-	-	-	-	-	-	-	-	-	-	Terminate	
Unknown	61.98457	01/16/0117 10:14.15	00003719	14.306	Inter746t1-0	1.197	1	2	0.000	11.111	0.6	0.058	0.000	D	F	1523.6	359.714	0.189	-0.002	1504.790	1200.096	0.027	-	0.020	-0.262	-	-	-	14	6.528	93.396	-	PAVEMENT_GENERAL	Urban	F	1011101000011101	0000000000010000	-	-	-	-	-	-	-	-	-	-	Terminate	
Unknown	62.98459	01/16/0117 10:14.16	00003779	14.098	Inter746t1-0	1.152	1	2	0.000	11.111	1.3	0.062	0.000	D	F	1516.6	0.000	0.194	-0.007	1504.746	1214.297	0.027	-	0.064	-0.195	-	-	-	14	7.045	99.319	-	PAVEMENT_GENERAL	Urban	F	1011101000011101	0000000000010000	-	-	-	-	-	-	-	-	-	-	Terminate	
Unknown	63.98461	01/16/0117 10:14.17	00003839	13.975	Inter746t1-0	1.137	1	2	0.000	11.111	-2.8	0.074	0.000	D	F	1526.3	359.755	0.194	0.020	1504.730	1228.327	0.027	-	-0.132	-0.122	-	-	-	14	7.542	105.405	-	PAVEMENT_GENERAL	Urban	F	1011101000011101	0000000000010000	-	-	-	-	-	-	-	-	-	-	Terminate	
Unknown	64.98463	01/16/0117 10:14.18	00003899	13.860	Inter746t1-0	1.085	1	2	0.000	11.111	3.0	0.076	0.000	D	F	1522.3	0.007	0.195	-0.018	1504.678	1242.243	0.027	-	0.138	-0.104	-	-	-	14	8.053	111.612	-	PAVEMENT_GENERAL	Urban	F	1011101000011101	0000000000010000	-	-	-	-	-	-	-	-	-	-	Terminate	
Unknown	65.98465	01/16/0117 10:14.19	00003959	13.702	Inter746t1-0	1.151	1	2	0.000	11.111	0.0	0.074	0.000	D	F	1503.5	0.539	0.197	-0.011	1504.745	1256.037	0.027	-	0.062	-0.149	-	-	-	14	8.608	117.946	-	PAVEMENT_GENERAL	Urban	F	1011101000011101	0000000000010000	-	-	-	-	-	-	-	-	-	-	Terminate	
Unknown	66.98467	01/16/0117 10:14.20	00004019	13.688	Inter746t1-0	1.213	1	2	0.000	11.111	-3.8	0.113	0.000	D	F	1594.2	359.841	0.198	0.022	1504.806	1269.715	0.026	-	-0.191	0.083	-	-	-	14	9.086	124.377	-	PAVEMENT_GENERAL	Urban	F	1011101000011101	0000000000010000	-	-	-	-	-	-	-	-	-	-	Terminate	
Unknown	67.98470	01/16/0117 10:14.21	00004079	13.715	Inter746t1-0	1.101	1	2	0.000	11.111	-2.1	0.039	0.000	D	F	1438.2	359.248	0.187	0.015	1504.694	1283.434	0.027	-	-0.113	-0.239	-	-	-	14	9.535	130.770	-	PAVEMENT_GENERAL	Urban	F	1011101000011101	0000000000010000	-	-	-	-	-	-	-	-	-	-	Terminate	
Unknown	68.98471	01/16/0117 10:14.22	00004139	13.611	Inter746t1-0	0.913	1	2	0.000	11.111	0.3	0.123	0.000	D	F	1609.6	359.221	0.196	-0.001	1504.506	1297.037	0.026	-	0.013	0.115	-	-	-	-	-	-	-	PAVEMENT_GENERAL	Urban	F	1011101000011101	0000000000010000	-	-	-	-	-	-	-	-	-	-	Terminate	
Unknown	69.98473	01/16/0117 10:14.23	00004199	13.754	Inter746t1-0	0.721	1	2	0.000	11.111	-0.4	0.122	0.000	D	F	1621.4	359.150	0.198	0.003	1504.314	1310.724	0.026	-	-0.020	0.125	Person36	20.8	10.852	-	-	-	-	PAVEMENT_GENERAL	Urban	F	1011101000011101	0000000000010000	-	-	-	-	-	-	-	-	-	-	Terminate	
Unknown	70.98476	01/16/0117 10:14.24	00004259	13.870	Inter746t1-0	0.509	1	2	0.000	11.111	0.1	0.118	0.000	D	F	1618.4	359.104	0.197	-0.000	1504.102	1324.537	0.026	-	-0.000	0.104	-	-	-	-	-	-	-	PAVEMENT_GENERAL	Urban	F	1011101000011101	0000000000010000	-	-	-	-	-	-	-	-	-	-	Terminate	
Unknown	71.98477	01/16/0117 10:14.25	00004319	13.975	Inter746t1-0	0.293	1	2	0.000	11.111	0.2	0.109	0.000	D	F	1610.2	359.120	0.196	-0.001	1503.886	1338.460	0.026	-	0.008	0.079	-	-	-	-	-	-	-	PAVEMENT_GENERAL	Urban	F	1011101000011101	0000000000010000	-	-	-	-	-	-	-	-	-	-	Terminate	
Unknown	72.98479	01/16/0117 10:14.26	00004379	14.034	Inter746t1-0	0.098	1	2	0.000	11.111	9.5	0.104	0.000	D	F	1600.1	359.530	0.193	-0.052	1503.691	1352.461	0.026	-	0.376	0.000	-	-	-	-	-	-	-	PAVEMENT_GENERAL	Urban	F	1011101000011101	0000000000010000	-	-	-	-	-	-	-	-	-	-	Terminate	
Unknown	73.98481	01/16/0117 10:14.27	00004439	13.810	Inter746t1-0	0.048	1	2	0.000	11.111	-9.0	0.000	0.009	D	F	1356.1	359.171	0.188	0.072	1503.641	1366.454	0.029	-	-0.520	-0.558	-	-	-	-	-	-	-	PAVEMENT_GENERAL	Urban	F	1111101000011101	0000000000010000	-	-	-	-	-	-	-	-	-	-	Terminate	
Unknown	74.98483	01/16/0117 10:14.28	00004499	11.339	Inter746t1-0	-0.314	1	2	0.000	11.111	-6.7	0.000	0.164	D	F	1089.8	357.547	0.168	0.038	1503.279	1379.210	0.034	-	-0.290	-2.637	-	-	-	-	-	-	-	PAVEMENT_GENERAL	Urban	F	1011101000011101	0000000000010000	-	-	-	-	-	-	-	-	-	-	Terminate	
Unknown	75.98486	01/16/0117 10:14.29	00004559	9.891	Inter746t1-0	-0.907	1	2	0.000	11.111	-0.5	0.062	0.003	D	F	1197.4	355.990	0.205	-0.001	1502.686	1389.596	0.028	-	-0.061	-0.151	-	-	-	-	-	-	-	PAVEMENT_GENERAL	Urban	F	1111101000011101	0000000000010000	-	-	-	-	-	-	-	-	-	-	Terminate	
Unknown	76.98487	01/16/0117 10:14.30	00004619	9.979	Inter746t1-0	-1.572	1	2	0.000	11.111	5.2	0.111	0.000	D	F	1436.6	356.436	0.206	-0.019	1502.022	1399.482	0.025	-	0.144	0.308	-	-	-	-	-	-	-	PAVEMENT_GENERAL	Urban	F	1011101000011101	0000000000010000	-	-	-	-	-	-	-	-	-	-	Terminate	
Unknown	77.98489	01/16/0117 10:14.31	00004679	10.394	-	-	CL	0	-	-	4.8	0.152	0.000	D	F	1551.4	357.709	0.205	-0.018	1501.512	1409.639	0.024	-	0.165	0.489	-	-	-	-	-	-	-	PAVEMENT_GENERAL	Urban	F	1011101000011101	0000000000010000	-	-	-	-	-	-	-	-	-	-	Terminate	
Unknown	78.98492	01/16/0117 10:14.32	00004739	10.902	-	-	SH-	1	-	-	-0.5	0.157	0.000	D	F	1592.0	358.293	0.203	0.006	1501.164	1420.278	0.024	-	-0.011	0.506	-	-	-	-	-	-	-	PAVEMENT_GENERAL	Urban	F	1011101000011101	0000000000010000	-	-	-	-	-	-	-	-	-	-	Terminate	
Unknown	79.98493	01/16/0117 10:14.33	00004799	9.053	-	-	SH-	1	-	-	10.3	0.000	0.167	D	F	870.6	359.613	0.179	-0.040	1500.947	1430.678	0.034	-	0.307	-2.582	-	-	-	-	-	-	-	PAVEMENT_GENERAL	Urban	F	1011101000011101	0000000000010000	-	-	-	-	-	-	-	-	-	-	Terminate	
Unknown	80.98495	01/16/0117 10:14.34	00004859	6.389	Inter749t31-0	-1.200	1	1	355.008	11.111	-7.6	0.000	0.182	D	F	646.1	0.733	0.160	0.026	1501.000	1438.414	0.033	-	-0.131	-2.728	-	-	-	12	27.960	178.633	-	PAVEMENT_GENERAL	Urban	F	1011101000011101	0000000000010000	-	-	-	-	-	-	-	-	-	-	Terminate	
Unknown	81.98497	01/16/0117 10:14.35	00004919	4.418	Inter749t31-0	-0.662	1	1	355.822	11.111	-4.3	0.026	0.060	D	F	747.5	0.006	0.198	0.011	1501.013	1443.651	0.030	-	-0.035	-0.980	-	-	-	12	44.184	195.204	-	PAVEMENT_GENERAL	Urban	F	1011101000011101	0000000000010000	-	-	-	-	-	-	-	-	-	-	Terminate	
Unknown	82.98499	01/16/0117 10:14.36	00004979	4.180	Inter749t31-0	-0.274	1	1	356.474	11.111	-7.7	0.060	0.000	D	F	1073.1	359.411	0.211	0.006	1500.981	1447.850	0.025	-	-0.041	0.330	-	-	-	12	51.020	213.271	-	PAVEMENT_GENERAL	Urban	F	1011101000011101	0000000000010000	-	-	-	-	-	-	-	-	-	-	Terminate	
Unknown	83.98502	01/16/0117 10:14.38	00005039	4.019	Inter749t31-0	0.019	1	1	356.903	11.111	-0.3	0.018	0.081	D	F	727.6	359.127	0.174	-0.001	1500.915	1452.126	0.028	-	0.005	-1.236	-	-	-	12	57.569	231.361	-	PAVEMENT_GENERAL	Urban	F	1011101000011101	0000000000010000	-	-	-	-	-	-	-	-	-	-	Terminate	
Unknown	84.98503	01/16/0117 10:14.39	00005099	3.105	Inter749t31-0	0.159	1	1	356.903	11.111	1.0	0.037	0.081	D	F	857.1	359.191	0.190	-0.000	1500.864	1455.656	0.028	-	0.003	-0.830	-	-	-	-	-	-	-	PAVEMENT_GENERAL	Urban	F	1011101000011101	0000000000010000	-	-	-	-	-	-	-	-	-	-	Terminate	
Unknown	85.98505	01/16/0117 10:14.40	00005159	2.586	Inter749t31-0	0.273	1	1	356.903	11.111	1.5	0.048	0.075	D	F	1030.5	359.250	0.200	-0.001	1500.828	1458.440	0.026	-	0.008	-0.182	-	-	-	-	-	-	-	PAVEMENT_GENERAL	Urban	F	1011101000011101	0000000000010000	-	-	-	-	-	-	-	-	-	-	Terminate	
Unknown	86.98507	01/16/0117 10:14.41	00005219	1.402	Inter749t31-0	0.362	1	1	356.903	11.111	1.3	0.048	0.209	D	F	925.2	359.310	0.177	0.000	1500.803	1460.558	0.027	-	0.000	-1.383	-	-	-	-	-	-	-	PAVEMENT_GENERAL	Urban	F	1011101000011101	0000000000010000	-	-	-	-	-	-	-	-	-	-	Terminate	
Unknown	87.98509	01/16/0117 10:14.42	00005279	0.545	Inter749t31-0	0.400	1	1	356.903	11.111	1.4	0.055	0.149	D	F	945.0	359.336	0.206	0.000	1500.793	1461.423	0.024	-	0.000	-0.160	-	-	-	-	-	-	-	PAVEMENT_GENERAL	Urban	F	1011101000011101	0000000000010000	-	-	-	-	-	-	-	-	-	-	Terminate	
Unknown	88.98512	01/16/0117 10:14.43	00005339	0.807	Inter749t31-0	0.428	1	1	356.903	11.111	1.4	0.055	0.096	D	F	943.8	359.355	0.197	-0.000	1500.786	1462.068	0.022	-	0.001	0.296	-	-	-	Ambient262	68.418	55.247	-	PAVEMENT_GENERAL	Urban	F	1011101000011101	0000000000010000	-	-	-	-	-	-	-	-	-	-	Terminate	
Unknown	89.98513	01/16/0117 10:14.44	00005399	1.234	Inter749t31-0	0.471	1	1	356.903	11.111	1.5	0.060	0.090	D	F	1032.6	359.386	0.206	-0.000	1500.776	1463.054	0.021	-	0.001	0.631	-	-	-	Ambient262	53.671	66.215	-	PAVEMENT_GENERAL	Urban	F	1011101000011101	0000000000010000	-	-	-	-	-	-	-	-	-	-	Terminate	
Unknown	90.98515	01/16/0117 10:14.45	00005459	0.593	Inter749t31-0	0.517	1	1	356.903	11.111	1.5	0.000	0.087	D	F	477.5	359.419	0.182	0.000	1500.766	1464.093	0.027	-	-0.001	-0.864	-	-	-	Ambient262	130.411	77.365	-	PAVEMENT_GENERAL	Urban	F	1011101000011101	0000000000010000	-	-	-	-	-	-	-	-	-	-	Terminate	
Unknown	91.98518	01/16/0117 10:14.46	00005519	0.207	Inter749t31-0	0.531	1	1	356.903	11.111	1.4	0.011	0.000	D	F	477.5	359.429	0.223	-0.000	1500.764	1464.399	0.027	-	0.000	0.228	-	-	-	Ambient262	430.269	89.247	-	PAVEMENT_GENERAL	Urban	F	1011101000011101	0000000000010000	-	-	-	-	-	-	-	-	-	-	Terminate	
Unknown	92.98519	01/16/0117 10:14.47	00005579	0.389	Inter749t31-0	0.544	1	1	356.903	11.111	1.5	0.018	0.000	D	F	526.7	359.439	0.207	-0.000	1500.761	1464.702	0.026	-	0.000	0.195	-	-	-	Ambient262	259.885	101.132	-	PAVEMENT_GENERAL	Urban	F	1011101000011101	0000000000010000	-	-	-	-	-	-	-	-	-	-	Terminate	
Unknown	93.98521	01/16/0117 10:14.48	00005639	0.482	Inter749t31-0	0.565	1	1	356.903	11.111	1.5	0.009	0.000	D	F	477.5	359.453	0.204	-0.000	1500.757	1465.150	0.026	-	0.000	0.048	-	-	-	Ambient262	234.341	112.872	-	PAVEMENT_GENERAL	Urban	F	1011101000011101	0000000000010000	-	-	-	-	-	-	-	-	-	-	Terminate	
Unknown	94.98523	01/16/0117 10:14.49	00005699	0.523	Inter749t31-0	0.587	1	1	356.903	11.111	1.6	0.018	0.000	D	F	532.2	359.469	0.207	-0.000	1500.753	1465.650	0.026	-	0.000	0.111	-	-	-	Ambient262	233.371	122.158	-	PAVEMENT_GENERAL	Urban	F	1011101000011101	0000000000010000	-	-	-	-	-	-	-	-	-	-	Terminate	
Unknown	95.98525	01/16/0117 10:14.50	00005759	0.563	Inter749t31-0	0.613	1	1	356.903	11.111	1.8	0.000	0.000	D	F	477.5	359.488	0.204	-0.000	1500.748	1466.202	0.026	-	0.000	0.016	-	-	-	Ambient262	237.720	133.763	-	PAVEMENT_GENERAL	Urban	F	1011101000011101	0000000000010000	-	-	-	-	-	-	-	-	-	-	Terminate	
Unknown	96.98528	01/16/0117 10:14.51	00005819	0.577	Inter749t31-0	0.639	1	1	356.903	11.111	1.8	0.000	0.000	D	F	477.5	359.510	0.204	-0.000	1500.744	1466.772	0.026	-	0.000	0.013	-	-	-	-	-	-	-	PAVEMENT_GENERAL	Urban	F	1111101000011101	0000000000010000	-	-	-	-	-	-	-	-	-	-	Terminate	
Unknown	97.98529	01/16/0117 10:14.52	00005879	0.588	Inter749t31-0	0.666	1	1	356.903	11.111	1.9	0.000	0.000	D	F	477.5	359.531	0.204	-0.000	1500.740	1467.354	0.026	-	0.001	0.010	-	-	-	-	-	-	-	PAVEMENT_GENERAL	Urban	F	1011101000011101	0000000000010000	-	-	-	-	-	-	-	-	-	-	Terminate	
Unknown	98.98531	01/16/0117 10:14.53	00005939	0.549	Inter749t11-0	0.673	LT1	2	0.000	11.111	2.4	0.000	0.057	D	F	477.5	359.560	0.186	0.000	1500.736	1467.944	0.026	-	-0.000	-0.442	-	-	-	-	-	-	-	PAVEMENT_GENERAL	Urban	F	1011101000011101	0000000000010000	-	-	-	-	-	-	-	-	-	-	Terminate	
Unknown	99.98534	01/16/0117 10:14.54	00005999	0.092	Inter749t11-0	0.671	LT1	2	0.000	11.111	2.4	0.000	0.137	D	F	477.5	359.577	0.197	0.000	1500.734	1468.268	0.027	-	-0.001	-0.445	-	-	-	-	-	-	-	PAVEMENT_GENERAL	Urban	F	1011101000011101	0000000000010000	-	-	-	-	-	-	-	-	-	-	Terminate	
Unknown	100.98535	01/16/0117 10:14.55	00006059	0.000	Inter749t11-0	0.671	LT1	2	0.000	11.111	2.5	0.000	0.155	D	F	477.5	359.577	0.211	-0.000	1500.734	1468.285	0.028	-	0.000	-0.001	-	-	-	-	-	-	-	PAVEMENT_GENERAL	Urban	F	1011101000011101	0000000000010000	-	-	-	-	-	-	-	-	-	-	Terminate	
Unknown	101.98537	01/16/0117 10:14.56	00006119	-0.000	Inter749t11-0	0.671	LT1	2	0.000	11.111	2.4	0.000	0.119	D	F	477.5	359.577	0.209	-0.000	1500.734	1468.285	0.028	-	-0.000	0.000	-	-	-	-	-	-	-	PAVEMENT_GENERAL	Urban	F	1011101000011101	0000000000010000	-	-	-	-	-	-	-	-	-	-	Terminate	
Unknown	102.98539	01/16/0117 10:14.57	00006179	0.000	Inter749t11-0	0.671	LT1	2	0.000	11.111	2.4	0.000	0.000	D	F	477.5	359.577	0.209	-0.000	1500.734	1468.285	0.028	-	0.000	0.001	-	-	-	-	-	-	-	PAVEMENT_GENERAL	Urban	F	1011101000011101	0000000000010000	-	-	-	-	-	-	-	-	-	-	Terminate	
Unknown	103.98541	01/16/0117 10:14.58	00006239	0.072	Inter749t11-0	0.671	LT1	2	0.000	11.111	2.4	0.125	0.000	D	F	1228.6	359.578	0.190	0.000	1500.734	1468.297	0.020	-	0.001	0.405	-	-	-	-	-	-	-	PAVEMENT_GENERAL	Urban	F	1011101000011101	0000000000010000	-	-	-	-	-	-	-	-	-	-	Terminate	
Unknown	104.98544	01/16/0117 10:14.59	00006299	3.175	Inter749t11-0	0.663	LT1	2	0.000	11.111	0.8	0.169	0.000	D	F	1564.0	359.656	0.211	0.001	1500.725	1469.858	0.011	-	-0.007	2.805	-	-	-	-	-	-	-	PAVEMENT_GENERAL	Urban	F	1011101000011101	0000000000010000	-	-	-	-	-	-	-	-	-	-	Terminate	
Unknown	105.98545	01/16/0117 10:15.00	00006359	4.229	Inter749t11-0	0.603	LT1	2	0.000	11.111	-9.9	0.000	0.000	D	F	704.8	358.914	0.182	0.004	1500.666	1473.928	0.026	-	-0.015	-0.431	-	-	-	-	-	-	-	PAVEMENT_GENERAL	Urban	F	1011101000011101	0000000000010000	-	-	-	-	-	-	-	-	-	-	Terminate	
Unknown	106.98547	01/16/0117 10:15.01	00006419	4.641	Inter749t11-0	0.476	LT1	2	0.000	11.111	-20.6	0.113	0.000	D	F	1360.0	358.097	0.214	0.035	1500.538	1478.205	0.022	-	-0.218	1.066	-	-	-	-	-	-	-	PAVEMENT_GENERAL	Urban	F	1011101000011101	0000000000010000	-	-	-	-	-	-	-	-	-	-	Terminate	
Unknown	107.98550	01/16/0117 10:15.02	00006479	5.640	Inter749t65-0	0.190	1	1	353.272	11.111	-38.8	0.115	0.000	D	F	1406.6	354.943	0.211	0.054	1500.169	1483.345	0.022	-	-0.423	0.910	-	-	-	-	-	-	-	PAVEMENT_GENERAL	Urban	F	1011101000011101	0000000000010000	-	-	-	-	-	-	-	-	-	-	Terminate	
Unknown	108.98551	01/16/0117 10:15.03	00006539	6.399	Inter749t65-0	0.779	1	1	337.753	11.111	-79.3	0.000	0.000	D	F	1001.2	349.828	0.184	0.183	1499.280	1489.344	0.023	-	-1.301	0.002	-	-	-	-	-	-	-	PAVEMENT_GENERAL	Urban	F	1011101000011101	0000000000010000	-	-	-	-	-	-	-	-	-	-	Terminate	
Unknown	109.98553	01/16/0117 10:15.04	00006599	6.507	-Inter749t59-0	1.029	-1	1	89.733	11.111	-136.6	0.085	0.000	D	F	1352.9	336.819	0.196	0.282	1497.250	1495.374	0.025	-	-2.091	0.342	-	-	-	-	-	-	-	PAVEMENT_GENERAL	Urban	F	1011101000011101	0000000000010000	-	-	-	-	-	-	-	-	-	-	Terminate	
Unknown	110.98555	01/16/0117 10:15.05	00006659	6.695	-Inter749t85-0	-0.527	-1	1	179.883	11.111	-151.3	0.069	0.000	D	F	1281.3	317.302	0.182	0.308	1493.351	1500.693	0.026	-	-2.349	0.044	-	-	-	Ambient272	26.283	175.967	-	PAVEMENT_GENERAL	Urban	F	1011101000011101	0000000000010000	-	-	-	-	-	-	-	-	-	-	Terminate	
Unknown	111.98557	01/16/0117 10:15.06	00006719	6.895	Inter749t75-0	0.901	1	1	269.734	11.111	-142.3	0.074	0.000	D	F	1318.3	297.328	0.184	0.304	1487.727	1504.460	0.026	-	-2.316	0.114	-	-	-	Ambient302	11.278	77.762	-	PAVEMENT_GENERAL	Urban	F	1011101000011101	0000000000010000	-	-	-	-	-	-	-	-	-	-	Terminate	
Unknown	112.98560	01/16/0117 10:15.07	00006779	7.047	Inter749t3-4	-0.915	2	2	270.000	11.111	-125.8	0.065	0.000	D	F	1299.0	278.330	0.185	0.275	1480.986	1506.216	0.026	-	-2.129	0.030	-	-	-	Ambient302	11.832	83.377	-	PAVEMENT_GENERAL	Urban	F	1011101000011101	0000000000010000	-	-	-	-	-	-	-	-	-	-	Terminate	
Unknown	113.98561	01/16/0117 10:15.08	00006839	7.074	Inter749t3-4	-1.043	2	2	270.000	11.111	-28.1	0.041	0.000	D	F	1197.8	265.713	0.198	0.014	1473.912	1506.088	0.027	-	-0.359	-0.069	-	-	-	Ambient302	12.286	86.908	-	PAVEMENT_GENERAL	Urban	F	1011101000011101	0000000000010000	-	-	-	-	-	-	-	-	-	-	Terminate	
Unknown	114.98563	01/16/0117 10:15.09	00006899	6.879	Inter749t17-0	-1.563	1	1	270.062	11.111	35.5	0.046	0.000	D	F	1192.1	266.944	0.200	-0.079	1466.954	1505.569	0.026	-	0.585	-0.052	-	-	-	Ambient302	13.163	90.556	-	PAVEMENT_GENERAL	Urban	F	1011101000011101	0000000000010000	-	-	-	-	-	-	-	-	-	-	Terminate	
Unknown	115.98566	01/16/0117 10:15.10	00006959	7.085	Inter749t17-0	-1.693	1	1	270.084	11.111	-2.1	0.132	0.000	D	F	1510.7	269.356	0.210	0.012	1460.048	1505.445	0.023	-	-0.059	0.712	-	-	-	Ambient302	13.304	94.257	-	PAVEMENT_GENERAL	Urban	F	1011101000011101	0000000000010000	-	-	-	-	-	-	-	-	-	-	Terminate	
Unknown	116.98567	01/16/0117 10:15.11	00007019	8.414	Inter749t19-0	1.750	1	1	270.108	11.111	-5.5	0.242	0.000	D	F	1870.3	268.499	0.214	0.015	1452.382	1505.297	0.019	-	-0.123	1.529	-	-	-	Ambient302	11.269	94.818	-	PAVEMENT_GENERAL	Urban	F	1011101000011101	0000000000010000	-	-	-	-	-	-	-	-	-	-	Terminate	
Unknown	117.98569	01/16/0117 10:15.12	00007079	9.754	Inter749t19-0	1.451	1	1	270.091	11.111	-0.4	0.212	0.000	D	F	1921.0	268.154	0.210	-0.001	1443.268	1505.014	0.021	-	-0.011	1.145	-	-	-	Ambient302	9.874	96.306	-	PAVEMENT_GENERAL	Urban	F	1011101000011101	0000000000010000	-	-	-	-	-	-	-	-	-	-	Terminate	
Unknown	118.98571	01/16/0117 10:15.13	00007139	10.608	Inter749t19-0	1.093	1	1	270.061	11.111	3.4	0.127	0.000	D	F	1567.4	268.189	0.204	-0.013	1433.013	1504.675	0.024	-	0.097	0.405	-	-	-	Ambient302	9.556	101.373	-	PAVEMENT_GENERAL	Urban	F	1011101000011101	0000000000010000	-	-	-	-	-	-	-	-	-	-	Terminate	
Unknown	119.98573	01/16/0117 10:15.14	00007199	10.432	Inter749t19-0	0.807	1	1	270.061	11.111	2.6	0.062	0.000	D	F	1255.0	268.775	0.201	-0.008	1422.417	1504.401	0.028	-	0.084	-0.176	-	-	-	-	-	-	-	PAVEMENT_GENERAL	Urban	F	1111101000011101	0000000000010000	-	-	-	-	-	-	-	-	-	-	Terminate	
Unknown	120.98576	01/16/0117 10:15.15	00007259	10.603	Inter749t1-2	0.639	1	2	270.000	11.111	11.3	0.136	0.000	D	F	1514.1	269.575	0.203	-0.046	1411.946	1504.239	0.025	-	0.336	0.383	-	-	-	-	-	-	-	PAVEMENT_GENERAL	Urban	F	1011101000011101	0000000000010000	-	-	-	-	-	-	-	-	-	-	Terminate	
Unknown	121.98577	01/16/0117 10:15.16	00007319	11.068	Inter749t1-2	0.758	1	2	270.000	11.111	2.4	0.118	0.000	D	F	1503.5	271.378	0.198	-0.012	1401.109	1504.358	0.024	-	0.139	0.323	-	-	-	-	-	-	-	PAVEMENT_GENERAL	Urban	F	1111101000011101	0000000000010000	-	-	-	-	-	-	-	-	-	-	Terminate	
Unknown	122.98579	01/16/0117 10:15.17	00007379	11.182	Inter747t1-2	0.999	1	2	270.000	11.111	-5.4	0.104	0.000	D	F	1463.0	270.907	0.200	0.023	1389.986	1504.606	0.026	-	-0.193	0.178	-	-	-	Ambient302	8.592	96.078	167.203	PAVEMENT_GENERAL	Urban	F	1011101000011101	0000000000010000	-	-	-	-	-	-	-	-	-	-	Terminate	
Unknown	123.98581	01/16/0117 10:15.18	00007439	11.394	Inter747t1-2	1.117	1	2	270.000	11.111	-1.4	0.115	0.000	D	F	1498.2	270.458	0.202	0.004	1378.703	1504.724	0.025	-	-0.051	0.226	-	-	-	Ambient302	8.372	95.394	121.250	PAVEMENT_GENERAL	Urban	F	1011101000011101	0000000000010000	-	-	-	-	-	-	-	-	-	-	Terminate	
Unknown	124.98583	01/16/0117 10:15.19	00007499	11.618	Inter747t1-2	1.184	1	2	270.000	11.111	-1.7	0.115	0.000	D	F	1508.0	270.218	0.201	0.007	1367.196	1504.790	0.025	-	-0.058	0.216	-	-	-	Ambient302	8.133	94.489	93.492	PAVEMENT_GENERAL	Urban	F	1011101000011101	0000000000010000	-	-	-	-	-	-	-	-	-	-	Terminate	
Unknown	125.98586	01/16/0117 10:15.20	00007559	11.783	Inter747t1-2	1.194	1	2	270.000	11.111	-1.7	0.078	0.000	D	F	1384.7	269.903	0.192	0.008	1355.477	1504.801	0.026	-	-0.063	-0.041	-	-	-	Ambient302	7.924	93.372	79.393	PAVEMENT_GENERAL	Urban	F	1011101000011101	0000000000010000	-	-	-	-	-	-	-	-	-	-	Terminate	
Unknown	126.98587	01/16/0117 10:15.21	00007619	11.825	Inter747t1-2	1.156	1	2	270.000	11.111	0.5	0.090	0.000	D	F	1446.6	269.807	0.199	-0.002	1343.679	1504.762	0.026	-	0.017	0.068	-	-	-	Ambient302	7.795	92.177	75.704	PAVEMENT_GENERAL	Urban	F	1011101000011101	0000000000010000	-	-	-	-	-	-	-	-	-	-	Terminate	
Unknown	127.98589	01/16/0117 10:15.22	00007679	11.931	Inter747t1-2	1.135	1	2	270.000	11.111	1.6	0.101	0.000	D	F	1479.5	270.034	0.200	-0.009	1331.805	1504.742	0.026	-	0.063	0.122	-	-	-	Ambient302	7.620	90.912	68.671	PAVEMENT_GENERAL	Urban	F	1011101000011101	0000000000010000	-	-	-	-	-	-	-	-	-	-	Terminate	
Unknown	128.98592	01/16/0117 10:15.23	00007739	12.049	Inter747t1-2	1.167	1	2	270.000	11.111	1.1	0.101	0.000	D	F	1492.0	270.247	0.199	-0.005	1319.816	1504.774	0.026	-	0.040	0.123	-	-	-	Ambient302	7.430	89.532	62.079	PAVEMENT_GENERAL	Urban	F	1011101000011101	0000000000010000	-	-	-	-	-	-	-	-	-	-	Terminate	
Unknown	129.98593	01/16/0117 10:15.24	00007799	12.167	Inter747t1-2	1.241	1	2	270.000	11.111	0.6	0.099	0.000	D	F	1498.3	270.440	0.199	-0.004	1307.708	1504.847	0.026	-	0.028	0.122	-	-	-	Ambient302	7.235	88.032	56.443	PAVEMENT_GENERAL	Urban	F	1011101000011101	0000000000010000	-	-	-	-	-	-	-	-	-	-	Terminate	
Unknown	130.98595	01/16/0117 10:15.25	00007859	12.180	Inter747t1-2	1.332	1	2	270.000	11.111	-4.8	0.095	0.000	D	F	1472.4	270.241	0.201	0.026	1295.511	1504.939	0.027	-	-0.179	0.038	-	-	-	Ambient302	7.096	86.437	54.936	PAVEMENT_GENERAL	Urban	F	1011101000011101	0000000000010000	-	-	-	-	-	-	-	-	-	-	Terminate	
Unknown	131.98598	01/16/0117 10:15.26	00007919	12.387	Inter747t1-2	1.284	1	2	270.000	11.111	-2.2	0.136	0.000	D	F	1598.3	269.330	0.200	0.012	1283.244	1504.891	0.025	-	-0.123	0.273	-	-	-	Ambient302	6.843	84.763	47.618	PAVEMENT_GENERAL	Urban	F	1011101000011101	0000000000010000	-	-	-	-	-	-	-	-	-	-	Terminate	
Unknown	132.98599	01/16/0117 10:15.27	00007979	12.722	Inter747t1-2	1.101	1	2	270.000	11.111	-0.3	0.157	0.000	D	F	1664.5	269.029	0.202	0.005	1270.694	1504.707	0.025	-	-0.034	0.361	-	-	-	Ambient302	6.510	82.815	39.164	PAVEMENT_GENERAL	Urban	F	1011101000011101	0000000000010000	-	-	-	-	-	-	-	-	-	-	Terminate	
Unknown	133.98601	01/16/0117 10:15.28	00008039	13.113	Inter747t1-2	0.960	1	2	270.000	11.111	2.8	0.164	0.000	D	F	1708.4	269.988	0.200	-0.029	1257.781	1504.567	0.025	-	0.216	0.404	-	-	-	-	-	-	-	PAVEMENT_GENERAL	Urban	F	1011101000011101	0000000000010000	-	-	-	-	-	-	-	-	-	-	Terminate	
Unknown	134.98604	01/16/0117 10:15.29	00008099	13.498	Inter747t1-2	0.944	1	2	270.000	11.111	-0.6	0.164	0.000	D	F	1726.4	269.741	0.201	0.006	1244.475	1504.551	0.025	-	-0.065	0.380	-	-	-	-	-	-	-	PAVEMENT_GENERAL	Urban	F	1011101000011101	0000000000010000	-	-	-	-	-	-	-	-	-	-	Terminate	
Unknown	135.98605	01/16/0117 10:15.30	00008159	13.873	Inter747t1-2	0.860	1	2	270.000	11.111	-0.6	0.166	0.000	D	F	1745.1	269.556	0.200	0.005	1230.788	1504.467	0.025	-	-0.035	0.362	-	-	-	-	-	-	-	PAVEMENT_GENERAL	Urban	F	1011101000011101	0000000000010000	-	-	-	-	-	-	-	-	-	-	Terminate	
Unknown	136.98607	01/16/0117 10:15.31	00008219	14.103	Inter747t1-2	0.751	1	2	270.000	11.111	0.5	0.157	0.000	D	F	1729.1	269.584	0.202	-0.003	1216.775	1504.358	0.026	-	0.024	0.236	-	-	-	-	-	-	-	PAVEMENT_GENERAL	Urban	F	1111101000011101	0000000000010000	-	-	-	-	-	-	-	-	-	-	Terminate	
Unknown	137.98610	01/16/0117 10:15.32	00008279	14.436	Inter747t1-2	0.658	1	2	270.000	11.111	0.5	0.171	0.000	D	F	1788.6	269.666	0.200	-0.003	1202.510	1504.264	0.025	-	0.023	0.358	-	-	-	-	-	-	-	PAVEMENT_GENERAL	Urban	F	1011101000011101	0000000000010000	-	-	-	-	-	-	-	-	-	-	Terminate	
Unknown	138.98611	01/16/0117 10:15.33	00008339	14.728	Inter748t1-2	0.607	1	2	270.000	11.111	4.1	0.150	0.000	D	F	1743.9	270.097	0.196	-0.025	1187.904	1504.214	0.026	-	0.197	0.187	-	-	-	-	-	-	-	PAVEMENT_GENERAL	Urban	F	1011101000011101	0000000000010000	-	-	-	-	-	-	-	-	-	-	Terminate	
Unknown	139.98613	01/16/0117 10:15.34	00008399	15.163	Inter748t1-2	0.718	1	2	270.000	11.111	0.7	0.217	0.000	D	F	1931.8	270.636	0.201	-0.008	1172.986	1504.324	0.024	-	0.045	0.550	-	-	-	-	-	-	-	PAVEMENT_GENERAL	Urban	F	1011101000011101	0000000000010000	-	-	-	-	-	-	-	-	-	-	Terminate	
Unknown	140.98616	01/16/0117 10:15.35	00008459	15.737	Inter748t1-2	0.869	1	2	270.000	11.111	-0.6	0.219	0.000	D	F	1969.0	270.443	0.199	0.005	1157.534	1504.476	0.024	-	-0.046	0.557	-	-	-	-	-	-	-	PAVEMENT_GENERAL	Urban	F	1011101000011101	0000000000010000	-	-	-	-	-	-	-	-	-	-	Terminate	
Unknown	141.98618	01/16/0117 10:15.36	00008519	16.247	Inter748t1-2	0.976	1	2	270.000	11.111	-1.0	0.219	0.000	D	F	1997.9	270.298	0.198	0.007	1141.543	1504.583	0.024	-	-0.051	0.531	-	-	-	-	-	-	-	PAVEMENT_GENERAL	Urban	F	1011101000011101	0000000000010000	-	-	-	-	-	-	-	-	-	-	Terminate	
Unknown	142.98619	01/16/0117 10:15.37	00008579	16.762	Inter748t1-2	1.020	1	2	270.000	11.111	-2.4	0.220	0.000	D	F	2021.7	269.908	0.197	0.019	1125.033	1504.627	0.024	-	-0.146	0.488	-	-	-	Ambient302	2.860	47.939	7.788	PAVEMENT_GENERAL	Urban	F	1011101000011101	0000000000010000	-	-	-	-	-	-	-	-	-	-	Terminate	
Unknown	143.98621	01/16/0117 10:15.38	00008639	16.981	Inter748t1-2	0.943	1	2	270.000	11.111	-1.4	0.097	0.000	D	F	1822.9	269.562	0.196	0.011	1108.083	1504.550	0.027	-	-0.084	-0.065	-	-	-	-	-	-	-	PAVEMENT_GENERAL	Urban	F	1011101000011101	0000000000010000	-	-	-	-	-	-	-	-	-	-	Terminate	
Unknown	144.98624	01/16/0117 10:15.39	00008699	16.604	Inter748t1-2	0.807	1	2	270.000	11.111	2.2	0.000	0.000	D	F	1630.5	269.681	0.185	-0.022	1091.240	1504.414	0.029	-	0.151	-0.603	-	-	-	-	-	-	-	PAVEMENT_GENERAL	Urban	F	1011101000011101	0000000000010000	-	-	-	-	-	-	-	-	-	-	Terminate	
Unknown	145.98625	01/16/0117 10:15.40	00008759	16.013	Inter748t1-2	0.777	1	2	270.000	11.111	1.5	0.000	0.000	D	F	1572.4	270.145	0.186	-0.015	1074.934	1504.384	0.029	-	0.115	-0.593	-	-	-	-	-	-	-	PAVEMENT_GENERAL	Urban	F	1011101000011101	0000000000010000	-	-	-	-	-	-	-	-	-	-	Terminate	
Unknown	146.98627	01/16/0117 10:15.41	00008819	15.425	Inter748t1-2	0.798	1	2	270.000	11.111	-2.7	0.000	0.000	D	F	1514.8	269.677	0.188	0.030	1059.216	1504.404	0.029	-	-0.237	-0.583	-	-	-	-	-	-	-	PAVEMENT_GENERAL	Urban	F	1011101000011101	0000000000010000	-	-	-	-	-	-	-	-	-	-	Terminate	
Unknown	147.98630	01/16/0117 10:15.42	00008879	14.907	Inter748t1-2	0.706	1	2	270.000	11.111	2.5	0.000	0.000	D	F	1463.4	269.892	0.188	-0.025	1044.064	1504.312	0.029	-	0.178	-0.538	-	-	-	-	-	-	-	PAVEMENT_GENERAL	Urban	F	1011101000011101	0000000000010000	-	-	-	-	-	-	-	-	-	-	Terminate	
Unknown	148.98631	01/16/0117 10:15.43	00008939	14.449	Inter748t1-2	0.722	1	2	270.000	11.111	-3.0	0.004	0.000	D	F	1419.2	270.094	0.189	0.021	1029.382	1504.329	0.029	-	-0.119	-0.545	-	-	-	-	-	-	-	PAVEMENT_GENERAL	Urban	F	1011101000011101	0000000000010000	-	-	-	-	-	-	-	-	-	-	Terminate	
Unknown	149.98633	01/16/0117 10:15.44	00008999	14.208	Inter748t1-2	0.674	1	2	270.000	11.111	-2.4	0.060	0.000	D	F	1525.5	269.544	0.194	0.015	1015.073	1504.281	0.027	-	-0.116	-0.194	-	-	-	-	-	-	-	PAVEMENT_GENERAL	Urban	F	1011101000011101	0000000000010000	-	-	-	-	-	-	-	-	-	-	Terminate	
Unknown	150.98636	01/16/0117 10:15.45	00009059	13.951	Inter748t1-2	0.512	1	2	270.000	11.111	-1.9	0.053	0.000	D	F	1480.6	269.138	0.193	0.012	1000.986	1504.119	0.028	-	-0.092	-0.250	12	340.7	-7.593	-	-	-	-	PAVEMENT_GENERAL	Urban	F	1011101000011101	0000000000010000	-	-	-	-	-	-	-	-	-	-	Terminate	
Unknown	151.98637	01/16/0117 10:15.46	00009119	13.741	Inter752t1-2	-0.400	1	2	269.954	24.444	7.3	0.062	0.000	D	F	1486.1	269.258	-0.069	-0.314	987.155	1503.891	0.052	-	0.276	-0.143	-	-	-	-	-	-	-	FREEWAY_SMOOTH	Urban	F	1011101000011101	0000000000010000	-	-	-	-	-	-	-	-	-	-	Terminate	
Unknown	152.98639	01/16/0117 10:15.47	00009179	13.620	Inter752t1-2	-0.321	1	2	269.461	24.444	-1.6	0.058	0.000	D	F	1471.5	270.695	0.308	-0.617	973.476	1503.897	0.068	-	0.016	-0.121	-	-	-	-	-	-	-	FREEWAY_SMOOTH	Urban	F	1011101000011101	0000000000010000	-	-	-	-	-	-	-	-	-	-	Terminate	
Unknown	153.98642	01/16/0117 10:15.48	00009239	13.332	Inter752t1-2	-0.154	1	2	268.698	24.444	-7.2	0.035	0.000	D	F	1361.4	268.513	0.289	-0.902	959.974	1503.847	0.095	-	-0.539	-0.323	-	-	-	-	-	-	-	FREEWAY_SMOOTH	Urban	F	1011101000011101	0000000000010000	-	-	-	-	-	-	-	-	-	-	Terminate	
Unknown	154.98643	01/16/0117 10:15.49	00009299	13.066	Inter752t1-2	-0.245	1	2	267.645	24.444	-4.4	0.041	0.000	D	F	1391.3	267.239	0.289	-1.254	946.792	1503.331	0.116	-	-0.273	-0.220	-	-	-	-	-	-	-	FREEWAY_SMOOTH	Urban	F	1011101000011101	0000000000010000	-	-	-	-	-	-	-	-	-	-	Terminate	
Unknown	155.98645	01/16/0117 10:15.50	00009359	12.834	Inter752t1-2	-0.339	1	2	266.305	24.444	-4.3	0.041	0.000	D	F	1359.1	266.035	0.291	-1.577	933.866	1502.546	0.135	-	-0.276	-0.224	-	-	-	-	-	-	-	FREEWAY_SMOOTH	Urban	F	1011101000011101	0000000000010000	-	-	-	-	-	-	-	-	-	-	Terminate	
Unknown	156.98647	01/16/0117 10:15.51	00009419	12.593	Inter752t1-2	-0.374	1	2	264.697	24.444	-4.1	0.042	0.000	D	F	1343.1	264.861	0.293	-1.892	921.197	1501.505	0.156	-	-0.271	-0.225	-	-	-	-	-	-	-	FREEWAY_SMOOTH	Urban	F	1011101000011101	0000000000010000	-	-	-	-	-	-	-	-	-	-	Terminate	
Unknown	157.98650	01/16/0117 10:15.52	00009479	12.370	Inter752t1-2	-0.299	1	2	262.841	24.444	-4.1	0.044	0.000	D	F	1331.2	263.588	0.322	-2.200	908.786	1500.212	0.180	-	-0.286	-0.201	-	-	-	-	-	-	-	FREEWAY_SMOOTH	Urban	F	1011101000011101	0000000000010000	-	-	-	-	-	-	-	-	-	-	Terminate	
Unknown	158.98651	01/16/0117 10:15.53	00009539	12.018	Inter752t1-2	-0.086	1	2	260.762	24.444	-4.2	0.007	0.000	D	F	1182.1	262.313	0.363	-2.501	896.656	1498.665	0.211	-	-0.267	-0.427	-	-	-	-	-	-	-	FREEWAY_SMOOTH	Urban	F	1011101000011101	0000000000010000	-	-	-	-	-	-	-	-	-	-	Terminate	
Unknown	159.98653	01/16/0117 10:15.54	00009599	11.606	Inter752t1-2	0.301	1	2	258.507	24.444	-5.1	0.007	0.000	D	F	1140.8	261.010	0.429	-2.787	884.969	1496.902	0.251	-	-0.290	-0.473	-	-	-	-	-	-	-	FREEWAY_SMOOTH	Urban	F	1011101000011101	0000000000010000	-	-	-	-	-	-	-	-	-	-	Terminate	
Unknown	160.98656	01/16/0117 10:15.55	00009659	11.217	Inter752t1-2	0.845	1	2	256.136	24.444	-19.9	0.023	0.000	D	F	1151.7	259.260	0.495	-2.997	873.738	1494.910	0.302	-	-0.745	-0.347	-	-	-	-	-	-	-	FREEWAY_SMOOTH	Urban	F	1011101000011101	0000000000010000	-	-	-	-	-	-	-	-	-	-	Terminate	
Unknown	161.98657	01/16/0117 10:15.56	00009719	10.958	Inter752t1-2	1.045	1	2	253.609	24.444	-14.2	0.039	0.000	D	F	1202.8	253.097	0.298	-3.295	863.008	1492.187	0.337	-	-0.775	-0.193	-	-	-	-	-	-	-	FREEWAY_SMOOTH	Urban	F	1011101000011101	0000000000010000	-	-	-	-	-	-	-	-	-	-	Terminate	
Unknown	162.98659	01/16/0117 10:15.57	00009779	10.837	Inter752t1-2	0.860	1	2	250.888	24.444	-11.5	0.055	0.000	D	F	1248.3	250.063	0.145	-3.435	852.698	1488.660	0.338	-	-0.529	-0.127	-	-	-	-	-	-	-	FREEWAY_SMOOTH	Urban	F	1011101000011101	0000000000010000	-	-	-	-	-	-	-	-	-	-	Terminate	
Unknown	163.98662	01/16/0117 10:15.58	00009839	10.758	Inter752t1-2	0.711	1	2	248.194	24.444	-4.5	0.081	0.000	D	F	1347.5	248.253	0.204	-3.481	842.654	1484.726	0.329	-	-0.254	0.005	-	-	-	-	-	-	-	FREEWAY_SMOOTH	Urban	F	1011101000011101	0000000000010000	-	-	-	-	-	-	-	-	-	-	Terminate	
Unknown	164.98663	01/16/0117 10:15.59	00009899	10.922	Inter752t1-2	0.677	1	2	245.539	24.444	-17.6	0.108	0.000	D	F	1465.2	245.184	0.189	-3.417	832.725	1480.415	0.326	-	-0.741	0.237	-	-	-	-	-	-	-	FREEWAY_SMOOTH	Urban	F	1011101000011101	0000000000010000	-	-	-	-	-	-	-	-	-	-	Terminate	
Unknown	165.98665	01/16/0117 10:16.00	00009959	11.170	Inter752t1-2	0.474	1	2	242.786	24.444	-16.9	0.122	0.000	D	F	1513.8	241.632	0.131	-3.414	822.899	1475.392	0.313	-	-0.718	0.301	-	-	-	-	-	-	-	FREEWAY_SMOOTH	Urban	F	1011101000011101	0000000000010000	-	-	-	-	-	-	-	-	-	-	Terminate	
Unknown	166.98668	01/16/0117 10:16.01	00010019	11.500	Inter752t1-2	0.111	1	2	239.920	24.444	-14.9	0.132	0.000	D	F	1552.3	237.967	0.092	-3.415	813.150	1469.616	0.291	-	-0.706	0.340	-	-	-	-	-	-	-	FREEWAY_SMOOTH	Urban	F	1011101000011101	0000000000010000	-	-	-	-	-	-	-	-	-	-	Terminate	
Unknown	167.98669	01/16/0117 10:16.02	00010079	11.852	Inter752t1-2	-0.339	1	2	237.027	24.444	-2.2	0.139	0.000	D	F	1587.2	235.285	0.106	-3.471	803.457	1463.107	0.264	-	-0.308	0.358	-	-	-	-	-	-	-	FREEWAY_SMOOTH	Urban	F	1011101000011101	0000000000010000	-	-	-	-	-	-	-	-	-	-	Terminate	
Unknown	168.98671	01/16/0117 10:16.03	00010139	12.189	Inter752t1-2	-0.476	1	2	234.021	24.444	-13.3	0.139	0.000	D	F	1603.2	234.712	0.247	-3.429	793.643	1456.159	0.256	-	-0.513	0.315	-	-	-	-	-	-	-	FREEWAY_SMOOTH	Urban	F	1011101000011101	0000000000010000	-	-	-	-	-	-	-	-	-	-	Terminate	
Unknown	169.98674	01/16/0117 10:16.04	00010199	12.444	Inter752t1-2	-0.395	1	2	230.903	24.444	-13.7	0.127	0.000	D	F	1576.4	231.329	0.230	-3.412	783.841	1448.687	0.261	-	-0.733	0.226	-	-	-	-	-	-	-	FREEWAY_SMOOTH	Urban	F	1011101000011101	0000000000010000	-	-	-	-	-	-	-	-	-	-	Terminate	
Unknown	170.98676	01/16/0117 10:16.05	00010259	12.612	Inter752t1-2	-0.368	1	2	227.787	24.444	-13.8	0.122	0.000	D	F	1567.5	227.984	0.222	-3.412	774.331	1440.515	0.263	-	-0.743	0.171	-	-	-	-	-	-	-	FREEWAY_SMOOTH	Urban	F	1011101000011101	0000000000010000	-	-	-	-	-	-	-	-	-	-	Terminate	
Unknown	171.98677	01/16/0117 10:16.06	00010319	12.793	Inter752t1-2	-0.390	1	2	224.592	24.444	-14.0	0.120	0.000	D	F	1574.0	224.547	0.201	-3.411	765.202	1431.680	0.262	-	-0.767	0.171	-	-	-	-	-	-	-	FREEWAY_SMOOTH	Urban	F	1011101000011101	0000000000010000	-	-	-	-	-	-	-	-	-	-	Terminate	
Unknown	172.98679	01/16/0117 10:16.07	00010379	12.972	Inter752t1-2	-0.464	1	2	221.364	24.444	-13.8	0.125	0.000	D	F	1589.6	221.100	0.193	-3.409	756.499	1422.183	0.257	-	-0.776	0.180	-	-	-	-	-	-	-	FREEWAY_SMOOTH	Urban	F	1011101000011101	0000000000010000	-	-	-	-	-	-	-	-	-	-	Terminate	
Unknown	173.98682	01/16/0117 10:16.08	00010439	13.132	Inter752t1-2	-0.596	1	2	218.092	24.444	-25.8	0.113	0.000	D	F	1570.1	217.290	0.157	-3.340	748.278	1412.036	0.250	-	-1.228	0.125	-	-	-	-	-	-	-	FREEWAY_SMOOTH	Urban	F	1011101000011101	0000000000010000	-	-	-	-	-	-	-	-	-	-	Terminate	
Unknown	174.98683	01/16/0117 10:16.09	00010499	13.279	Inter752t1-2	-1.082	1	2	214.788	24.444	5.5	0.118	0.000	D	F	1590.5	212.204	0.050	-3.483	740.861	1401.117	0.220	-	-0.317	0.165	-	-	-	-	-	-	-	FREEWAY_SMOOTH	Urban	F	1011101000011101	0000000000010000	-	-	-	-	-	-	-	-	-	-	Terminate	
Unknown	175.98685	01/16/0117 10:16.10	00010559	13.437	Inter752t1-2	-1.126	1	2	211.425	24.444	-6.9	0.125	0.000	D	F	1615.8	214.005	0.353	-3.469	733.628	1389.883	0.218	-	-0.117	0.138	-	-	-	-	-	-	-	FREEWAY_SMOOTH	Urban	F	1011101000011101	0000000000010000	-	-	-	-	-	-	-	-	-	-	Terminate	
Unknown	176.98688	01/16/0117 10:16.11	00010619	13.579	Inter752t1-2	-0.802	1	2	208.048	24.444	-32.4	0.129	0.000	D	F	1629.2	207.443	0.163	-3.264	726.680	1378.307	0.237	-	-1.895	0.161	-	-	-	-	-	-	-	FREEWAY_SMOOTH	Urban	F	1011101000011101	0000000000010000	-	-	-	-	-	-	-	-	-	-	Terminate	
Unknown	177.98689	01/16/0117 10:16.12	00010679	13.757	Inter752t1-2	-1.159	1	2	204.609	24.444	-7.1	0.129	0.000	D	F	1642.3	203.286	0.121	-3.428	720.973	1365.892	0.216	-	-0.596	0.179	-	-	-	-	-	-	-	FREEWAY_SMOOTH	Urban	F	1011101000011101	0000000000010000	-	-	-	-	-	-	-	-	-	-	Terminate	
Unknown	178.98691	01/16/0117 10:16.13	00010739	13.944	Inter752t1-2	-1.204	1	2	201.128	24.444	3.8	0.136	0.000	D	F	1668.7	202.805	0.301	-3.508	715.661	1353.097	0.213	-	0.035	0.177	-	-	-	-	-	-	-	FREEWAY_SMOOTH	Urban	F	1011101000011101	0000000000010000	-	-	-	-	-	-	-	-	-	-	Terminate	
Unknown	179.98694	01/16/0117 10:16.14	00010799	14.101	Inter752t1-2	-0.440	1	2	197.619	24.444	-21.2	0.134	0.000	D	F	1672.3	202.078	0.443	-3.355	710.325	1340.123	0.258	-	-0.859	0.122	-	-	-	-	-	-	-	FREEWAY_SMOOTH	Urban	F	1011101000011101	0000000000010000	-	-	-	-	-	-	-	-	-	-	Terminate	
Unknown	180.98695	01/16/0117 10:16.15	00010859	14.128	Inter752t1-2	0.201	1	2	194.316	24.444	-36.1	0.125	0.000	D	F	1647.5	194.286	0.085	-2.840	705.871	1326.733	0.270	-	-2.195	0.064	-	-	-	-	-	-	-	FREEWAY_SMOOTH	Urban	F	1011101000011101	0000000000010000	-	-	-	-	-	-	-	-	-	-	Terminate	
Unknown	181.98697	01/16/0117 10:16.16	00010919	14.193	Inter752t1-2	-0.278	1	2	191.285	24.444	-7.0	0.138	0.000	D	F	1687.7	188.456	-0.035	-2.694	703.247	1312.843	0.219	-	-0.663	0.163	-	-	-	-	-	-	-	FREEWAY_SMOOTH	Urban	F	1011101000011101	0000000000010000	-	-	-	-	-	-	-	-	-	-	Terminate	
Unknown	182.98700	01/16/0117 10:16.17	00010979	14.374	Inter752t1-2	-0.723	1	2	188.610	24.444	8.0	0.150	0.000	D	F	1731.2	188.700	0.120	-2.468	701.251	1298.703	0.176	-	0.353	0.197	-	-	-	-	-	-	-	FREEWAY_SMOOTH	Urban	F	1011101000011101	0000000000010000	-	-	-	-	-	-	-	-	-	-	Terminate	
Unknown	183.98701	01/16/0117 10:16.18	00011039	14.566	Inter752t1-2	-0.393	1	2	186.263	24.444	-7.5	0.162	0.000	D	F	1770.9	188.522	0.179	-2.015	699.081	1284.399	0.165	-	-0.382	0.233	-	-	-	-	-	-	-	FREEWAY_SMOOTH	Urban	F	1011101000011101	0000000000010000	-	-	-	-	-	-	-	-	-	-	Terminate	
Unknown	184.98703	01/16/0117 10:16.19	00011099	14.810	Inter752t1-2	0.098	1	2	184.264	24.444	-16.9	0.169	0.000	D	F	1793.2	185.580	0.131	-1.580	697.272	1269.826	0.155	-	-0.940	0.255	-	-	-	-	-	-	-	FREEWAY_SMOOTH	Urban	F	1011101000011101	0000000000010000	-	-	-	-	-	-	-	-	-	-	Terminate	
Unknown	185.98706	01/16/0117 10:16.20	00011159	15.064	Inter752t1-2	0.201	1	2	182.621	24.444	-11.5	0.169	0.000	D	F	1809.0	182.183	0.080	-1.239	696.296	1254.923	0.130	-	-0.723	0.255	-	-	-	-	-	-	-	FREEWAY_SMOOTH	Urban	F	1011101000011101	0000000000010000	-	-	-	-	-	-	-	-	-	-	Terminate	
Unknown	186.98708	01/16/0117 10:16.21	00011219	15.320	Inter752t1-2	0.044	1	2	181.349	24.444	3.2	0.171	0.000	D	F	1828.4	181.017	0.083	-0.959	695.948	1239.736	0.098	-	0.032	0.255	-	-	-	-	-	-	-	FREEWAY_SMOOTH	Urban	F	1011101000011101	0000000000010000	-	-	-	-	-	-	-	-	-	-	Terminate	
Unknown	187.98709	01/16/0117 10:16.22	00011279	15.580	Inter752t1-2	0.122	1	2	180.488	24.444	2.2	0.169	0.000	D	F	1832.0	181.386	0.092	-0.580	695.640	1224.285	0.070	-	0.089	0.209	-	-	-	-	-	-	-	FREEWAY_SMOOTH	Urban	F	1011101000011101	0000000000010000	-	-	-	-	-	-	-	-	-	-	Terminate	
Unknown	188.98711	01/16/0117 10:16.23	00011339	15.852	Inter752t1-2	0.473	1	2	180.054	24.444	-8.3	0.180	0.000	D	F	1872.5	181.673	0.086	-0.155	695.229	1208.580	0.041	-	-0.174	0.276	-	-	-	-	-	-	-	FREEWAY_SMOOTH	Urban	F	1011101000011101	0000000000010000	-	-	-	-	-	-	-	-	-	-	Terminate	
Unknown	189.98714	01/16/0117 10:16.24	00011399	16.130	Inter754t3-2	1.240	1	2	180.000	11.111	-4.0	0.182	0.000	D	F	1888.7	178.515	0.193	0.073	695.154	1192.594	0.025	-	-0.585	0.299	-	-	-	Ambient423	-0.284	-4.580	-1.085	PAVEMENT_GENERAL	Urban	F	1011101000011101	0000000000010000	-	-	-	-	-	-	-	-	-	-	Terminate	
Unknown	190.98715	01/16/0117 10:16.25	00011459	16.434	Inter754t3-2	0.932	1	2	180.000	11.111	5.3	0.183	0.000	D	F	1916.1	179.733	0.195	-0.043	695.461	1176.314	0.025	-	0.398	0.304	-	-	-	Ambient434	4.700	77.241	18.151	PAVEMENT_GENERAL	Urban	F	1011101000011101	0000000000010000	-	-	-	-	-	-	-	-	-	-	Terminate	
Unknown	191.98717	01/16/0117 10:16.26	00011519	16.729	Inter754t3-2	0.966	1	2	180.000	11.111	1.4	0.183	0.000	D	F	1939.2	180.418	0.195	-0.016	695.427	1159.732	0.025	-	0.095	0.289	-	-	-	Ambient434	4.354	72.838	16.004	PAVEMENT_GENERAL	Urban	F	1011101000011101	0000000000010000	-	-	-	-	-	-	-	-	-	-	Terminate	
Unknown	192.98720	01/16/0117 10:16.27	00011579	17.025	Inter754t3-2	1.080	1	2	180.000	11.111	-0.5	0.185	0.000	D	F	1966.7	180.299	0.195	0.006	695.313	1142.857	0.025	-	-0.039	0.298	-	-	-	Ambient434	3.870	65.884	13.594	PAVEMENT_GENERAL	Urban	F	1011101000011101	0000000000010000	-	-	-	-	-	-	-	-	-	-	Terminate	
Unknown	193.98721	01/16/0117 10:16.28	00011639	17.322	Inter754t3-2	1.159	1	2	180.000	11.111	-0.5	0.164	0.000	D	F	1952.8	180.214	0.194	0.003	695.234	1125.682	0.025	-	-0.026	0.265	-	-	-	Ambient434	3.515	60.886	11.836	PAVEMENT_GENERAL	Urban	F	1011101000011101	0000000000010000	-	-	-	-	-	-	-	-	-	-	Terminate	
Unknown	194.98723	01/16/0117 10:16.29	00011699	16.940	Inter754t3-2	1.208	1	2	180.000	11.111	-1.3	0.062	0.000	D	F	1734.8	180.083	0.189	0.007	695.185	1108.532	0.028	-	-0.059	-0.302	-	-	-	Ambient434	3.301	55.913	11.743	PAVEMENT_GENERAL	Urban	F	1011101000011101	0000000000010000	-	-	-	-	-	-	-	-	-	-	Terminate	
Unknown	195.98726	01/16/0117 10:16.30	00011759	16.630	Inter754t9-0	1.199	1	1	179.993	11.111	-1.2	0.039	0.000	D	F	1640.2	179.846	0.187	0.011	695.195	1091.737	0.028	-	-0.066	-0.386	-	-	-	Ambient434	3.082	51.258	11.513	PAVEMENT_GENERAL	Urban	F	1011101000011101	0000000000010000	-	-	-	-	-	-	-	-	-	-	Terminate	
Unknown	196.98727	01/16/0117 10:16.31	00011819	14.978	Inter754t9-0	1.126	1	1	179.990	11.111	-2.2	0.078	0.036	D	F	1607.5	179.558	0.201	0.015	695.269	1075.741	0.031	-	-0.120	-0.942	-	-	-	Ambient434	3.320	49.727	17.759	PAVEMENT_GENERAL	Urban	F	1011101000011101	0000000000010000	-	-	-	-	-	-	-	-	-	-	Terminate	
Unknown	197.98729	01/16/0117 10:16.32	00011879	14.862	Inter754t9-0	0.958	1	1	179.989	11.111	-0.2	0.141	0.000	D	F	1734.7	179.124	0.198	0.004	695.440	1060.891	0.026	-	-0.045	0.181	-	-	-	Ambient434	3.167	47.063	17.533	PAVEMENT_GENERAL	Urban	F	1011101000011101	0000000000010000	-	-	-	-	-	-	-	-	-	-	Terminate	
Unknown	198.98732	01/16/0117 10:16.33	00011939	14.648	Inter754t9-0	0.766	1	1	179.992	11.111	2.8	0.011	0.021	D	F	1437.0	179.536	0.186	-0.023	695.635	1046.054	0.029	-	0.172	-0.680	-	-	-	Ambient434	3.032	44.417	17.985	PAVEMENT_GENERAL	Urban	F	1011101000011101	0000000000010000	-	-	-	-	-	-	-	-	-	-	Terminate	
Unknown	199.98734	01/16/0117 10:16.34	00011999	13.582	Inter754t9-0	0.690	1	1	179.996	11.111	-1.8	0.041	0.054	D	F	1406.3	179.585	0.184	0.010	695.713	1031.963	0.029	-	-0.106	-0.912	-	-	-	Ambient434	3.130	42.506	30.289	PAVEMENT_GENERAL	Urban	F	1011101000011101	0000000000010000	-	-	-	-	-	-	-	-	-	-	Terminate	
Unknown	200.98735	01/16/0117 10:16.35	00012059	13.092	Inter754t1-1	0.584	1	1	180.000	11.111	2.2	0.049	0.000	D	F	1403.6	179.673	0.195	-0.013	695.820	1018.699	0.027	-	0.100	-0.230	-	-	-	Ambient434	3.164	41.422	45.326	PAVEMENT_GENERAL	Urban	F	1011101000011101	0000000000010000	-	-	-	-	-	-	-	-	-	-	Terminate	
Unknown	201.98737	01/16/0117 10:16.36	00012119	12.864	Inter754t1-1	0.554	1	1	180.000	11.111	1.7	0.042	0.000	D	F	1376.1	180.050	0.195	-0.011	695.850	1005.724	0.027	-	0.076	-0.225	-	-	-	Ambient434	3.158	40.627	59.260	PAVEMENT_GENERAL	Urban	F	1011101000011101	0000000000010000	-	-	-	-	-	-	-	-	-	-	Terminate	
Unknown	202.98740	01/16/0117 10:16.37	00012179	12.471	Inter686t1-0	0.598	1	1	180.000	11.111	1.8	0.028	0.000	D	F	1293.8	180.412	0.195	-0.010	695.798	993.063	0.028	-	0.077	-0.336	-	-	-	Ambient434	3.219	40.146	137.083	PAVEMENT_GENERAL	Urban	F	1111101000011101	0000000000010000	-	-	-	-	-	-	-	-	-	-	Terminate	
Unknown	203.98741	01/16/0117 10:16.38	00012239	12.167	Inter686t1-0	0.688	1	1	180.000	11.111	-2.9	0.039	0.000	D	F	1302.1	180.243	0.196	0.015	695.709	980.749	0.028	-	-0.117	-0.268	-	-	-	Ambient434	3.289	40.012	-	PAVEMENT_GENERAL	Urban	F	1011101000011101	0000000000010000	-	-	-	-	-	-	-	-	-	-	Terminate	
Unknown	204.98743	01/16/0117 10:16.39	00012299	11.890	Inter686t1-0	0.691	1	1	180.000	11.111	0.0	0.039	0.000	D	F	1276.1	179.894	0.196	0.001	695.705	968.720	0.028	-	-0.008	-0.272	-	-	-	Ambient434	3.378	40.164	-	PAVEMENT_GENERAL	Urban	F	1011101000011101	0000000000010000	-	-	-	-	-	-	-	-	-	-	Terminate	
Unknown	205.98746	01/16/0117 10:16.40	00012359	11.649	Inter686t1-0	0.659	1	1	180.000	11.111	-9.6	0.056	0.000	D	F	1307.6	179.634	0.197	0.052	695.737	956.958	0.027	-	-0.312	-0.173	-	-	-	Ambient434	3.484	40.582	-	PAVEMENT_GENERAL	Urban	F	1011101000011101	0000000000010000	-	-	-	-	-	-	-	-	-	-	Terminate	
Unknown	206.98747	01/16/0117 10:16.41	00012419	11.619	Inter686t1-0	0.508	1	1	180.000	11.111	7.8	0.099	0.000	D	F	1456.9	179.550	0.201	-0.038	695.888	945.347	0.026	-	0.293	0.104	-	-	-	Ambient434	3.542	41.151	-	PAVEMENT_GENERAL	Urban	F	1011101000011101	0000000000010000	-	-	-	-	-	-	-	-	-	-	Terminate	
